[{"name":"Arrowtown","latitude":"-44.93837000","longitude":"168.81007000"},{"name":"Balclutha","latitude":"-46.23389000","longitude":"169.75000000"},{"name":"Clutha District","latitude":"-46.03883000","longitude":"169.60617000"},{"name":"Cromwell","latitude":"-45.03837000","longitude":"169.20008000"},{"name":"Dunedin","latitude":"-45.87416000","longitude":"170.50361000"},{"name":"Kingston","latitude":"-45.33288000","longitude":"168.71476000"},{"name":"Milton","latitude":"-46.12083000","longitude":"169.96944000"},{"name":"Oamaru","latitude":"-45.09758000","longitude":"170.97087000"},{"name":"Papatowai","latitude":"-46.56069000","longitude":"169.47068000"},{"name":"Portobello","latitude":"-45.85000000","longitude":"170.65000000"},{"name":"Queenstown","latitude":"-45.03023000","longitude":"168.66271000"},{"name":"Wanaka","latitude":"-44.70000000","longitude":"169.15000000"}]