[{"name":"Batiovo","latitude":"48.36166000","longitude":"22.39970000"},{"name":"Berehivs’ka Mis’krada","latitude":"48.21255000","longitude":"22.65536000"},{"name":"Berehove","latitude":"48.20555000","longitude":"22.64418000"},{"name":"Berehove Raion","latitude":"48.16667000","longitude":"22.66667000"},{"name":"Bereznyky","latitude":"48.51407000","longitude":"23.21982000"},{"name":"Berezovo","latitude":"48.30943000","longitude":"23.47400000"},{"name":"Bilky","latitude":"48.31503000","longitude":"23.13248000"},{"name":"Bobovo","latitude":"48.07166000","longitude":"22.89585000"},{"name":"Bohdan","latitude":"48.04122000","longitude":"24.35222000"},{"name":"Bushtyno","latitude":"48.05121000","longitude":"23.48579000"},{"name":"Chop","latitude":"48.43198000","longitude":"22.20555000"},{"name":"Chynadiyovo","latitude":"48.48179000","longitude":"22.82170000"},{"name":"Dovhe","latitude":"48.36527000","longitude":"23.27904000"},{"name":"Drahovo","latitude":"48.23573000","longitude":"23.54914000"},{"name":"Dubove","latitude":"48.17205000","longitude":"23.88954000"},{"name":"Horinchovo","latitude":"48.27076000","longitude":"23.43475000"},{"name":"Irshava","latitude":"48.31667000","longitude":"23.03846000"},{"name":"Irshava Raion","latitude":"48.33333000","longitude":"23.08333000"},{"name":"Iza","latitude":"48.21525000","longitude":"23.32867000"},{"name":"Kalyny","latitude":"48.14078000","longitude":"23.87380000"},{"name":"Kamianytsia","latitude":"48.69343000","longitude":"22.39570000"},{"name":"Khust","latitude":"48.17930000","longitude":"23.29909000"},{"name":"Khust Raion","latitude":"48.25000000","longitude":"23.41667000"},{"name":"Khusts’ka Mis’krada","latitude":"48.19058000","longitude":"23.30322000"},{"name":"Kolochava","latitude":"48.42851000","longitude":"23.69590000"},{"name":"Kopashnovo","latitude":"48.21970000","longitude":"23.48457000"},{"name":"Korolevo","latitude":"48.15247000","longitude":"23.13659000"},{"name":"Koson’","latitude":"48.25505000","longitude":"22.45597000"},{"name":"Kryva","latitude":"48.17234000","longitude":"23.23647000"},{"name":"Kushnytsya","latitude":"48.43988000","longitude":"23.25816000"},{"name":"Kvasy","latitude":"48.14973000","longitude":"24.27995000"},{"name":"Lazeshchyna","latitude":"48.26852000","longitude":"24.42010000"},{"name":"Lazi","latitude":"48.06667000","longitude":"24.23333000"},{"name":"Lopukhiv","latitude":"48.36527000","longitude":"23.96382000"},{"name":"Lypcha","latitude":"48.26107000","longitude":"23.38336000"},{"name":"Lysychovo","latitude":"48.49677000","longitude":"23.28992000"},{"name":"Mizhhirya","latitude":"48.52458000","longitude":"23.50563000"},{"name":"Mizhhirya Raion","latitude":"48.58333000","longitude":"23.50000000"},{"name":"Mukacheve","latitude":"48.43919000","longitude":"22.71779000"},{"name":"Mukachevo Raion","latitude":"48.41667000","longitude":"22.66667000"},{"name":"Muzhiyevo","latitude":"48.17959000","longitude":"22.69943000"},{"name":"Mynay","latitude":"48.58880000","longitude":"22.27502000"},{"name":"Nelipyno","latitude":"48.56101000","longitude":"23.03146000"},{"name":"Neresnytsya","latitude":"48.11814000","longitude":"23.76588000"},{"name":"Nevyts’ke","latitude":"48.67472000","longitude":"22.38813000"},{"name":"Nove Davydkovo","latitude":"48.44133000","longitude":"22.62164000"},{"name":"Nyzhnye Selyshche","latitude":"48.19911000","longitude":"23.44757000"},{"name":"Oleshnyk","latitude":"48.16406000","longitude":"22.96167000"},{"name":"Onokivtsi","latitude":"48.65763000","longitude":"22.34183000"},{"name":"Perechyn","latitude":"48.73616000","longitude":"22.48200000"},{"name":"Perechyn Raion","latitude":"48.75000000","longitude":"22.66667000"},{"name":"Pidvynohradiv","latitude":"48.13947000","longitude":"22.97194000"},{"name":"Poroshkovo","latitude":"48.66832000","longitude":"22.75328000"},{"name":"Pylypets","latitude":"48.65899000","longitude":"23.28346000"},{"name":"Rakhiv","latitude":"48.05260000","longitude":"24.20089000"},{"name":"Rakhiv Raion","latitude":"48.08333000","longitude":"24.33333000"},{"name":"Rakoshyno","latitude":"48.46713000","longitude":"22.59687000"},{"name":"Rokosovo","latitude":"48.21018000","longitude":"23.17624000"},{"name":"Serednye","latitude":"48.54043000","longitude":"22.50696000"},{"name":"Serednye Vodyane","latitude":"47.98159000","longitude":"23.91041000"},{"name":"Solotvyno","latitude":"47.94604000","longitude":"23.87035000"},{"name":"Storozhnytsya","latitude":"48.60403000","longitude":"22.23269000"},{"name":"Strabychovo","latitude":"48.39247000","longitude":"22.54308000"},{"name":"Svaliava Raion","latitude":"48.55000000","longitude":"23.00000000"},{"name":"Svalyava","latitude":"48.54853000","longitude":"22.99578000"},{"name":"Synevyr","latitude":"48.48745000","longitude":"23.62575000"},{"name":"Synevyrska Poliana","latitude":"48.58484000","longitude":"23.68910000"},{"name":"Tiachiv Raion","latitude":"48.08333000","longitude":"23.58333000"},{"name":"Tyachiv","latitude":"48.01179000","longitude":"23.57061000"},{"name":"Uzhgorod","latitude":"48.61667000","longitude":"22.30000000"},{"name":"Uzhhorod Raion","latitude":"48.58333000","longitude":"22.33333000"},{"name":"Vary","latitude":"48.12207000","longitude":"22.71281000"},{"name":"Velyki Berehy","latitude":"48.23187000","longitude":"22.74591000"},{"name":"Velykyi Bereznyi","latitude":"48.88831000","longitude":"22.46052000"},{"name":"Velykyi Bereznyi Raion","latitude":"48.91667000","longitude":"22.58333000"},{"name":"Volovets","latitude":"48.71090000","longitude":"23.18510000"},{"name":"Volovets Raion","latitude":"48.75000000","longitude":"23.08333000"},{"name":"Vylok","latitude":"48.10915000","longitude":"22.83865000"},{"name":"Vynohradiv","latitude":"48.14135000","longitude":"23.02666000"},{"name":"Vynohradiv Raion","latitude":"48.16667000","longitude":"23.00000000"},{"name":"Vyshkovo","latitude":"48.04911000","longitude":"23.42113000"},{"name":"Yasinya","latitude":"48.27937000","longitude":"24.36042000"}]