[{"name":"Apomu","latitude":"7.35156000","longitude":"4.18335000"},{"name":"Ejigbo","latitude":"7.90292000","longitude":"4.31419000"},{"name":"Gbongan","latitude":"7.47734000","longitude":"4.35351000"},{"name":"Ijebu-Jesa","latitude":"7.68287000","longitude":"4.81769000"},{"name":"Ikire","latitude":"7.36983000","longitude":"4.18630000"},{"name":"Ikirun","latitude":"7.91283000","longitude":"4.66741000"},{"name":"Ila Orangun","latitude":"8.01714000","longitude":"4.90421000"},{"name":"Ile-Ife","latitude":"7.48240000","longitude":"4.56032000"},{"name":"Ilesa","latitude":"7.62789000","longitude":"4.74161000"},{"name":"Ilobu","latitude":"7.84036000","longitude":"4.48557000"},{"name":"Inisa","latitude":"7.85000000","longitude":"4.33333000"},{"name":"Iwo","latitude":"7.63527000","longitude":"4.18156000"},{"name":"Modakeke","latitude":"7.38299000","longitude":"4.26031000"},{"name":"Oke Mesi","latitude":"7.81667000","longitude":"4.91667000"},{"name":"Olupona","latitude":"7.60000000","longitude":"4.18333000"},{"name":"Osogbo","latitude":"7.77104000","longitude":"4.55698000"},{"name":"Otan Ayegbaju","latitude":"7.94783000","longitude":"4.78836000"},{"name":"Oyan","latitude":"8.05000000","longitude":"4.76667000"}]