[{"name":"Bayaguana","latitude":"18.78333000","longitude":"-69.60000000"},{"name":"Don Juan","latitude":"18.82774000","longitude":"-69.94629000"},{"name":"Esperalvillo","latitude":"18.81509000","longitude":"-70.03557000"},{"name":"Gonzalo","latitude":"18.95147000","longitude":"-69.75114000"},{"name":"Los Botados","latitude":"18.73226000","longitude":"-69.99536000"},{"name":"Majagual","latitude":"19.04134000","longitude":"-69.83616000"},{"name":"Monte Plata","latitude":"18.80700000","longitude":"-69.78399000"},{"name":"Sabana Grande de Boyá","latitude":"18.94498000","longitude":"-69.79331000"},{"name":"Yamasá","latitude":"18.77315000","longitude":"-70.02583000"}]