[{"name":"Drugovo","latitude":"41.48490000","longitude":"20.92636000"},{"name":"Kičevo","latitude":"41.51267000","longitude":"20.95886000"},{"name":"Srbica","latitude":"41.58672000","longitude":"21.03027000"},{"name":"Strelci","latitude":"41.54046000","longitude":"21.00563000"},{"name":"Tuin","latitude":"41.61944000","longitude":"21.04528000"},{"name":"Vraneštica","latitude":"41.44496000","longitude":"21.02683000"},{"name":"Zajas","latitude":"41.60722000","longitude":"20.93833000"}]