[{"name":"Bondoukou","latitude":"8.04020000","longitude":"-2.80003000"},{"name":"Bouna","latitude":"9.26927000","longitude":"-2.99510000"},{"name":"Bounkani","latitude":"9.47841000","longitude":"-3.31238000"},{"name":"Gontougo","latitude":"7.87132000","longitude":"-3.07068000"},{"name":"Sinfra","latitude":"6.62103000","longitude":"-5.91144000"},{"name":"Tanda","latitude":"7.80335000","longitude":"-3.16832000"}]