[{"name":"Amphoe Bang Krathum","latitude":"16.59323000","longitude":"100.35042000"},{"name":"Amphoe Bang Rakam","latitude":"16.71844000","longitude":"100.04217000"},{"name":"Amphoe Chat Trakan","latitude":"17.39357000","longitude":"100.68460000"},{"name":"Amphoe Mueang Phitsanulok","latitude":"16.84040000","longitude":"100.27298000"},{"name":"Amphoe Nakhon Thai","latitude":"17.09426000","longitude":"100.86437000"},{"name":"Amphoe Noen Maprang","latitude":"16.56400000","longitude":"100.70995000"},{"name":"Amphoe Phrom Phiram","latitude":"17.06894000","longitude":"100.15350000"},{"name":"Amphoe Wang Thong","latitude":"16.85000000","longitude":"100.58333000"},{"name":"Amphoe Wat Bot","latitude":"17.16384000","longitude":"100.36298000"},{"name":"Bang Krathum","latitude":"16.57831000","longitude":"100.30034000"},{"name":"Bang Rakam","latitude":"16.75847000","longitude":"100.11742000"},{"name":"Chat Trakan","latitude":"17.27606000","longitude":"100.60022000"},{"name":"Nakhon Thai","latitude":"17.10056000","longitude":"100.83739000"},{"name":"Phitsanulok","latitude":"16.82481000","longitude":"100.25858000"}]