[{"name":"Argáka","latitude":"35.06646000","longitude":"32.49446000"},{"name":"Chlórakas","latitude":"34.79768000","longitude":"32.41207000"},{"name":"Emba","latitude":"34.80700000","longitude":"32.42406000"},{"name":"Geroskipou","latitude":"34.75498000","longitude":"32.45155000"},{"name":"Geroskípou (quarter)","latitude":"34.76190000","longitude":"32.45135000"},{"name":"Geroskípou Municipality","latitude":"34.75142000","longitude":"32.45449000"},{"name":"Kissonerga","latitude":"34.82279000","longitude":"32.40131000"},{"name":"Koloni","latitude":"34.75228000","longitude":"32.46487000"},{"name":"Konia","latitude":"34.78516000","longitude":"32.45900000"},{"name":"Mesógi","latitude":"34.81577000","longitude":"32.45542000"},{"name":"Paphos","latitude":"34.77679000","longitude":"32.42451000"},{"name":"Pégeia","latitude":"34.88341000","longitude":"32.38166000"},{"name":"Pólis","latitude":"35.03534000","longitude":"32.42575000"},{"name":"Tsáda","latitude":"34.83801000","longitude":"32.47547000"},{"name":"Tála","latitude":"34.83745000","longitude":"32.43272000"}]