[{"name":"Diriamba","latitude":"11.85812000","longitude":"-86.23922000"},{"name":"Dolores","latitude":"11.85672000","longitude":"-86.21552000"},{"name":"El Rosario","latitude":"11.77756000","longitude":"-86.37374000"},{"name":"Jinotepe","latitude":"11.84962000","longitude":"-86.19903000"},{"name":"La Conquista","latitude":"11.73426000","longitude":"-86.19279000"},{"name":"La Paz de Carazo","latitude":"11.82311000","longitude":"-86.12781000"},{"name":"Municipio de San Marcos","latitude":"11.91784000","longitude":"-86.27474000"},{"name":"San Marcos","latitude":"11.90949000","longitude":"-86.20351000"},{"name":"Santa Teresa","latitude":"11.74321000","longitude":"-86.21413000"}]