[{"name":"Askenish","latitude":"18.38492000","longitude":"-78.14910000"},{"name":"Cacoon","latitude":"18.41642000","longitude":"-78.20730000"},{"name":"Cacoon Castle","latitude":"18.40247000","longitude":"-78.01336000"},{"name":"Cascade","latitude":"18.39747000","longitude":"-78.10337000"},{"name":"Cash Hill","latitude":"18.36920000","longitude":"-78.10938000"},{"name":"Cauldwell","latitude":"18.38583000","longitude":"-78.24110000"},{"name":"Chambers Pen","latitude":"18.40520000","longitude":"-78.15975000"},{"name":"Chester Castle","latitude":"18.33822000","longitude":"-77.94722000"},{"name":"Copse","latitude":"18.39466000","longitude":"-77.97678000"},{"name":"Cousins Cove","latitude":"18.42425000","longitude":"-78.23752000"},{"name":"Dias","latitude":"18.39379000","longitude":"-78.18562000"},{"name":"Great Valley","latitude":"18.41169000","longitude":"-78.05023000"},{"name":"Green Island","latitude":"18.38399000","longitude":"-78.27015000"},{"name":"Haddington","latitude":"18.42043000","longitude":"-78.00383000"},{"name":"Hopewell","latitude":"18.44321000","longitude":"-78.02636000"},{"name":"Jericho","latitude":"18.43744000","longitude":"-78.13028000"},{"name":"Kendal","latitude":"18.36287000","longitude":"-78.22720000"},{"name":"Kingsvale","latitude":"18.38087000","longitude":"-78.20523000"},{"name":"Lances Bay","latitude":"18.43819000","longitude":"-78.21442000"},{"name":"Logwood","latitude":"18.34878000","longitude":"-78.29620000"},{"name":"Lucea","latitude":"18.45095000","longitude":"-78.17356000"},{"name":"Lucea East","latitude":"18.42198000","longitude":"-78.16675000"},{"name":"Lucea West","latitude":"18.44238000","longitude":"-78.18663000"},{"name":"March Town","latitude":"18.32951000","longitude":"-78.27656000"},{"name":"Maryland","latitude":"18.38679000","longitude":"-78.12825000"},{"name":"Mount Peto","latitude":"18.35747000","longitude":"-78.02289000"},{"name":"Orange Bay","latitude":"18.34266000","longitude":"-78.32005000"},{"name":"Pell River","latitude":"18.37886000","longitude":"-78.21904000"},{"name":"Pondside","latitude":"18.40222000","longitude":"-78.07344000"},{"name":"Ramble","latitude":"18.34674000","longitude":"-77.98802000"},{"name":"Rock Spring","latitude":"18.34797000","longitude":"-78.24392000"},{"name":"Sandy Bay","latitude":"18.43750000","longitude":"-78.08383000"},{"name":"Santoy","latitude":"18.35875000","longitude":"-78.28386000"},{"name":"Success","latitude":"18.37729000","longitude":"-78.05105000"},{"name":"Woodlands","latitude":"18.44555000","longitude":"-77.99963000"},{"name":"Woodsville","latitude":"18.36950000","longitude":"-78.07217000"}]