[{"name":"Anyang","latitude":"36.09600000","longitude":"114.38278000"},{"name":"Anyang Shi","latitude":"36.13639000","longitude":"114.33667000"},{"name":"Binhe","latitude":"32.68833000","longitude":"112.82750000"},{"name":"Chengguan","latitude":"35.45861000","longitude":"113.79778000"},{"name":"Chengjiao","latitude":"35.40495000","longitude":"114.06043000"},{"name":"Daokou","latitude":"35.56389000","longitude":"114.50583000"},{"name":"Dingcheng","latitude":"32.12722000","longitude":"115.03944000"},{"name":"Hancheng","latitude":"32.51861000","longitude":"112.35222000"},{"name":"Hebi","latitude":"35.89917000","longitude":"114.19250000"},{"name":"Huaidian","latitude":"33.43333000","longitude":"115.03333000"},{"name":"Huazhou","latitude":"32.68222000","longitude":"112.08194000"},{"name":"Huichang","latitude":"34.90376000","longitude":"112.78426000"},{"name":"Jianshe","latitude":"34.21750000","longitude":"113.76889000"},{"name":"Jiaozuo","latitude":"35.23972000","longitude":"113.23306000"},{"name":"Jishui","latitude":"33.73333000","longitude":"115.40000000"},{"name":"Jiyuan","latitude":"35.09000000","longitude":"112.58000000"},{"name":"Kaifeng","latitude":"34.79860000","longitude":"114.30742000"},{"name":"Kaiyuan","latitude":"36.06813000","longitude":"113.82209000"},{"name":"Lingbao Chengguanzhen","latitude":"34.51972000","longitude":"110.86444000"},{"name":"Luohe","latitude":"33.56394000","longitude":"114.04272000"},{"name":"Luohe Shi","latitude":"33.68806000","longitude":"113.91306000"},{"name":"Luoyang","latitude":"34.68361000","longitude":"112.45361000"},{"name":"Minggang","latitude":"32.45861000","longitude":"114.04861000"},{"name":"Nanyang","latitude":"32.99472000","longitude":"112.53278000"},{"name":"Pingdingshan","latitude":"33.73847000","longitude":"113.30119000"},{"name":"Puyang Chengguanzhen","latitude":"35.70506000","longitude":"115.01409000"},{"name":"Puyang Shi","latitude":"35.81333000","longitude":"115.15500000"},{"name":"Qingping","latitude":"34.53656000","longitude":"113.37526000"},{"name":"Runing","latitude":"33.00111000","longitude":"114.35417000"},{"name":"Ruzhou","latitude":"34.16167000","longitude":"112.82972000"},{"name":"Shangqiu","latitude":"34.45000000","longitude":"115.65000000"},{"name":"Songyang","latitude":"34.45528000","longitude":"113.02806000"},{"name":"Suohe","latitude":"34.78722000","longitude":"113.35806000"},{"name":"Tanbei","latitude":"35.08806000","longitude":"112.93944000"},{"name":"Wacheng","latitude":"33.78333000","longitude":"114.51667000"},{"name":"Xiangcheng Chengguanzhen","latitude":"33.84703000","longitude":"113.47780000"},{"name":"Xincheng","latitude":"33.63333000","longitude":"115.18333000"},{"name":"Xinhualu","latitude":"34.39633000","longitude":"113.72466000"},{"name":"Xinxiang","latitude":"35.19033000","longitude":"113.80151000"},{"name":"Xinxiang Shi","latitude":"35.30861000","longitude":"114.05111000"},{"name":"Xinyang","latitude":"32.12278000","longitude":"114.06556000"},{"name":"Xixiang","latitude":"35.16278000","longitude":"112.86500000"},{"name":"Xuchang","latitude":"34.03189000","longitude":"113.86299000"},{"name":"Xuchang Shi","latitude":"34.14778000","longitude":"113.71472000"},{"name":"Yakou","latitude":"33.29649000","longitude":"113.52351000"},{"name":"Yanshi Chengguanzhen","latitude":"34.71601000","longitude":"112.79568000"},{"name":"Yigou","latitude":"35.81139000","longitude":"114.31667000"},{"name":"Yima","latitude":"34.73806000","longitude":"111.88389000"},{"name":"Yingchuan","latitude":"34.16278000","longitude":"113.46389000"},{"name":"Yunyang","latitude":"33.44743000","longitude":"112.71422000"},{"name":"Zhengzhou","latitude":"34.75778000","longitude":"113.64861000"},{"name":"Zhoukou","latitude":"33.63333000","longitude":"114.63333000"},{"name":"Zhumadian","latitude":"32.97944000","longitude":"114.02944000"},{"name":"Zhumadian Shi","latitude":"32.99417000","longitude":"114.06167000"},{"name":"Zijinglu","latitude":"34.76000000","longitude":"112.97139000"}]