[{"name":"Iho","latitude":"5.58225000","longitude":"7.09896000"},{"name":"Oguta","latitude":"5.71044000","longitude":"6.80936000"},{"name":"Okigwe","latitude":"5.82917000","longitude":"7.35056000"},{"name":"Orlu","latitude":"5.79565000","longitude":"7.03513000"},{"name":"Orodo","latitude":"5.61667000","longitude":"7.03333000"},{"name":"Owerri","latitude":"5.48363000","longitude":"7.03325000"}]