[{"name":"Huyện Cam Lộ","latitude":"16.79335000","longitude":"106.96175000"},{"name":"Huyện Gio Linh","latitude":"16.91667000","longitude":"107.00000000"},{"name":"Huyện Hướng Hóa","latitude":"16.70132000","longitude":"106.67036000"},{"name":"Huyện Hải Lăng","latitude":"16.67574000","longitude":"107.23388000"},{"name":"Huyện Triệu Phong","latitude":"16.78132000","longitude":"107.16034000"},{"name":"Huyện Vĩnh Linh","latitude":"17.01600000","longitude":"106.93384000"},{"name":"Huyện Đa Krông","latitude":"16.55543000","longitude":"106.97208000"},{"name":"Ðông Hà","latitude":"16.81625000","longitude":"107.10031000"}]