[{"name":"Alberton","latitude":"46.81685000","longitude":"-64.06542000"},{"name":"Belfast","latitude":"46.08341000","longitude":"-62.88197000"},{"name":"Charlottetown","latitude":"46.23899000","longitude":"-63.13414000"},{"name":"Cornwall","latitude":"46.22652000","longitude":"-63.21809000"},{"name":"Fallingbrook","latitude":"45.47558000","longitude":"-75.48401000"},{"name":"Kensington","latitude":"46.43343000","longitude":"-63.64871000"},{"name":"Montague","latitude":"46.16681000","longitude":"-62.64866000"},{"name":"Souris","latitude":"46.35010000","longitude":"-62.24862000"},{"name":"Summerside","latitude":"46.39593000","longitude":"-63.78762000"}]