[{"name":"Djibo","latitude":"14.09940000","longitude":"-1.62554000"},{"name":"Dori","latitude":"14.03540000","longitude":"-0.03450000"},{"name":"Gorom-Gorom","latitude":"14.44290000","longitude":"-0.23468000"},{"name":"Province de l’Oudalan","latitude":"14.66667000","longitude":"-0.33333000"},{"name":"Province du Soum","latitude":"14.33333000","longitude":"-1.25000000"},{"name":"Province du Séno","latitude":"13.96400000","longitude":"0.01200000"},{"name":"Province du Yagha","latitude":"13.41667000","longitude":"0.58333000"}]