[{"name":"Banepā","latitude":"27.63245000","longitude":"85.52192000"},{"name":"Bharatpur","latitude":"27.67680000","longitude":"84.43589000"},{"name":"Birgañj","latitude":"27.01709000","longitude":"84.88080000"},{"name":"Dhulikhel","latitude":"27.62210000","longitude":"85.54281000"},{"name":"Gaur","latitude":"26.76448000","longitude":"85.27841000"},{"name":"Hari Bdr Tamang House","latitude":"27.62890000","longitude":"85.45893000"},{"name":"Hetauda","latitude":"27.42839000","longitude":"85.03219000"},{"name":"Jaleshwar","latitude":"26.64921000","longitude":"85.80017000"},{"name":"Janakpur","latitude":"26.72882000","longitude":"85.92628000"},{"name":"Kathmandu","latitude":"27.70169000","longitude":"85.32060000"},{"name":"Kirtipur","latitude":"27.67872000","longitude":"85.27750000"},{"name":"Madhyapur Thimi","latitude":"27.68056000","longitude":"85.38750000"},{"name":"Malaṅgawā","latitude":"26.85658000","longitude":"85.55940000"},{"name":"Nagarkot","latitude":"27.71522000","longitude":"85.52075000"},{"name":"Panauti","latitude":"27.58466000","longitude":"85.52122000"},{"name":"Pātan","latitude":"27.67658000","longitude":"85.31417000"},{"name":"Rāmechhāp","latitude":"27.32560000","longitude":"86.08768000"},{"name":"kankrabari Dovan","latitude":"27.62881000","longitude":"85.45934000"}]