[{"name":"Beni Mered","latitude":"36.52389000","longitude":"2.86131000"},{"name":"Blida","latitude":"36.47004000","longitude":"2.82770000"},{"name":"Boufarik","latitude":"36.57413000","longitude":"2.91214000"},{"name":"Bougara","latitude":"36.54178000","longitude":"3.08100000"},{"name":"Bouinan","latitude":"36.53167000","longitude":"2.99194000"},{"name":"Boû Arfa","latitude":"36.46298000","longitude":"2.81464000"},{"name":"Chebli","latitude":"36.57722000","longitude":"3.00917000"},{"name":"Chiffa","latitude":"36.46293000","longitude":"2.73873000"},{"name":"Larbaâ","latitude":"36.56471000","longitude":"3.15434000"},{"name":"Meftah","latitude":"36.62040000","longitude":"3.22248000"},{"name":"Sidi Moussa","latitude":"36.60637000","longitude":"3.08783000"},{"name":"Souma","latitude":"36.51833000","longitude":"2.90528000"}]