[{"name":"Al Bājūr","latitude":"30.43046000","longitude":"31.03679000"},{"name":"Ash Shuhadā’","latitude":"30.59683000","longitude":"30.89931000"},{"name":"Ashmūn","latitude":"30.29735000","longitude":"30.97641000"},{"name":"Munūf","latitude":"30.46597000","longitude":"30.93199000"},{"name":"Quwaysinā","latitude":"30.56482000","longitude":"31.15777000"},{"name":"Shibīn al Kawm","latitude":"30.55258000","longitude":"31.00904000"},{"name":"Talā","latitude":"30.67980000","longitude":"30.94364000"}]