[{"name":"Aceh","countryCode":"ID","fipsCode":"01","iso":"AC","latitude":"4.69513500","longitude":"96.74939930"},{"name":"Bali","countryCode":"ID","fipsCode":"02","iso":"BA","latitude":"-8.34053890","longitude":"115.09195090"},{"name":"Bangka Belitung Islands","countryCode":"ID","fipsCode":"35","iso":"BB","latitude":"-2.74105130","longitude":"106.44058720"},{"name":"Banten","countryCode":"ID","fipsCode":"33","iso":"BT","latitude":"-6.40581720","longitude":"106.06401790"},{"name":"Bengkulu","countryCode":"ID","fipsCode":"03","iso":"BE","latitude":"-3.79284510","longitude":"102.26076410"},{"name":"Central Java","countryCode":"ID","fipsCode":"07","iso":"JT","latitude":"-7.15097500","longitude":"110.14025940"},{"name":"Central Kalimantan","countryCode":"ID","fipsCode":"13","iso":"KT","latitude":"-1.68148780","longitude":"113.38235450"},{"name":"Central Sulawesi","countryCode":"ID","fipsCode":"21","iso":"ST","latitude":"-1.43002540","longitude":"121.44561790"},{"name":"East Java","countryCode":"ID","fipsCode":"08","iso":"JI","latitude":"-7.53606390","longitude":"112.23840170"},{"name":"East Kalimantan","countryCode":"ID","fipsCode":"14","iso":"KI","latitude":"0.53865860","longitude":"116.41938900"},{"name":"East Nusa Tenggara","countryCode":"ID","fipsCode":"18","iso":"NT","latitude":"-8.65738190","longitude":"121.07937050"},{"name":"Gorontalo","countryCode":"ID","fipsCode":"34","iso":"GO","latitude":"0.54354420","longitude":"123.05676930"},{"name":"Jakarta","countryCode":"ID","fipsCode":"04","iso":"JK","latitude":"-6.20876340","longitude":"106.84559900"},{"name":"Jambi","countryCode":"ID","fipsCode":"05","iso":"JA","latitude":"-1.61012290","longitude":"103.61312030"},{"name":"Kalimantan","countryCode":"ID","fipsCode":"04","iso":"KA","latitude":"0.96188340","longitude":"114.55484950"},{"name":"Lampung","countryCode":"ID","fipsCode":"15","iso":"LA","latitude":"-4.55858490","longitude":"105.40680790"},{"name":"Lesser Sunda Islands","countryCode":"ID","fipsCode":"35","iso":"NU","latitude":"-9.00000000","longitude":"120.00000000"},{"name":"Maluku","countryCode":"ID","fipsCode":"28","iso":"MA","latitude":"-3.23846160","longitude":"130.14527340"},{"name":"Maluku Islands","countryCode":"ID","fipsCode":"01","iso":"ML","latitude":"-2.86461660","longitude":"129.57659740"},{"name":"North Kalimantan","countryCode":"ID","fipsCode":"42","iso":"KU","latitude":"3.07309290","longitude":"116.04138890"},{"name":"North Maluku","countryCode":"ID","fipsCode":"29","iso":"MU","latitude":"1.57099930","longitude":"127.80876930"},{"name":"North Sulawesi","countryCode":"ID","fipsCode":"31","iso":"SA","latitude":"0.62469320","longitude":"123.97500180"},{"name":"North Sumatra","countryCode":"ID","fipsCode":"26","iso":"SU","latitude":"2.11535470","longitude":"99.54509740"},{"name":"Papua","countryCode":"ID","fipsCode":"36","iso":"PA","latitude":"-5.01222020","longitude":"141.34701590"},{"name":"Riau","countryCode":"ID","fipsCode":"37","iso":"RI","latitude":"0.29334690","longitude":"101.70682940"},{"name":"Riau Islands","countryCode":"ID","fipsCode":"40","iso":"KR","latitude":"3.94565140","longitude":"108.14286690"},{"name":"South Kalimantan","countryCode":"ID","fipsCode":"12","iso":"KS","latitude":"-3.09264150","longitude":"115.28375850"},{"name":"South Sulawesi","countryCode":"ID","fipsCode":"38","iso":"SN","latitude":"-3.66879940","longitude":"119.97405340"},{"name":"South Sumatra","countryCode":"ID","fipsCode":"32","iso":"SS","latitude":"-3.31943740","longitude":"103.91439900"},{"name":"Southeast Sulawesi","countryCode":"ID","fipsCode":"22","iso":"SG","latitude":"-4.14491000","longitude":"122.17460500"},{"name":"Special Region of Yogyakarta","countryCode":"ID","fipsCode":"10","iso":"YO","latitude":"-7.87538490","longitude":"110.42620880"},{"name":"Sulawesi","countryCode":"ID","fipsCode":"07","iso":"SL","latitude":"-1.84790000","longitude":"120.52790000"},{"name":"Sumatra","countryCode":"ID","fipsCode":"22","iso":"SM","latitude":"-0.58972400","longitude":"101.34310580"},{"name":"West Java","countryCode":"ID","fipsCode":"30","iso":"JB","latitude":"-7.09091100","longitude":"107.66888700"},{"name":"West Nusa Tenggara","countryCode":"ID","fipsCode":"17","iso":"NB","latitude":"-8.65293340","longitude":"117.36164760"},{"name":"West Papua","countryCode":"ID","fipsCode":"39","iso":"PB","latitude":"-1.33611540","longitude":"133.17471620"},{"name":"West Sulawesi","countryCode":"ID","fipsCode":"41","iso":"SR","latitude":"-2.84413710","longitude":"119.23207840"},{"name":"West Sumatra","countryCode":"ID","fipsCode":"24","iso":"SB","latitude":"-0.73993970","longitude":"100.80000510"}]