[{"name":"Ajka","latitude":"47.10196000","longitude":"17.55892000"},{"name":"Ajkai Járás","latitude":"47.07988000","longitude":"17.56375000"},{"name":"Badacsonytomaj","latitude":"46.80711000","longitude":"17.51385000"},{"name":"Balatonalmádi","latitude":"47.03526000","longitude":"18.02076000"},{"name":"Balatonalmádi Járás","latitude":"47.04174000","longitude":"18.09617000"},{"name":"Balatonfüred","latitude":"46.96188000","longitude":"17.87187000"},{"name":"Balatonfüredi Járás","latitude":"46.93952000","longitude":"17.79411000"},{"name":"Balatonkenese","latitude":"47.04019000","longitude":"18.10671000"},{"name":"Berhida","latitude":"47.11131000","longitude":"18.12948000"},{"name":"Csabrendek","latitude":"47.01356000","longitude":"17.29108000"},{"name":"Csetény","latitude":"47.31806000","longitude":"17.99208000"},{"name":"Csopak","latitude":"46.97709000","longitude":"17.91819000"},{"name":"Devecser","latitude":"47.10316000","longitude":"17.43802000"},{"name":"Devecseri Járás","latitude":"47.16836000","longitude":"17.32271000"},{"name":"Hajmáskér","latitude":"47.14513000","longitude":"18.01964000"},{"name":"Herend","latitude":"47.13333000","longitude":"17.75000000"},{"name":"Litér","latitude":"47.10104000","longitude":"18.00454000"},{"name":"Nemesvámos","latitude":"47.05514000","longitude":"17.87477000"},{"name":"Pápa","latitude":"47.33004000","longitude":"17.46740000"},{"name":"Pápai Járás","latitude":"47.33769000","longitude":"17.49663000"},{"name":"Pétfürdő","latitude":"47.16667000","longitude":"18.11667000"},{"name":"Révfülöp","latitude":"46.82573000","longitude":"17.61967000"},{"name":"Szentkirályszabadja","latitude":"47.05760000","longitude":"17.97052000"},{"name":"Sümeg","latitude":"46.97703000","longitude":"17.28209000"},{"name":"Sümegi Járás","latitude":"47.02648000","longitude":"17.26779000"},{"name":"Tapolca","latitude":"46.88152000","longitude":"17.44117000"},{"name":"Tapolcai Járás","latitude":"46.89833000","longitude":"17.49510000"},{"name":"Tihany","latitude":"46.91369000","longitude":"17.88918000"},{"name":"Veszprém","latitude":"47.09327000","longitude":"17.91149000"},{"name":"Veszprémi Járás","latitude":"47.09666000","longitude":"17.82157000"},{"name":"Várpalota","latitude":"47.19936000","longitude":"18.13954000"},{"name":"Várpalotai Járás","latitude":"47.18514000","longitude":"18.12211000"},{"name":"Zirc","latitude":"47.26362000","longitude":"17.87373000"},{"name":"Zirci Járás","latitude":"47.28583000","longitude":"17.88412000"},{"name":"Zánka","latitude":"46.87146000","longitude":"17.68473000"},{"name":"Úrkút","latitude":"47.08505000","longitude":"17.64393000"},{"name":"Ősi","latitude":"47.14722000","longitude":"18.18833000"}]