[{"name":"Amphoe Aranyaprathet","latitude":"13.69086000","longitude":"102.47693000"},{"name":"Amphoe Khao Chakan","latitude":"13.62293000","longitude":"102.02665000"},{"name":"Amphoe Khlong Hat","latitude":"13.47396000","longitude":"102.27604000"},{"name":"Amphoe Khok Sung","latitude":"13.87388000","longitude":"102.66075000"},{"name":"Amphoe Mueang Sa Kaeo","latitude":"13.92969000","longitude":"102.10626000"},{"name":"Amphoe Ta Phraya","latitude":"14.06272000","longitude":"102.72601000"},{"name":"Amphoe Wang Nam Yen","latitude":"13.51900000","longitude":"102.08718000"},{"name":"Amphoe Wang Sombun","latitude":"13.36112000","longitude":"102.12490000"},{"name":"Amphoe Watthana Nakhon","latitude":"13.88582000","longitude":"102.35652000"},{"name":"Aranyaprathet","latitude":"13.69276000","longitude":"102.50128000"},{"name":"Sa Kaeo","latitude":"13.81411000","longitude":"102.07222000"},{"name":"Wang Nam Yen","latitude":"13.50325000","longitude":"102.18115000"}]