[{"name":"Akhalgori","latitude":"42.12597000","longitude":"44.48333000"},{"name":"Dzegvi","latitude":"41.84569000","longitude":"44.60097000"},{"name":"Gudauri","latitude":"42.47797000","longitude":"44.47616000"},{"name":"Java","latitude":"42.39972000","longitude":"43.93667000"},{"name":"Mtskheta","latitude":"41.84514000","longitude":"44.71875000"},{"name":"P’asanauri","latitude":"42.35060000","longitude":"44.68912000"},{"name":"Step’antsminda","latitude":"42.65667000","longitude":"44.64333000"},{"name":"Zhinvali","latitude":"42.13181000","longitude":"44.77264000"}]