[{"name":"Amphoe Khuan Don","latitude":"6.76978000","longitude":"100.12216000"},{"name":"Amphoe Khuan Kalong","latitude":"6.90593000","longitude":"100.04178000"},{"name":"Amphoe La-Ngu","latitude":"6.90392000","longitude":"99.79836000"},{"name":"Amphoe Manang","latitude":"7.01822000","longitude":"99.95399000"},{"name":"Amphoe Mueang Satun","latitude":"6.62314000","longitude":"100.06681000"},{"name":"Amphoe Tha Phae","latitude":"6.79542000","longitude":"99.91985000"},{"name":"Amphoe Thung Wa","latitude":"7.04915000","longitude":"99.76587000"},{"name":"Satun","latitude":"6.62314000","longitude":"100.06676000"}]