[{"name":"Andijon","latitude":"40.78206000","longitude":"72.34424000"},{"name":"Andijon Tumani","latitude":"40.80000000","longitude":"72.41667000"},{"name":"Asaka","latitude":"40.64153000","longitude":"72.23868000"},{"name":"Asaka Tumani","latitude":"40.66667000","longitude":"72.25000000"},{"name":"Baliqchi Tumani","latitude":"40.86667000","longitude":"72.00000000"},{"name":"Bo‘z Tumani","latitude":"40.66667000","longitude":"71.91667000"},{"name":"Buloqboshi Tumani","latitude":"40.61667000","longitude":"72.46667000"},{"name":"Izboskan Tumani","latitude":"40.91667000","longitude":"72.25000000"},{"name":"Jalolkuduk Tumani","latitude":"40.75000000","longitude":"72.66667000"},{"name":"Khŭjaobod Tumani","latitude":"40.66667000","longitude":"72.58333000"},{"name":"Marhamat","latitude":"40.48048000","longitude":"72.31388000"},{"name":"Marhamat Tumani","latitude":"40.50000000","longitude":"72.31667000"},{"name":"Oltinkŭl Tumani","latitude":"40.80000000","longitude":"72.16667000"},{"name":"Pakhtaobod Tumani","latitude":"40.93333000","longitude":"72.50000000"},{"name":"Paxtaobod","latitude":"40.92936000","longitude":"72.49687000"},{"name":"Qo‘rg‘ontepa","latitude":"40.73192000","longitude":"72.76177000"},{"name":"Qŭrghontepa Tumani","latitude":"40.75000000","longitude":"72.83333000"},{"name":"Shahrikhon Tumani","latitude":"40.71667000","longitude":"72.06667000"},{"name":"Shahrixon","latitude":"40.71331000","longitude":"72.05706000"},{"name":"Ulug‘nor Tumani","latitude":"40.75000000","longitude":"71.70000000"},{"name":"Xo‘jaobod","latitude":"40.66886000","longitude":"72.56002000"}]