[{"name":"Aleshtar","latitude":"33.86419000","longitude":"48.26258000"},{"name":"Alīgūdarz","latitude":"33.40400000","longitude":"49.69179000"},{"name":"Aznā","latitude":"33.45643000","longitude":"49.45646000"},{"name":"Borūjerd","latitude":"33.89730000","longitude":"48.75160000"},{"name":"Delfan","latitude":"34.05000000","longitude":"47.78333000"},{"name":"Khorramabad","latitude":"33.48778000","longitude":"48.35583000"},{"name":"Kūhdasht","latitude":"33.53335000","longitude":"47.60999000"},{"name":"Nūrābād","latitude":"34.07340000","longitude":"47.97250000"},{"name":"Pol-e Dokhtar","latitude":"33.16667000","longitude":"48.00000000"},{"name":"Rumeshkhan County","latitude":"33.27960000","longitude":"47.48995000"},{"name":"Selseleh","latitude":"33.83333000","longitude":"48.16667000"},{"name":"Shahrestān-e Alīgūdarz","latitude":"33.08333000","longitude":"49.48333000"},{"name":"Shahrestān-e Aznā","latitude":"33.46667000","longitude":"49.41667000"},{"name":"Shahrestān-e Borūjerd","latitude":"33.88333000","longitude":"48.71667000"},{"name":"Shahrestān-e Dūreh","latitude":"33.61667000","longitude":"47.91667000"},{"name":"Shahrestān-e Khorramābād","latitude":"33.38333000","longitude":"48.58333000"},{"name":"Shahrestān-e Kūhdasht","latitude":"33.51667000","longitude":"47.40000000"},{"name":"Vasīān","latitude":"33.49083000","longitude":"48.04917000"}]