[{"name":"Botlhapatlou","latitude":"-24.02591000","longitude":"25.48976000"},{"name":"Dutlwe","latitude":"-23.98333000","longitude":"23.90000000"},{"name":"Gabane","latitude":"-24.66667000","longitude":"25.78222000"},{"name":"Gaphatshwe","latitude":"-24.57389000","longitude":"25.83417000"},{"name":"Khudumelapye","latitude":"-23.88333000","longitude":"24.75000000"},{"name":"Lenchwe Le Tau","latitude":"-24.38333000","longitude":"25.85000000"},{"name":"Letlhakeng","latitude":"-24.09442000","longitude":"25.02977000"},{"name":"Metsemotlhaba","latitude":"-24.55139000","longitude":"25.80306000"},{"name":"Mmopone","latitude":"-24.56694000","longitude":"25.87417000"},{"name":"Mogoditshane","latitude":"-24.62694000","longitude":"25.86556000"},{"name":"Molepolole","latitude":"-24.40659000","longitude":"25.49508000"},{"name":"Nkoyaphiri","latitude":"-24.63222000","longitude":"25.83139000"},{"name":"Thamaga","latitude":"-24.67014000","longitude":"25.53975000"}]