[{"name":"Barlavento Islands","countryCode":"CV","fipsCode":"25","iso":"B","latitude":"16.82368450","longitude":"-23.99348810"},{"name":"Boa Vista","countryCode":"CV","fipsCode":"01","iso":"BV","latitude":"38.74346600","longitude":"-120.73042970"},{"name":"Brava","countryCode":"CV","fipsCode":"02","iso":"BR","latitude":"40.98977780","longitude":"-73.68357150"},{"name":"Maio Municipality","countryCode":"CV","fipsCode":"04","iso":"MA","latitude":"15.20030980","longitude":"-23.16797930"},{"name":"Mosteiros","countryCode":"CV","fipsCode":"13","iso":"MO","latitude":"37.89043480","longitude":"-25.82075560"},{"name":"Paul","countryCode":"CV","fipsCode":"05","iso":"PA","latitude":"37.06250000","longitude":"-95.67706800"},{"name":"Porto Novo","countryCode":"CV","fipsCode":"21","iso":"PN","latitude":"6.49685740","longitude":"2.62885230"},{"name":"Praia","countryCode":"CV","fipsCode":"14","iso":"PR","latitude":"14.93305000","longitude":"-23.51332670"},{"name":"Ribeira Brava Municipality","countryCode":"CV","fipsCode":"22","iso":"RB","latitude":"16.60707390","longitude":"-24.20338430"},{"name":"Ribeira Grande","countryCode":"CV","fipsCode":"07","iso":"RG","latitude":"37.82103690","longitude":"-25.51481370"},{"name":"Ribeira Grande de Santiago","countryCode":"CV","fipsCode":"23","iso":"RS","latitude":"14.98302980","longitude":"-23.65617250"},{"name":"Sal","countryCode":"CV","fipsCode":"08","iso":"SL","latitude":"26.59581220","longitude":"-80.20450830"},{"name":"Santa Catarina","countryCode":"CV","fipsCode":"15","iso":"CA","latitude":"-27.24233920","longitude":"-50.21885560"},{"name":"Santa Catarina do Fogo","countryCode":"CV","fipsCode":"24","iso":"CF","latitude":"14.93091040","longitude":"-24.32225770"},{"name":"Santa Cruz","countryCode":"CV","fipsCode":"16","iso":"CR","latitude":"36.97411710","longitude":"-122.03079630"},{"name":"Sotavento Islands","countryCode":"CV","fipsCode":"04","iso":"S","latitude":"15.00000000","longitude":"-24.00000000"},{"name":"São Domingos","countryCode":"CV","fipsCode":"17","iso":"SD","latitude":"15.02861650","longitude":"-23.56392200"},{"name":"São Filipe","countryCode":"CV","fipsCode":"18","iso":"SF","latitude":"14.89516790","longitude":"-24.49456360"},{"name":"São Lourenço dos Órgãos","countryCode":"CV","fipsCode":"25","iso":"SO","latitude":"15.05378410","longitude":"-23.60856120"},{"name":"São Miguel","countryCode":"CV","fipsCode":"19","iso":"SM","latitude":"37.78041100","longitude":"-25.49704660"},{"name":"São Vicente","countryCode":"CV","fipsCode":"11","iso":"SV","latitude":"-23.96071570","longitude":"-46.39620220"},{"name":"Tarrafal","countryCode":"CV","fipsCode":"20","iso":"TA","latitude":"15.27605780","longitude":"-23.74840770"},{"name":"Tarrafal de São Nicolau","countryCode":"CV","fipsCode":"27","iso":"TS","latitude":"16.56364980","longitude":"-24.35494200"}]