[{"name":"Bamusso","latitude":"4.45910000","longitude":"8.90270000"},{"name":"Bekondo","latitude":"4.68190000","longitude":"9.32140000"},{"name":"Buea","latitude":"4.15342000","longitude":"9.24231000"},{"name":"Fako Division","latitude":"4.16667000","longitude":"9.16667000"},{"name":"Fontem","latitude":"5.46850000","longitude":"9.88180000"},{"name":"Kumba","latitude":"4.63630000","longitude":"9.44690000"},{"name":"Lebialem","latitude":"5.56043000","longitude":"9.92316000"},{"name":"Limbe","latitude":"4.02356000","longitude":"9.20607000"},{"name":"Mamfe","latitude":"5.75132000","longitude":"9.31370000"},{"name":"Mundemba","latitude":"4.94790000","longitude":"8.87240000"},{"name":"Mutengene","latitude":"4.09130000","longitude":"9.31440000"},{"name":"Muyuka","latitude":"4.28980000","longitude":"9.41030000"},{"name":"Nguti","latitude":"5.32990000","longitude":"9.41850000"},{"name":"Tiko","latitude":"4.07500000","longitude":"9.36005000"}]