[{"name":"Bukomansimbi District","latitude":"-0.12855000","longitude":"31.62527000"},{"name":"Buvuma District","latitude":"-0.36744000","longitude":"33.20071000"},{"name":"Bweyogerere","latitude":"0.35773000","longitude":"32.66332000"},{"name":"Byakabanda","latitude":"-0.74250000","longitude":"31.40639000"},{"name":"Entebbe","latitude":"0.05621000","longitude":"32.47949000"},{"name":"Gomba District","latitude":"0.20017000","longitude":"31.75023000"},{"name":"Kajansi","latitude":"0.21548000","longitude":"32.53453000"},{"name":"Kampala","latitude":"0.31628000","longitude":"32.58219000"},{"name":"Kampala District","latitude":"0.33508000","longitude":"32.58313000"},{"name":"Kanoni","latitude":"0.17722000","longitude":"31.88111000"},{"name":"Kayunga","latitude":"0.70250000","longitude":"32.88861000"},{"name":"Kiboga","latitude":"0.91611000","longitude":"31.77417000"},{"name":"Kireka","latitude":"0.34750000","longitude":"32.64917000"},{"name":"Kyotera","latitude":"-0.61556000","longitude":"31.51750000"},{"name":"Lugazi","latitude":"0.36788000","longitude":"32.93760000"},{"name":"Luwero","latitude":"0.84917000","longitude":"32.47306000"},{"name":"Lyantonde","latitude":"-0.40306000","longitude":"31.15722000"},{"name":"Masaka","latitude":"-0.33379000","longitude":"31.73409000"},{"name":"Mityana","latitude":"0.41750000","longitude":"32.02278000"},{"name":"Mpigi","latitude":"0.22500000","longitude":"32.31361000"},{"name":"Mubende","latitude":"0.55849000","longitude":"31.39489000"},{"name":"Mubende District","latitude":"0.50000000","longitude":"31.50000000"},{"name":"Mukono","latitude":"0.35333000","longitude":"32.75528000"},{"name":"Nakasongola","latitude":"1.30889000","longitude":"32.45639000"},{"name":"Namasuba","latitude":"0.68944000","longitude":"32.42139000"},{"name":"Njeru","latitude":"0.44166000","longitude":"33.17917000"},{"name":"Sembabule","latitude":"-0.07722000","longitude":"31.45667000"},{"name":"Wakiso","latitude":"0.40444000","longitude":"32.45944000"},{"name":"Wakiso District","latitude":"0.23763000","longitude":"32.47836000"},{"name":"Wobulenzi","latitude":"0.72833000","longitude":"32.51222000"}]