[{"name":"Al Hadā","latitude":"21.36753000","longitude":"40.28694000"},{"name":"Al Jumūm","latitude":"21.61694000","longitude":"39.69806000"},{"name":"Al Muwayh","latitude":"22.43333000","longitude":"41.75829000"},{"name":"Ash Shafā","latitude":"21.07210000","longitude":"40.31185000"},{"name":"Ghran","latitude":"21.98027000","longitude":"39.36521000"},{"name":"Jeddah","latitude":"21.54238000","longitude":"39.19797000"},{"name":"Mecca","latitude":"21.42664000","longitude":"39.82563000"},{"name":"Rābigh","latitude":"22.79856000","longitude":"39.03493000"},{"name":"Ta’if","latitude":"21.27028000","longitude":"40.41583000"},{"name":"Turabah","latitude":"21.21406000","longitude":"41.63310000"}]