[{"name":"Balatun","latitude":"44.86332000","longitude":"19.33931000"},{"name":"Banja Luka","latitude":"44.77842000","longitude":"17.19386000"},{"name":"Bijeljina","latitude":"44.76583000","longitude":"19.15083000"},{"name":"Bileća","latitude":"42.87645000","longitude":"18.42967000"},{"name":"Blatnica","latitude":"44.48677000","longitude":"17.82278000"},{"name":"Brod","latitude":"45.13747000","longitude":"17.98722000"},{"name":"Bronzani Majdan","latitude":"44.79237000","longitude":"16.94039000"},{"name":"Derventa","latitude":"44.97839000","longitude":"17.90779000"},{"name":"Doboj","latitude":"44.75944000","longitude":"18.06500000"},{"name":"Dobrljin","latitude":"45.15106000","longitude":"16.47869000"},{"name":"Dvorovi","latitude":"44.80753000","longitude":"19.25999000"},{"name":"Foča","latitude":"43.50646000","longitude":"18.77854000"},{"name":"Gacko","latitude":"43.16722000","longitude":"18.53528000"},{"name":"Gradiška","latitude":"45.14484000","longitude":"17.25453000"},{"name":"Hiseti","latitude":"44.76111000","longitude":"17.17944000"},{"name":"Istočni Mostar","latitude":"43.42056000","longitude":"18.00833000"},{"name":"Janja","latitude":"44.66554000","longitude":"19.24691000"},{"name":"Kalenderovci Donji","latitude":"44.94673000","longitude":"17.83785000"},{"name":"Kneževo","latitude":"44.49071000","longitude":"17.38161000"},{"name":"Knežica","latitude":"45.10548000","longitude":"16.67668000"},{"name":"Koran","latitude":"43.81038000","longitude":"18.56999000"},{"name":"Kostajnica","latitude":"45.21956000","longitude":"16.53929000"},{"name":"Kotor Varoš","latitude":"44.61831000","longitude":"17.37204000"},{"name":"Kozarska Dubica","latitude":"45.17667000","longitude":"16.80944000"},{"name":"Krupa na Vrbasu","latitude":"44.61875000","longitude":"17.14351000"},{"name":"Laktaši","latitude":"44.90857000","longitude":"17.30135000"},{"name":"Lamovita","latitude":"44.92018000","longitude":"16.89933000"},{"name":"Ljubinje","latitude":"42.95120000","longitude":"18.08702000"},{"name":"Lopare","latitude":"44.63498000","longitude":"18.84340000"},{"name":"Maglajani","latitude":"44.94975000","longitude":"17.35014000"},{"name":"Marićka","latitude":"44.86801000","longitude":"16.85510000"},{"name":"Maslovare","latitude":"44.56594000","longitude":"17.53216000"},{"name":"Mejdan - Obilićevo","latitude":"44.76324000","longitude":"17.19012000"},{"name":"Milići","latitude":"44.17016000","longitude":"19.09195000"},{"name":"Modriča","latitude":"44.95444000","longitude":"18.30361000"},{"name":"Mrkonjić Grad","latitude":"44.41729000","longitude":"17.08288000"},{"name":"Nevesinje","latitude":"43.25861000","longitude":"18.11333000"},{"name":"Novi Grad","latitude":"45.04643000","longitude":"16.37782000"},{"name":"Obudovac","latitude":"44.95215000","longitude":"18.59869000"},{"name":"Omarska","latitude":"44.89170000","longitude":"16.89814000"},{"name":"Opština Oštra Luka","latitude":"44.73278000","longitude":"16.82861000"},{"name":"Opština Višegrad","latitude":"43.72167000","longitude":"19.31361000"},{"name":"Oštra Luka","latitude":"44.99724000","longitude":"18.58464000"},{"name":"Pale","latitude":"43.81664000","longitude":"18.56949000"},{"name":"Pelagićevo","latitude":"44.90105000","longitude":"18.59185000"},{"name":"Petkovci","latitude":"44.46849000","longitude":"19.07466000"},{"name":"Piskavica","latitude":"44.86717000","longitude":"16.97464000"},{"name":"Podbrdo","latitude":"44.44189000","longitude":"17.01495000"},{"name":"Popovi","latitude":"44.76547000","longitude":"19.28667000"},{"name":"Pribinić","latitude":"44.61010000","longitude":"17.68981000"},{"name":"Priboj","latitude":"44.60233000","longitude":"18.93165000"},{"name":"Prijedor","latitude":"44.97991000","longitude":"16.71401000"},{"name":"Rogatica","latitude":"43.79894000","longitude":"19.00363000"},{"name":"Rudo","latitude":"43.61781000","longitude":"19.36719000"},{"name":"Sokolac","latitude":"43.93817000","longitude":"18.80079000"},{"name":"Srbac","latitude":"45.09730000","longitude":"17.52331000"},{"name":"Srebrenica","latitude":"44.10748000","longitude":"19.29669000"},{"name":"Stanari","latitude":"44.74475000","longitude":"17.82714000"},{"name":"Starcevica","latitude":"44.75708000","longitude":"17.21178000"},{"name":"Svodna","latitude":"45.03770000","longitude":"16.54019000"},{"name":"Teslić","latitude":"44.60639000","longitude":"17.85972000"},{"name":"Trebinje","latitude":"42.71197000","longitude":"18.34362000"},{"name":"Trn","latitude":"44.85829000","longitude":"17.23583000"},{"name":"Ugljevik","latitude":"44.66361000","longitude":"19.02028000"},{"name":"Velika Obarska","latitude":"44.80461000","longitude":"19.16183000"},{"name":"Višegrad","latitude":"43.78260000","longitude":"19.29256000"},{"name":"Vlasenica","latitude":"44.18183000","longitude":"18.94096000"},{"name":"Zvornik","latitude":"44.38605000","longitude":"19.10247000"},{"name":"Čajniče","latitude":"43.55712000","longitude":"19.07186000"},{"name":"Čelinac","latitude":"44.72453000","longitude":"17.32431000"},{"name":"Čečava","latitude":"44.67961000","longitude":"17.75780000"},{"name":"Šamac","latitude":"45.05987000","longitude":"18.46756000"},{"name":"Šekovići","latitude":"44.29896000","longitude":"18.85532000"},{"name":"Šipovo","latitude":"44.28237000","longitude":"17.08597000"},{"name":"Živinice","latitude":"44.54765000","longitude":"17.37357000"}]