[{"name":"Huyện Bình Xuyên","latitude":"21.30561000","longitude":"105.66225000"},{"name":"Huyện Tam Dương","latitude":"21.36189000","longitude":"105.55690000"},{"name":"Huyện Tam Đảo","latitude":"21.45690000","longitude":"105.59460000"},{"name":"Huyện Yên Lạc","latitude":"21.21845000","longitude":"105.57586000"},{"name":"Vĩnh Yên","latitude":"21.30891000","longitude":"105.60489000"}]