[{"name":"Anan Shi","latitude":"33.87716000","longitude":"134.60644000"},{"name":"Awa-shi","latitude":"34.10000000","longitude":"134.25000000"},{"name":"Ikedachō","latitude":"34.02849000","longitude":"133.80616000"},{"name":"Ishii","latitude":"34.06752000","longitude":"134.44208000"},{"name":"Kamojimachō-jōgejima","latitude":"34.06803000","longitude":"134.35033000"},{"name":"Katsuura Gun","latitude":"33.91380000","longitude":"134.42641000"},{"name":"Komatsushima Shi","latitude":"33.98071000","longitude":"134.59529000"},{"name":"Komatsushimachō","latitude":"34.00000000","longitude":"134.58333000"},{"name":"Mima Shi","latitude":"34.01889000","longitude":"134.14333000"},{"name":"Miyoshi Shi","latitude":"33.93349000","longitude":"133.85184000"},{"name":"Miyoshi-gun","latitude":"34.03647000","longitude":"133.91818000"},{"name":"Naruto-shi","latitude":"34.17881000","longitude":"134.61357000"},{"name":"Narutochō-mitsuishi","latitude":"34.19933000","longitude":"134.60932000"},{"name":"Tokushima","latitude":"34.06667000","longitude":"134.56667000"},{"name":"Tokushima Shi","latitude":"34.04922000","longitude":"134.52359000"},{"name":"Wakimachi","latitude":"34.06667000","longitude":"134.15000000"},{"name":"Yoshinogawa Shi","latitude":"34.03705000","longitude":"134.28354000"}]