[{"name":"Camagüey","latitude":"21.38083000","longitude":"-77.91694000"},{"name":"El Caney","latitude":"21.30000000","longitude":"-78.48333000"},{"name":"Esmeralda","latitude":"21.85139000","longitude":"-78.11725000"},{"name":"Florida","latitude":"21.52536000","longitude":"-78.22579000"},{"name":"Guáimaro","latitude":"21.05222000","longitude":"-77.34990000"},{"name":"Jimaguayú","latitude":"21.24224000","longitude":"-77.82625000"},{"name":"Minas","latitude":"21.48802000","longitude":"-77.61033000"},{"name":"Municipio de Florida","latitude":"21.46582000","longitude":"-78.34848000"},{"name":"Municipio de Nuevitas","latitude":"21.55000000","longitude":"-77.26667000"},{"name":"Nuevitas","latitude":"21.54585000","longitude":"-77.26504000"},{"name":"Santa Cruz del Sur","latitude":"20.71633000","longitude":"-77.99816000"},{"name":"Sibanicú","latitude":"21.23631000","longitude":"-77.52561000"},{"name":"Vertientes","latitude":"21.25817000","longitude":"-78.14979000"}]