[{"name":"Banda Aceh","latitude":"5.54167000","longitude":"95.33333000"},{"name":"Bireun","latitude":"5.20300000","longitude":"96.70090000"},{"name":"Kabupaten Aceh Barat","latitude":"4.45000000","longitude":"96.16667000"},{"name":"Kabupaten Aceh Barat Daya","latitude":"3.83333000","longitude":"96.88333000"},{"name":"Kabupaten Aceh Besar","latitude":"5.38333000","longitude":"95.51667000"},{"name":"Kabupaten Aceh Jaya","latitude":"4.86000000","longitude":"95.64000000"},{"name":"Kabupaten Aceh Selatan","latitude":"3.16667000","longitude":"97.41667000"},{"name":"Kabupaten Aceh Singkil","latitude":"2.41667000","longitude":"97.91667000"},{"name":"Kabupaten Aceh Tamiang","latitude":"4.25000000","longitude":"97.96667000"},{"name":"Kabupaten Aceh Tengah","latitude":"4.51000000","longitude":"96.85500000"},{"name":"Kabupaten Aceh Tenggara","latitude":"3.36667000","longitude":"97.70000000"},{"name":"Kabupaten Aceh Timur","latitude":"4.63333000","longitude":"97.63333000"},{"name":"Kabupaten Aceh Utara","latitude":"4.97000000","longitude":"97.14000000"},{"name":"Kabupaten Bener Meriah","latitude":"4.73015000","longitude":"96.86156000"},{"name":"Kabupaten Bireuen","latitude":"5.08333000","longitude":"96.58333000"},{"name":"Kabupaten Gayo Lues","latitude":"3.95000000","longitude":"97.39000000"},{"name":"Kabupaten Nagan Raya","latitude":"4.16667000","longitude":"96.51667000"},{"name":"Kabupaten Pidie","latitude":"5.08000000","longitude":"96.11000000"},{"name":"Kabupaten Simeulue","latitude":"2.61667000","longitude":"96.08333000"},{"name":"Kota Banda Aceh","latitude":"5.54167000","longitude":"95.33333000"},{"name":"Kota Langsa","latitude":"4.47000000","longitude":"97.93000000"},{"name":"Kota Lhokseumawe","latitude":"5.13333000","longitude":"97.06667000"},{"name":"Kota Sabang","latitude":"5.87944000","longitude":"95.33223000"},{"name":"Kota Subulussalam","latitude":"2.75000000","longitude":"97.93333000"},{"name":"Langsa","latitude":"4.46830000","longitude":"97.96830000"},{"name":"Lhokseumawe","latitude":"5.18010000","longitude":"97.15070000"},{"name":"Meulaboh","latitude":"4.14402000","longitude":"96.12664000"},{"name":"Reuleuet","latitude":"5.21667000","longitude":"96.28333000"},{"name":"Sabang","latitude":"5.88969000","longitude":"95.31644000"},{"name":"Sigli","latitude":"5.38480000","longitude":"95.96090000"},{"name":"Sinabang","latitude":"2.48030000","longitude":"96.38010000"},{"name":"Singkil","latitude":"2.28740000","longitude":"97.78840000"}]