[{"name":"Amphoe Bueng Khong Long","latitude":"18.00899000","longitude":"104.07302000"},{"name":"Amphoe Bung Khla","latitude":"18.24726000","longitude":"103.99427000"},{"name":"Amphoe Mueang Bueng Kan","latitude":"18.29950000","longitude":"103.64016000"},{"name":"Amphoe Pak Khat","latitude":"18.27738000","longitude":"103.34140000"},{"name":"Amphoe Phon Charoen","latitude":"18.07967000","longitude":"103.65453000"},{"name":"Amphoe Seka","latitude":"17.98734000","longitude":"103.89616000"},{"name":"Amphoe Si Wilai","latitude":"18.15528000","longitude":"103.77975000"},{"name":"Amphoe So Phisai","latitude":"18.14176000","longitude":"103.44923000"},{"name":"Bueng Kan","latitude":"18.36303000","longitude":"103.65194000"},{"name":"Seka","latitude":"17.92851000","longitude":"103.95519000"}]