[{"name":"Abraveses","latitude":"40.68137000","longitude":"-7.92102000"},{"name":"Armamar","latitude":"41.09718000","longitude":"-7.68553000"},{"name":"Cabanas de Viriato","latitude":"40.47662000","longitude":"-7.97445000"},{"name":"Campo","latitude":"40.71086000","longitude":"-7.91445000"},{"name":"Campo de Besteiros","latitude":"40.55655000","longitude":"-8.13432000"},{"name":"Canas de Senhorim","latitude":"40.50012000","longitude":"-7.89874000"},{"name":"Carregal do Sal","latitude":"40.45007000","longitude":"-7.99819000"},{"name":"Castro Daire","latitude":"40.92279000","longitude":"-7.93878000"},{"name":"Cinfães","latitude":"41.03986000","longitude":"-8.11218000"},{"name":"Ervedosa do Douro","latitude":"41.16626000","longitude":"-7.47305000"},{"name":"Lamego","latitude":"41.10229000","longitude":"-7.81025000"},{"name":"Mangualde","latitude":"40.60425000","longitude":"-7.76115000"},{"name":"Moimenta da Beira","latitude":"40.97134000","longitude":"-7.62959000"},{"name":"Mortágua","latitude":"40.39434000","longitude":"-8.25811000"},{"name":"Nelas","latitude":"40.53216000","longitude":"-7.85152000"},{"name":"Oliveira de Frades","latitude":"40.73357000","longitude":"-8.17481000"},{"name":"Penalva do Castelo","latitude":"40.66791000","longitude":"-7.66015000"},{"name":"Penedono","latitude":"40.98875000","longitude":"-7.39386000"},{"name":"Resende","latitude":"41.07688000","longitude":"-7.95123000"},{"name":"Rio de Loba","latitude":"40.66596000","longitude":"-7.87781000"},{"name":"Santa Comba Dão","latitude":"40.40442000","longitude":"-8.11380000"},{"name":"Sernancelhe","latitude":"40.92097000","longitude":"-7.51226000"},{"name":"Sátão","latitude":"40.76246000","longitude":"-7.67600000"},{"name":"São João da Pesqueira","latitude":"41.14805000","longitude":"-7.40489000"},{"name":"São João de Areias","latitude":"40.38722000","longitude":"-8.06783000"},{"name":"São Pedro do Sul","latitude":"40.80073000","longitude":"-8.09023000"},{"name":"Tabuaço","latitude":"41.09555000","longitude":"-7.56735000"},{"name":"Tarouca","latitude":"41.02651000","longitude":"-7.74998000"},{"name":"Tondela","latitude":"40.54052000","longitude":"-8.10040000"},{"name":"Treixedo","latitude":"40.43246000","longitude":"-8.09428000"},{"name":"Vila Nova de Paiva","latitude":"40.86590000","longitude":"-7.76127000"},{"name":"Viseu","latitude":"40.67450000","longitude":"-7.91721000"},{"name":"Vouzela","latitude":"40.68944000","longitude":"-8.11360000"}]