[{"name":"Alimănești","latitude":"44.25693000","longitude":"24.53895000"},{"name":"Alunișu","latitude":"44.71667000","longitude":"24.55000000"},{"name":"Bacea","latitude":"44.39824000","longitude":"24.63759000"},{"name":"Baldovineşti","latitude":"44.38333000","longitude":"24.05000000"},{"name":"Balş","latitude":"44.35000000","longitude":"24.10000000"},{"name":"Barza","latitude":"44.33333000","longitude":"24.78333000"},{"name":"Bircii","latitude":"44.51673000","longitude":"24.60324000"},{"name":"Bobiceşti","latitude":"44.38333000","longitude":"24.15000000"},{"name":"Braneț","latitude":"44.32576000","longitude":"24.17792000"},{"name":"Brastavățu","latitude":"43.90634000","longitude":"24.40784000"},{"name":"Brebeni","latitude":"44.36667000","longitude":"24.45000000"},{"name":"Brâncoveni","latitude":"44.31667000","longitude":"24.30000000"},{"name":"Bucinişu","latitude":"43.95000000","longitude":"24.25000000"},{"name":"Bușca","latitude":"44.11166000","longitude":"24.80238000"},{"name":"Băbiciu","latitude":"44.03333000","longitude":"24.56667000"},{"name":"Bălteni","latitude":"44.44883000","longitude":"24.53247000"},{"name":"Bălănești","latitude":"44.24970000","longitude":"24.48216000"},{"name":"Bărăștii de Vede","latitude":"44.71601000","longitude":"24.65919000"},{"name":"Caracal","latitude":"44.11667000","longitude":"24.35000000"},{"name":"Catanele","latitude":"44.38199000","longitude":"24.56145000"},{"name":"Cepari","latitude":"44.49733000","longitude":"24.17122000"},{"name":"Cezieni","latitude":"44.18333000","longitude":"24.26667000"},{"name":"Cilieni","latitude":"43.90000000","longitude":"24.61667000"},{"name":"Coloneşti","latitude":"44.65000000","longitude":"24.66667000"},{"name":"Comanca","latitude":"44.07790000","longitude":"24.35863000"},{"name":"Comani","latitude":"44.18286000","longitude":"24.49160000"},{"name":"Comuna Baldovineşti","latitude":"44.39195000","longitude":"24.03898000"},{"name":"Comuna Bobiceşti","latitude":"44.39321000","longitude":"24.14215000"},{"name":"Comuna Brastavăţu","latitude":"43.91553000","longitude":"24.41135000"},{"name":"Comuna Brebeni","latitude":"44.35956000","longitude":"24.44360000"},{"name":"Comuna Brâncoveni","latitude":"44.31488000","longitude":"24.32941000"},{"name":"Comuna Bucinişu","latitude":"43.94202000","longitude":"24.25463000"},{"name":"Comuna Bârza","latitude":"44.32693000","longitude":"24.15990000"},{"name":"Comuna Bãrãşti","latitude":"44.70852000","longitude":"24.64470000"},{"name":"Comuna Băbiciu","latitude":"44.03230000","longitude":"24.56533000"},{"name":"Comuna Bălteni","latitude":"44.44883000","longitude":"24.53247000"},{"name":"Comuna Cezieni","latitude":"44.18245000","longitude":"24.26846000"},{"name":"Comuna Cilieni","latitude":"43.90206000","longitude":"24.61470000"},{"name":"Comuna Coloneşti","latitude":"44.62345000","longitude":"24.67666000"},{"name":"Comuna Corbu","latitude":"44.45514000","longitude":"24.71639000"},{"name":"Comuna Coteana","latitude":"44.30133000","longitude":"24.46638000"},{"name":"Comuna Crâmpoia","latitude":"44.30513000","longitude":"24.72742000"},{"name":"Comuna Cungrea","latitude":"44.68497000","longitude":"24.39274000"},{"name":"Comuna Curtişoara","latitude":"44.48175000","longitude":"24.34214000"},{"name":"Comuna Cârlogani","latitude":"44.51990000","longitude":"24.16007000"},{"name":"Comuna Cãlui","latitude":"44.45600000","longitude":"24.04953000"},{"name":"Comuna Deveselu","latitude":"44.06569000","longitude":"24.37351000"},{"name":"Comuna Dobreţu","latitude":"44.49164000","longitude":"23.95302000"},{"name":"Comuna Dobrosloveni","latitude":"44.17356000","longitude":"24.36558000"},{"name":"Comuna Dobroteasa","latitude":"44.77107000","longitude":"24.32810000"},{"name":"Comuna Dobrun","latitude":"44.25323000","longitude":"24.23299000"},{"name":"Comuna Drăghiceni","latitude":"44.12694000","longitude":"24.25611000"},{"name":"Comuna Dăneasa","latitude":"44.11390000","longitude":"24.56597000"},{"name":"Comuna Făgeţelu","latitude":"44.78429000","longitude":"24.54421000"},{"name":"Comuna Fălcoiu","latitude":"44.23774000","longitude":"24.37601000"},{"name":"Comuna Fărcaşele","latitude":"44.15057000","longitude":"24.43283000"},{"name":"Comuna Ghimpeţeni","latitude":"44.29002000","longitude":"24.78303000"},{"name":"Comuna Giuvărăşti","latitude":"43.79412000","longitude":"24.68729000"},{"name":"Comuna Gostavăţu","latitude":"44.08028000","longitude":"24.53283000"},{"name":"Comuna Grojdibodu","latitude":"43.75562000","longitude":"24.26073000"},{"name":"Comuna Grãdinari","latitude":"44.56736000","longitude":"24.27761000"},{"name":"Comuna Grãdinile","latitude":"43.94973000","longitude":"24.39228000"},{"name":"Comuna Gura Padinii","latitude":"43.76276000","longitude":"24.31690000"},{"name":"Comuna Gârcov","latitude":"43.77342000","longitude":"24.62709000"},{"name":"Comuna Găneasa","latitude":"44.42129000","longitude":"24.26774000"},{"name":"Comuna Găvăneşti","latitude":"44.41403000","longitude":"24.00867000"},{"name":"Comuna Ianca","latitude":"43.77472000","longitude":"24.19165000"},{"name":"Comuna Iancu Jianu","latitude":"44.51807000","longitude":"24.01257000"},{"name":"Comuna Icoana","latitude":"44.40682000","longitude":"24.72551000"},{"name":"Comuna Ipotesti","latitude":"44.32529000","longitude":"24.40089000"},{"name":"Comuna Izbiceni","latitude":"43.82418000","longitude":"24.66415000"},{"name":"Comuna Izvoarele","latitude":"44.25958000","longitude":"24.53144000"},{"name":"Comuna Leleasca","latitude":"44.75768000","longitude":"24.43708000"},{"name":"Comuna Mihăeşti","latitude":"44.11870000","longitude":"24.79663000"},{"name":"Comuna Milcov","latitude":"44.37396000","longitude":"24.38004000"},{"name":"Comuna Morunglav","latitude":"44.47266000","longitude":"24.11686000"},{"name":"Comuna Movileni","latitude":"44.38368000","longitude":"24.64075000"},{"name":"Comuna Mărunţei","latitude":"44.23679000","longitude":"24.46583000"},{"name":"Comuna Nicolae Titulescu","latitude":"44.27008000","longitude":"24.75897000"},{"name":"Comuna Oboga","latitude":"44.42448000","longitude":"24.08724000"},{"name":"Comuna Obârşia","latitude":"43.89063000","longitude":"24.32188000"},{"name":"Comuna Oporelu","latitude":"44.58682000","longitude":"24.42410000"},{"name":"Comuna Optaşi-Mãgura","latitude":"44.57944000","longitude":"24.65183000"},{"name":"Comuna Orlea","latitude":"43.75430000","longitude":"24.36775000"},{"name":"Comuna Osica de Jos","latitude":"44.23800000","longitude":"24.29502000"},{"name":"Comuna Osica de Sus","latitude":"44.27268000","longitude":"24.33730000"},{"name":"Comuna Perieţi","latitude":"44.40468000","longitude":"24.55611000"},{"name":"Comuna Pleşoiu","latitude":"44.48165000","longitude":"24.24212000"},{"name":"Comuna Poboru","latitude":"44.68335000","longitude":"24.48678000"},{"name":"Comuna Priseaca","latitude":"44.51206000","longitude":"24.43787000"},{"name":"Comuna Pârşcoveni","latitude":"44.29678000","longitude":"24.21836000"},{"name":"Comuna Radomireşti","latitude":"44.11049000","longitude":"24.67816000"},{"name":"Comuna Redea","latitude":"44.04157000","longitude":"24.30677000"},{"name":"Comuna Rotunda","latitude":"43.98427000","longitude":"24.31402000"},{"name":"Comuna Rusăneşti","latitude":"43.94385000","longitude":"24.59498000"},{"name":"Comuna Schitu","latitude":"44.35679000","longitude":"24.55926000"},{"name":"Comuna Scărişoara","latitude":"43.98528000","longitude":"24.58333000"},{"name":"Comuna Seaca","latitude":"44.15159000","longitude":"24.76149000"},{"name":"Comuna Slătioara","latitude":"44.41545000","longitude":"24.32082000"},{"name":"Comuna Spineni","latitude":"44.71808000","longitude":"24.55897000"},{"name":"Comuna Sprâncenata","latitude":"44.06110000","longitude":"24.63984000"},{"name":"Comuna Stoeneşti","latitude":"44.11675000","longitude":"24.49720000"},{"name":"Comuna Stoicăneşti","latitude":"44.18568000","longitude":"24.64267000"},{"name":"Comuna Strejeşti","latitude":"44.52733000","longitude":"24.27036000"},{"name":"Comuna Studina","latitude":"43.96784000","longitude":"24.42136000"},{"name":"Comuna Sâmbureşti","latitude":"44.81131000","longitude":"24.39922000"},{"name":"Comuna Sârbii-Măgura","latitude":"44.52730000","longitude":"24.69585000"},{"name":"Comuna Teslui","latitude":"44.51316000","longitude":"24.35600000"},{"name":"Comuna Tia Mare","latitude":"43.86417000","longitude":"24.63883000"},{"name":"Comuna Topana","latitude":"44.84319000","longitude":"24.52827000"},{"name":"Comuna Traian","latitude":"44.02337000","longitude":"24.45586000"},{"name":"Comuna Tufeni","latitude":"44.34718000","longitude":"24.78986000"},{"name":"Comuna Tătuleşti","latitude":"44.66386000","longitude":"24.61405000"},{"name":"Comuna Urzica","latitude":"43.86055000","longitude":"24.27497000"},{"name":"Comuna Valea Mare","latitude":"44.44188000","longitude":"24.46120000"},{"name":"Comuna Verguleasa","latitude":"44.64128000","longitude":"24.34234000"},{"name":"Comuna Vitomireşti","latitude":"44.85194000","longitude":"24.37704000"},{"name":"Comuna Vişina","latitude":"43.86618000","longitude":"24.45469000"},{"name":"Comuna Vişina Nouă","latitude":"43.87434000","longitude":"24.41820000"},{"name":"Comuna Vlădila","latitude":"44.00114000","longitude":"24.40993000"},{"name":"Comuna Voineasa","latitude":"44.28949000","longitude":"24.15529000"},{"name":"Comuna Vulpeni","latitude":"44.45854000","longitude":"23.92718000"},{"name":"Comuna Vultureşti","latitude":"44.72993000","longitude":"24.33354000"},{"name":"Comuna Vâlcele","latitude":"44.28923000","longitude":"24.54968000"},{"name":"Comuna Vădastra","latitude":"43.86497000","longitude":"24.38069000"},{"name":"Comuna Vădăstriţa","latitude":"43.84531000","longitude":"24.34017000"},{"name":"Comuna Văleni","latitude":"44.21882000","longitude":"24.79748000"},{"name":"Comuna Şerbăneşti","latitude":"44.33607000","longitude":"24.68782000"},{"name":"Comuna Şopârliţa","latitude":"44.27705000","longitude":"24.27743000"},{"name":"Comuna Ştefan cel Mare","latitude":"43.81174000","longitude":"24.22262000"},{"name":"Corabia","latitude":"43.77513000","longitude":"24.50146000"},{"name":"Corbu","latitude":"44.48333000","longitude":"24.71667000"},{"name":"Coteana","latitude":"44.30000000","longitude":"24.46667000"},{"name":"Crușovu","latitude":"43.92473000","longitude":"24.41486000"},{"name":"Crâmpoia","latitude":"44.30215000","longitude":"24.74513000"},{"name":"Crăciunei","latitude":"44.14575000","longitude":"24.66309000"},{"name":"Cungrea","latitude":"44.66667000","longitude":"24.38333000"},{"name":"Curtişoara","latitude":"44.50000000","longitude":"24.33333000"},{"name":"Cârlogani","latitude":"44.51667000","longitude":"24.15000000"},{"name":"Călinești","latitude":"44.07727000","longitude":"24.68796000"},{"name":"Călui","latitude":"44.45297000","longitude":"24.06360000"},{"name":"Dejești","latitude":"44.83093000","longitude":"24.35648000"},{"name":"Deveselu","latitude":"44.06667000","longitude":"24.38333000"},{"name":"Doanca","latitude":"43.84870000","longitude":"24.64949000"},{"name":"Dobreţu","latitude":"44.50000000","longitude":"23.95000000"},{"name":"Dobrosloveni","latitude":"44.18333000","longitude":"24.36667000"},{"name":"Dobroteasa","latitude":"44.78333000","longitude":"24.38333000"},{"name":"Dobrotinet","latitude":"44.47957000","longitude":"24.34730000"},{"name":"Dobrun","latitude":"44.26667000","longitude":"24.21667000"},{"name":"Dranovățu","latitude":"44.43619000","longitude":"24.27894000"},{"name":"Drăghiceni","latitude":"44.13333000","longitude":"24.25000000"},{"name":"Drăgăneşti-Olt","latitude":"44.16667000","longitude":"24.53333000"},{"name":"Dumitrești","latitude":"44.68370000","longitude":"24.31628000"},{"name":"Dăneasa","latitude":"44.15000000","longitude":"24.56667000"},{"name":"Făgeţelu","latitude":"44.78333000","longitude":"24.53333000"},{"name":"Fălcoiu","latitude":"44.23333000","longitude":"24.36667000"},{"name":"Fărcaşele","latitude":"44.15000000","longitude":"24.43333000"},{"name":"Fărcașu de Jos","latitude":"44.13539000","longitude":"24.45901000"},{"name":"Ghimpați","latitude":"44.15359000","longitude":"24.42698000"},{"name":"Ghimpețeni","latitude":"44.28101000","longitude":"24.77458000"},{"name":"Ghioca","latitude":"44.31667000","longitude":"24.73333000"},{"name":"Giuvărăşti","latitude":"43.80000000","longitude":"24.70000000"},{"name":"Gostavăţu","latitude":"44.08333000","longitude":"24.53333000"},{"name":"Greci","latitude":"44.33025000","longitude":"24.55923000"},{"name":"Grojdibodu","latitude":"43.75000000","longitude":"24.26667000"},{"name":"Gropșani","latitude":"44.44072000","longitude":"23.97047000"},{"name":"Grădinari","latitude":"44.56667000","longitude":"24.26667000"},{"name":"Gura Căluiu","latitude":"44.45903000","longitude":"24.03547000"},{"name":"Gura Padinii","latitude":"43.75704000","longitude":"24.31615000"},{"name":"Gârcov","latitude":"43.75910000","longitude":"24.61577000"},{"name":"Găneasa","latitude":"44.41667000","longitude":"24.28333000"},{"name":"Găvănești","latitude":"44.41724000","longitude":"24.01654000"},{"name":"Ianca","latitude":"43.78333000","longitude":"24.18333000"},{"name":"Iancu Jianu","latitude":"44.50000000","longitude":"24.03333000"},{"name":"Icoana","latitude":"44.41667000","longitude":"24.71667000"},{"name":"Ipotești","latitude":"44.32529000","longitude":"24.40089000"},{"name":"Izbiceni","latitude":"43.83333000","longitude":"24.65000000"},{"name":"Izvoarele","latitude":"44.26667000","longitude":"24.51667000"},{"name":"Jieni","latitude":"43.95095000","longitude":"24.59349000"},{"name":"Leleasca","latitude":"44.78333000","longitude":"24.43333000"},{"name":"Mihăeşti","latitude":"44.13333000","longitude":"24.78333000"},{"name":"Morunglav","latitude":"44.46667000","longitude":"24.11667000"},{"name":"Movileni","latitude":"44.36667000","longitude":"24.65000000"},{"name":"Municipiul Caracal","latitude":"44.11273000","longitude":"24.35089000"},{"name":"Municipiul Slatina","latitude":"44.44276000","longitude":"24.36745000"},{"name":"Mărgineni Slobozia","latitude":"44.53121000","longitude":"24.55675000"},{"name":"Mărunţei","latitude":"44.20000000","longitude":"24.46667000"},{"name":"Negreni","latitude":"44.56848000","longitude":"24.59535000"},{"name":"Nicolae Titulescu","latitude":"44.30000000","longitude":"24.80000000"},{"name":"Oboga","latitude":"44.41667000","longitude":"24.10000000"},{"name":"Obârşia","latitude":"43.88333000","longitude":"24.33333000"},{"name":"Olari","latitude":"44.30783000","longitude":"24.20857000"},{"name":"Oporelu","latitude":"44.60000000","longitude":"24.41667000"},{"name":"Optaşi","latitude":"44.58333000","longitude":"24.65000000"},{"name":"Oraş Balş","latitude":"44.36546000","longitude":"24.11321000"},{"name":"Oraş Corabia","latitude":"43.80248000","longitude":"24.47028000"},{"name":"Oraş Drãgãneşti-Olt","latitude":"44.17618000","longitude":"24.50836000"},{"name":"Oraş Piatra-Olt","latitude":"44.37560000","longitude":"24.28332000"},{"name":"Oraş Potcoava","latitude":"44.47992000","longitude":"24.64172000"},{"name":"Oraş Scorniceşti","latitude":"44.56790000","longitude":"24.55394000"},{"name":"Orlea","latitude":"43.75000000","longitude":"24.38333000"},{"name":"Orlea Nouă","latitude":"43.75522000","longitude":"24.35834000"},{"name":"Osica de Jos","latitude":"44.24439000","longitude":"24.27926000"},{"name":"Osica de Sus","latitude":"44.25000000","longitude":"24.31667000"},{"name":"Perieţi","latitude":"44.40000000","longitude":"24.55000000"},{"name":"Piatra","latitude":"44.36054000","longitude":"24.29557000"},{"name":"Piatra Olt","latitude":"44.36667000","longitude":"24.26667000"},{"name":"Pleşoiu","latitude":"44.46667000","longitude":"24.26667000"},{"name":"Poboru","latitude":"44.66667000","longitude":"24.50000000"},{"name":"Potcoava","latitude":"44.48333000","longitude":"24.65000000"},{"name":"Potcoava Fălcoeni","latitude":"44.49484000","longitude":"24.61650000"},{"name":"Potelu","latitude":"43.76577000","longitude":"24.20535000"},{"name":"Potlogeni","latitude":"43.87995000","longitude":"24.63092000"},{"name":"Priseaca","latitude":"44.51667000","longitude":"24.45000000"},{"name":"Pârşcoveni","latitude":"44.30000000","longitude":"24.23333000"},{"name":"Radomireşti","latitude":"44.11667000","longitude":"24.68333000"},{"name":"Redea","latitude":"44.05000000","longitude":"24.30000000"},{"name":"Rotunda","latitude":"43.98333000","longitude":"24.31667000"},{"name":"Rusăneşti","latitude":"43.93333000","longitude":"24.60000000"},{"name":"Schitu","latitude":"44.35000000","longitude":"24.56667000"},{"name":"Scorniceşti","latitude":"44.56667000","longitude":"24.55000000"},{"name":"Scărişoara","latitude":"44.00000000","longitude":"24.56667000"},{"name":"Seaca","latitude":"44.16667000","longitude":"24.75000000"},{"name":"Sinești","latitude":"44.46777000","longitude":"24.66585000"},{"name":"Slatina","latitude":"44.43333000","longitude":"24.36667000"},{"name":"Slătioara","latitude":"44.40000000","longitude":"24.31667000"},{"name":"Slăveni","latitude":"44.08558000","longitude":"24.52843000"},{"name":"Sprâncenata","latitude":"44.08333000","longitude":"24.63333000"},{"name":"Stoeneşti","latitude":"44.11667000","longitude":"24.50000000"},{"name":"Stoicăneşti","latitude":"44.18333000","longitude":"24.63333000"},{"name":"Strejeşti","latitude":"44.53333000","longitude":"24.26667000"},{"name":"Strejeștii de Sus","latitude":"44.54389000","longitude":"24.22772000"},{"name":"Studina","latitude":"43.96667000","longitude":"24.41667000"},{"name":"Studinița","latitude":"43.97691000","longitude":"24.42668000"},{"name":"Stăvaru","latitude":"43.86445000","longitude":"24.25902000"},{"name":"Sâmbureşti","latitude":"44.80000000","longitude":"24.41667000"},{"name":"Tătuleşti","latitude":"44.63333000","longitude":"24.63333000"},{"name":"Ursa","latitude":"43.78783000","longitude":"24.63787000"},{"name":"Urzica","latitude":"43.85670000","longitude":"24.28952000"},{"name":"Valea Mare","latitude":"44.46667000","longitude":"24.43333000"},{"name":"Valea Merilor","latitude":"44.47169000","longitude":"24.65611000"},{"name":"Verguleasa","latitude":"44.65000000","longitude":"24.31667000"},{"name":"Vitomireşti","latitude":"44.86667000","longitude":"24.40000000"},{"name":"Vitănești","latitude":"44.52730000","longitude":"24.69585000"},{"name":"Vişina","latitude":"43.86667000","longitude":"24.45000000"},{"name":"Vișina Nouă","latitude":"43.87434000","longitude":"24.41820000"},{"name":"Vlădila","latitude":"44.00000000","longitude":"24.40000000"},{"name":"Voineasa","latitude":"44.28333000","longitude":"24.13333000"},{"name":"Vulpeni","latitude":"44.46667000","longitude":"23.91667000"},{"name":"Vultureşti","latitude":"44.73333000","longitude":"24.31667000"},{"name":"Vâlcele","latitude":"44.28263000","longitude":"24.54376000"},{"name":"Vâlcelele de Sus","latitude":"44.28461000","longitude":"24.55821000"},{"name":"Vădastra","latitude":"43.86667000","longitude":"24.36667000"},{"name":"Vădăstriţa","latitude":"43.85000000","longitude":"24.33333000"},{"name":"Văleni","latitude":"44.23333000","longitude":"24.78333000"},{"name":"Şerbăneşti","latitude":"44.33333000","longitude":"24.70000000"},{"name":"Şopârliţa","latitude":"44.28333000","longitude":"24.28333000"},{"name":"Ştefan cel Mare","latitude":"43.81124000","longitude":"24.22039000"},{"name":"Teslui","latitude":"44.51667000","longitude":"24.36667000"},{"name":"Tia Mare","latitude":"43.86667000","longitude":"24.63333000"},{"name":"Topana","latitude":"44.81667000","longitude":"24.51667000"},{"name":"Traian","latitude":"44.01667000","longitude":"24.45000000"},{"name":"Tufeni","latitude":"44.36667000","longitude":"24.78333000"}]