[{"name":"Baranya County","countryCode":"HU","fipsCode":"02","iso":"BA","latitude":"46.04845850","longitude":"18.27191730"},{"name":"Borsod-Abaúj-Zemplén County","countryCode":"HU","fipsCode":"04","iso":"BZ","latitude":"48.29394010","longitude":"20.69341120"},{"name":"Budapest","countryCode":"HU","fipsCode":"05","iso":"BU","latitude":"47.49791200","longitude":"19.04023500"},{"name":"Bács-Kiskun County","countryCode":"HU","fipsCode":"01","iso":"BK","latitude":"46.56614370","longitude":"19.42724640"},{"name":"Békés County","countryCode":"HU","fipsCode":"03","iso":"BE","latitude":"46.67048990","longitude":"21.04349960"},{"name":"Békéscsaba","countryCode":"HU","fipsCode":"26","iso":"BC","latitude":"46.67359390","longitude":"21.08773090"},{"name":"Csongrád County","countryCode":"HU","fipsCode":"06","iso":"CS","latitude":"46.41670500","longitude":"20.25661610"},{"name":"Debrecen","countryCode":"HU","fipsCode":"07","iso":"DE","latitude":"47.53160490","longitude":"21.62731240"},{"name":"Dunaújváros","countryCode":"HU","fipsCode":"27","iso":"DU","latitude":"46.96190590","longitude":"18.93552270"},{"name":"Eger","countryCode":"HU","fipsCode":"28","iso":"EG","latitude":"47.90253480","longitude":"20.37722840"},{"name":"Fejér County","countryCode":"HU","fipsCode":"08","iso":"FE","latitude":"47.12179320","longitude":"18.52948150"},{"name":"Győr","countryCode":"HU","fipsCode":"25","iso":"GY","latitude":"47.68745690","longitude":"17.65039740"},{"name":"Győr-Moson-Sopron County","countryCode":"HU","fipsCode":"09","iso":"GS","latitude":"47.65092850","longitude":"17.25058830"},{"name":"Hajdú-Bihar County","countryCode":"HU","fipsCode":"10","iso":"HB","latitude":"47.46883550","longitude":"21.54532270"},{"name":"Heves County","countryCode":"HU","fipsCode":"11","iso":"HE","latitude":"47.80576170","longitude":"20.20385590"},{"name":"Hódmezővásárhely","countryCode":"HU","fipsCode":"29","iso":"HV","latitude":"46.41812620","longitude":"20.33003150"},{"name":"Jász-Nagykun-Szolnok County","countryCode":"HU","fipsCode":"20","iso":"JN","latitude":"47.25555790","longitude":"20.52324560"},{"name":"Kaposvár","countryCode":"HU","fipsCode":"30","iso":"KV","latitude":"46.35936060","longitude":"17.79676390"},{"name":"Kecskemét","countryCode":"HU","fipsCode":"31","iso":"KM","latitude":"46.89637110","longitude":"19.68968610"},{"name":"Miskolc","countryCode":"HU","fipsCode":"13","iso":"MI","latitude":"48.10347750","longitude":"20.77843840"},{"name":"Nagykanizsa","countryCode":"HU","fipsCode":"32","iso":"NK","latitude":"46.45902180","longitude":"16.98967960"},{"name":"Nyíregyháza","countryCode":"HU","fipsCode":"33","iso":"NY","latitude":"47.94953240","longitude":"21.72440530"},{"name":"Nógrád County","countryCode":"HU","fipsCode":"14","iso":"NO","latitude":"47.90410310","longitude":"19.04985040"},{"name":"Pest County","countryCode":"HU","fipsCode":"16","iso":"PE","latitude":"47.44800010","longitude":"19.46181280"},{"name":"Pécs","countryCode":"HU","fipsCode":"15","iso":"PS","latitude":"46.07273450","longitude":"18.23226600"},{"name":"Salgótarján","countryCode":"HU","fipsCode":"41","iso":"ST","latitude":"48.09352370","longitude":"19.79998130"},{"name":"Somogy County","countryCode":"HU","fipsCode":"17","iso":"SO","latitude":"46.55485900","longitude":"17.58667320"},{"name":"Sopron","countryCode":"HU","fipsCode":"34","iso":"SN","latitude":"47.68166190","longitude":"16.58447950"},{"name":"Szabolcs-Szatmár-Bereg County","countryCode":"HU","fipsCode":"18","iso":"SZ","latitude":"48.03949540","longitude":"22.00333000"},{"name":"Szeged","countryCode":"HU","fipsCode":"19","iso":"SD","latitude":"46.25301020","longitude":"20.14142530"},{"name":"Szekszárd","countryCode":"HU","fipsCode":"42","iso":"SS","latitude":"46.34743260","longitude":"18.70622930"},{"name":"Szolnok","countryCode":"HU","fipsCode":"36","iso":"SK","latitude":"47.16213550","longitude":"20.18247120"},{"name":"Szombathely","countryCode":"HU","fipsCode":"37","iso":"SH","latitude":"47.23068510","longitude":"16.62184410"},{"name":"Székesfehérvár","countryCode":"HU","fipsCode":"35","iso":"SF","latitude":"47.18602620","longitude":"18.42213580"},{"name":"Tatabánya","countryCode":"HU","fipsCode":"38","iso":"TB","latitude":"47.56924600","longitude":"18.40481800"},{"name":"Tolna County","countryCode":"HU","fipsCode":"21","iso":"TO","latitude":"46.47627540","longitude":"18.55706270"},{"name":"Vas County","countryCode":"HU","fipsCode":"22","iso":"VA","latitude":"47.09291110","longitude":"16.68121830"},{"name":"Veszprém","countryCode":"HU","fipsCode":"39","iso":"VM","latitude":"47.10280870","longitude":"17.90930190"},{"name":"Veszprém County","countryCode":"HU","fipsCode":"23","iso":"VE","latitude":"47.09309740","longitude":"17.91007630"},{"name":"Zala County","countryCode":"HU","fipsCode":"24","iso":"ZA","latitude":"46.73844040","longitude":"16.91522520"},{"name":"Zalaegerszeg","countryCode":"HU","fipsCode":"40","iso":"ZE","latitude":"46.84169360","longitude":"16.84163220"},{"name":"Érd","countryCode":"HU","fipsCode":"43","iso":"ER","latitude":"47.39197180","longitude":"18.90454400"}]