[{"name":"1 Decembrie","latitude":"44.29083000","longitude":"26.05806000"},{"name":"Afumaţi","latitude":"44.51667000","longitude":"26.26667000"},{"name":"Alunișu","latitude":"44.33883000","longitude":"26.05837000"},{"name":"Baloteşti","latitude":"44.61667000","longitude":"26.11667000"},{"name":"Berceni","latitude":"44.31417000","longitude":"26.18556000"},{"name":"Bragadiru","latitude":"44.37111000","longitude":"25.97750000"},{"name":"Brăneşti","latitude":"44.45000000","longitude":"26.33333000"},{"name":"Buciumeni","latitude":"44.54975000","longitude":"25.96419000"},{"name":"Buftea","latitude":"44.56139000","longitude":"25.94889000"},{"name":"Buriaș","latitude":"44.73304000","longitude":"25.98053000"},{"name":"Bălăceanca","latitude":"44.39249000","longitude":"26.29009000"},{"name":"Cernica","latitude":"44.41667000","longitude":"26.28333000"},{"name":"Chiajna","latitude":"44.46000000","longitude":"25.97333000"},{"name":"Chitila","latitude":"44.50806000","longitude":"25.98222000"},{"name":"Ciofliceni","latitude":"44.68122000","longitude":"26.11923000"},{"name":"Ciolpani","latitude":"44.73333000","longitude":"26.08333000"},{"name":"Ciorogârla","latitude":"44.44250000","longitude":"25.88333000"},{"name":"Clinceni","latitude":"44.37333000","longitude":"25.95472000"},{"name":"Comuna 1 Decembrie","latitude":"44.28869000","longitude":"26.06178000"},{"name":"Comuna Afumaţi","latitude":"44.52501000","longitude":"26.24943000"},{"name":"Comuna Baloteşti","latitude":"44.62026000","longitude":"26.08664000"},{"name":"Comuna Berceni","latitude":"44.30887000","longitude":"26.19051000"},{"name":"Comuna Brăneşti","latitude":"44.45362000","longitude":"26.34995000"},{"name":"Comuna Cernica","latitude":"44.39343000","longitude":"26.28992000"},{"name":"Comuna Chiajna","latitude":"44.45499000","longitude":"25.99345000"},{"name":"Comuna Ciolpani","latitude":"44.72603000","longitude":"26.10193000"},{"name":"Comuna Ciorogârla","latitude":"44.43222000","longitude":"25.87861000"},{"name":"Comuna Clinceni","latitude":"44.37639000","longitude":"25.92445000"},{"name":"Comuna Copăceni","latitude":"44.26297000","longitude":"26.09374000"},{"name":"Comuna Corbeanca","latitude":"44.59671000","longitude":"26.03241000"},{"name":"Comuna Cornetu","latitude":"44.34286000","longitude":"25.92489000"},{"name":"Comuna Dascălu Creaţa","latitude":"44.60008000","longitude":"26.24201000"},{"name":"Comuna Domneşti","latitude":"44.39058000","longitude":"25.89492000"},{"name":"Comuna Dragomireşti-Vale","latitude":"44.47555000","longitude":"25.93164000"},{"name":"Comuna Dărăşti-Ilfov","latitude":"44.30912000","longitude":"26.02139000"},{"name":"Comuna Fundeni-Dobroeşti","latitude":"44.45455000","longitude":"26.18368000"},{"name":"Comuna Glina","latitude":"44.38546000","longitude":"26.24582000"},{"name":"Comuna Gruiu","latitude":"44.72648000","longitude":"26.22133000"},{"name":"Comuna Grădiştea","latitude":"44.66557000","longitude":"26.31448000"},{"name":"Comuna Găneasa","latitude":"44.49447000","longitude":"26.29923000"},{"name":"Comuna Jilava","latitude":"44.32863000","longitude":"26.07754000"},{"name":"Comuna Moara Vlãsiei","latitude":"44.63416000","longitude":"26.18935000"},{"name":"Comuna Mogoşoaia","latitude":"44.52903000","longitude":"26.00178000"},{"name":"Comuna Nuci","latitude":"44.70910000","longitude":"26.31770000"},{"name":"Comuna Periş","latitude":"44.70859000","longitude":"26.01472000"},{"name":"Comuna Petrăchioaia","latitude":"44.57953000","longitude":"26.31114000"},{"name":"Comuna Snagov","latitude":"44.68481000","longitude":"26.12384000"},{"name":"Comuna Tunari","latitude":"44.56797000","longitude":"26.13908000"},{"name":"Comuna Vidra","latitude":"44.28107000","longitude":"26.14310000"},{"name":"Comuna Ştefãneştii De Jos","latitude":"44.53333000","longitude":"26.18333000"},{"name":"Copăceni","latitude":"44.26297000","longitude":"26.09374000"},{"name":"Corbeanca","latitude":"44.60000000","longitude":"26.05000000"},{"name":"Cornetu","latitude":"44.34167000","longitude":"25.94083000"},{"name":"Crețești","latitude":"44.28238000","longitude":"26.13530000"},{"name":"Căciulați","latitude":"44.62741000","longitude":"26.17255000"},{"name":"Căldăraru","latitude":"44.41307000","longitude":"26.26313000"},{"name":"Cățelu","latitude":"44.40292000","longitude":"26.21975000"},{"name":"Dascălu","latitude":"44.60000000","longitude":"26.23333000"},{"name":"Dobroeşti","latitude":"44.45000000","longitude":"26.18333000"},{"name":"Domneşti-Sârbi","latitude":"44.38333000","longitude":"25.91667000"},{"name":"Domnești","latitude":"44.39919000","longitude":"25.91618000"},{"name":"Dragomireşti-Vale","latitude":"44.47500000","longitude":"25.93500000"},{"name":"Dragomirești-Deal","latitude":"44.46240000","longitude":"25.94478000"},{"name":"Dârvari","latitude":"44.42108000","longitude":"25.87989000"},{"name":"Dărăşti-Ilfov","latitude":"44.30889000","longitude":"26.01833000"},{"name":"Fundeni","latitude":"44.45892000","longitude":"26.16565000"},{"name":"Ghermănești","latitude":"44.68829000","longitude":"26.14962000"},{"name":"Glina","latitude":"44.38333000","longitude":"26.25000000"},{"name":"Gruiu","latitude":"44.73333000","longitude":"26.23333000"},{"name":"Grădiştea","latitude":"44.66667000","longitude":"26.28333000"},{"name":"Găneasa","latitude":"44.48333000","longitude":"26.28333000"},{"name":"Islaz","latitude":"44.46117000","longitude":"26.38724000"},{"name":"Jilava","latitude":"44.33333000","longitude":"26.07806000"},{"name":"Lipia","latitude":"44.71003000","longitude":"26.26445000"},{"name":"Merii Petchii","latitude":"44.73532000","longitude":"26.30054000"},{"name":"Moara Vlăsiei","latitude":"44.64090000","longitude":"26.20616000"},{"name":"Mogoşoaia","latitude":"44.52917000","longitude":"26.00000000"},{"name":"Măgurele","latitude":"44.35000000","longitude":"26.03333000"},{"name":"Nuci","latitude":"44.71667000","longitude":"26.30000000"},{"name":"Olteni","latitude":"44.39307000","longitude":"25.95021000"},{"name":"Oraş Bragadiru","latitude":"44.36998000","longitude":"25.97871000"},{"name":"Oraş Buftea","latitude":"44.55475000","longitude":"25.95628000"},{"name":"Oraş Chitila","latitude":"44.49053000","longitude":"25.97847000"},{"name":"Oraş Mãgurele","latitude":"44.33925000","longitude":"26.01403000"},{"name":"Oraş Otopeni","latitude":"44.54217000","longitude":"26.06526000"},{"name":"Oraş Pantelimon","latitude":"44.45235000","longitude":"26.20684000"},{"name":"Oraş Popeşti Leordeni","latitude":"44.38005000","longitude":"26.17134000"},{"name":"Otopeni","latitude":"44.55000000","longitude":"26.06667000"},{"name":"Pantelimon","latitude":"44.45000000","longitude":"26.20000000"},{"name":"Periş","latitude":"44.68472000","longitude":"26.01389000"},{"name":"Petrăchioaia","latitude":"44.58099000","longitude":"26.31269000"},{"name":"Piteasca","latitude":"44.49339000","longitude":"26.33025000"},{"name":"Popeşti-Leordeni","latitude":"44.38333000","longitude":"26.16667000"},{"name":"Roșu","latitude":"44.45025000","longitude":"26.01122000"},{"name":"Rudeni","latitude":"44.47242000","longitude":"25.97325000"},{"name":"Siliștea Snagovului","latitude":"44.73920000","longitude":"26.17942000"},{"name":"Sintești","latitude":"44.30046000","longitude":"26.12126000"},{"name":"Snagov","latitude":"44.70000000","longitude":"26.18333000"},{"name":"Tunari","latitude":"44.55000000","longitude":"26.15000000"},{"name":"Tânganu","latitude":"44.40628000","longitude":"26.31262000"},{"name":"Vidra","latitude":"44.26056000","longitude":"26.16972000"},{"name":"Voluntari","latitude":"44.49002000","longitude":"26.17338000"},{"name":"Voluntari City","latitude":"44.49023000","longitude":"26.18439000"},{"name":"Vârteju","latitude":"44.35606000","longitude":"25.99183000"},{"name":"Ştefăneştii de Jos","latitude":"44.53333000","longitude":"26.20000000"},{"name":"Tamași","latitude":"44.58438000","longitude":"26.00724000"}]