[{"name":"Administrative Zone 2","latitude":"13.68513000","longitude":"40.05615000"},{"name":"Administrative Zone 3","latitude":"10.00902000","longitude":"40.47394000"},{"name":"Asaita","latitude":"11.56838000","longitude":"41.43869000"},{"name":"Dubti","latitude":"11.73292000","longitude":"41.08200000"},{"name":"Gewanē","latitude":"10.16658000","longitude":"40.64689000"},{"name":"Semera","latitude":"11.79342000","longitude":"41.00578000"},{"name":"Āwash","latitude":"8.98333000","longitude":"40.16667000"}]