[{"name":"Asahi","latitude":"35.97259000","longitude":"136.12455000"},{"name":"Awara-shi","latitude":"36.22777000","longitude":"136.25154000"},{"name":"Echizen-shi","latitude":"35.88946000","longitude":"136.17723000"},{"name":"Fukui-shi","latitude":"36.06667000","longitude":"136.21667000"},{"name":"Katsuyama","latitude":"36.06173000","longitude":"136.50101000"},{"name":"Katsuyama Shi","latitude":"36.08440000","longitude":"136.52178000"},{"name":"Maruoka","latitude":"36.15340000","longitude":"136.27029000"},{"name":"Mikuni","latitude":"36.21706000","longitude":"136.15185000"},{"name":"Obama","latitude":"35.49576000","longitude":"135.74604000"},{"name":"Obama-shi","latitude":"35.45000000","longitude":"135.70000000"},{"name":"Ono","latitude":"35.98106000","longitude":"136.48727000"},{"name":"Sabae","latitude":"35.94647000","longitude":"136.18498000"},{"name":"Sabae-shi","latitude":"35.95932000","longitude":"136.21835000"},{"name":"Sakai-shi","latitude":"36.16406000","longitude":"136.25544000"},{"name":"Takefu","latitude":"35.90393000","longitude":"136.16687000"},{"name":"Tsuruga","latitude":"35.64547000","longitude":"136.05580000"},{"name":"Tsuruga-shi","latitude":"35.63730000","longitude":"136.08068000"},{"name":"Ōi-gun","latitude":"35.49238000","longitude":"135.49311000"},{"name":"Ōno-shi","latitude":"35.90837000","longitude":"136.61696000"}]