[{"name":"Alamudunskiy Rayon","latitude":"42.81985000","longitude":"74.59398000"},{"name":"Belovodskoye","latitude":"42.82944000","longitude":"74.10830000"},{"name":"Chuyskiy Rayon","latitude":"42.66667000","longitude":"75.33333000"},{"name":"Ivanovka","latitude":"42.88778000","longitude":"75.08500000"},{"name":"Kaindy","latitude":"42.82469000","longitude":"73.67585000"},{"name":"Kant","latitude":"42.89106000","longitude":"74.85077000"},{"name":"Kara-Balta","latitude":"42.81423000","longitude":"73.84813000"},{"name":"Kemin","latitude":"42.78611000","longitude":"75.69167000"},{"name":"Lebedinovka","latitude":"42.88454000","longitude":"74.67819000"},{"name":"Sokulukskiy Rayon","latitude":"42.83333000","longitude":"74.33333000"},{"name":"Sosnovka","latitude":"42.63707000","longitude":"73.89608000"},{"name":"Tokmok","latitude":"42.84194000","longitude":"75.30149000"},{"name":"Ysyk-Ata","latitude":"42.72665000","longitude":"75.07444000"}]