[{"name":"Kabupaten Bulungan","latitude":"3.00000000","longitude":"117.16667000"},{"name":"Kabupaten Malinau","latitude":"2.45000000","longitude":"115.68333000"},{"name":"Kabupaten Nunukan","latitude":"4.13333000","longitude":"116.70000000"},{"name":"Kabupaten Tana Tidung","latitude":"3.55000000","longitude":"117.25000000"},{"name":"Tanjung Selor","latitude":"2.83750000","longitude":"117.36528000"},{"name":"Tarakan","latitude":"3.31332000","longitude":"117.59152000"}]