[{"name":"Apostolove","latitude":"47.66003000","longitude":"33.71369000"},{"name":"Auly","latitude":"48.56660000","longitude":"34.46111000"},{"name":"Aviatorske","latitude":"48.36714000","longitude":"35.08132000"},{"name":"Chervonohryhorivka","latitude":"47.62298000","longitude":"34.53887000"},{"name":"Chortomlyk","latitude":"47.62315000","longitude":"34.14198000"},{"name":"Dnipro","latitude":"48.45930000","longitude":"35.03865000"},{"name":"Dnipro Raion","latitude":"48.45608000","longitude":"35.02167000"},{"name":"Dniprovs’ka Mis’ka Rada","latitude":"48.46726000","longitude":"34.99898000"},{"name":"Hubynykha","latitude":"48.80980000","longitude":"35.25602000"},{"name":"Hupalivka","latitude":"49.11139000","longitude":"34.73556000"},{"name":"Kamianske","latitude":"48.51134000","longitude":"34.60210000"},{"name":"Kaydaki","latitude":"48.37678000","longitude":"35.12398000"},{"name":"Krynychky","latitude":"48.37551000","longitude":"34.46701000"},{"name":"Kryvoriz’ka Mis’krada","latitude":"47.94730000","longitude":"33.42489000"},{"name":"Kryvyi Rih","latitude":"47.90966000","longitude":"33.38044000"},{"name":"Lykhivka","latitude":"48.68735000","longitude":"33.92279000"},{"name":"Mahdalynivka","latitude":"48.92111000","longitude":"34.91491000"},{"name":"Mahdalynivs’kyy Rayon","latitude":"48.97612000","longitude":"34.96762000"},{"name":"Marhanets’","latitude":"47.63543000","longitude":"34.62769000"},{"name":"Melioratyvne","latitude":"48.63009000","longitude":"35.41558000"},{"name":"Mezhova","latitude":"48.25318000","longitude":"36.73468000"},{"name":"Nikopol","latitude":"47.57119000","longitude":"34.39637000"},{"name":"Novomoskovsk Raion","latitude":"48.66667000","longitude":"35.41667000"},{"name":"Novomoskovs’k","latitude":"48.63799000","longitude":"35.24548000"},{"name":"Novomykolayivka","latitude":"48.55625000","longitude":"34.37399000"},{"name":"Novopokrovka","latitude":"48.05918000","longitude":"34.60619000"},{"name":"Ordzhonikidze","latitude":"47.66763000","longitude":"34.05957000"},{"name":"Partyzans’ke","latitude":"48.58680000","longitude":"34.80948000"},{"name":"Pavlohrad","latitude":"48.53426000","longitude":"35.87098000"},{"name":"Petropavlivka","latitude":"48.45643000","longitude":"36.43670000"},{"name":"Petrykivka","latitude":"48.72933000","longitude":"34.63358000"},{"name":"Petrykivs’kyy Rayon","latitude":"48.68914000","longitude":"34.61098000"},{"name":"Piatykhatky","latitude":"48.41333000","longitude":"33.71056000"},{"name":"Pidhorodne","latitude":"48.57528000","longitude":"35.10680000"},{"name":"Sholokhove","latitude":"47.69453000","longitude":"34.03119000"},{"name":"Shyroke","latitude":"47.69173000","longitude":"33.25715000"},{"name":"Shyroke Raion","latitude":"47.66667000","longitude":"33.33333000"},{"name":"Sofiyivka","latitude":"48.04865000","longitude":"33.87618000"},{"name":"Solone","latitude":"48.20805000","longitude":"34.87208000"},{"name":"Solone Raion","latitude":"48.16667000","longitude":"35.00000000"},{"name":"Spas’ke","latitude":"48.66667000","longitude":"35.05385000"},{"name":"Surs’ko-Mykhaylivka","latitude":"48.27202000","longitude":"34.72759000"},{"name":"Synel’nykove","latitude":"48.32044000","longitude":"35.51792000"},{"name":"Tomakivka","latitude":"47.81569000","longitude":"34.74137000"},{"name":"Tsarychanka","latitude":"48.93697000","longitude":"34.47860000"},{"name":"Tsarychans’kyy Rayon","latitude":"48.93329000","longitude":"34.53043000"},{"name":"Verkhn’odniprovs’k","latitude":"48.65242000","longitude":"34.33457000"},{"name":"Vil’ne","latitude":"47.63645000","longitude":"34.81387000"},{"name":"Vyshchetarasivka","latitude":"47.56851000","longitude":"34.88096000"},{"name":"Vyshneve","latitude":"48.43611000","longitude":"33.91556000"},{"name":"Yur”yivs’kyy Rayon","latitude":"48.80743000","longitude":"35.91325000"},{"name":"Zhovti Vody","latitude":"48.34493000","longitude":"33.50374000"}]