[{"name":"Abhayapuri","latitude":"26.32255000","longitude":"90.68526000"},{"name":"Amguri","latitude":"26.81482000","longitude":"94.52614000"},{"name":"Badarpur","latitude":"24.86852000","longitude":"92.59606000"},{"name":"Baksa","latitude":"26.69804000","longitude":"91.15142000"},{"name":"Barpathar","latitude":"26.28709000","longitude":"93.88844000"},{"name":"Barpeta","latitude":"26.47104000","longitude":"91.03080000"},{"name":"Barpeta Road","latitude":"26.50284000","longitude":"90.96937000"},{"name":"Bihpuriagaon","latitude":"27.01718000","longitude":"93.91673000"},{"name":"Bijni","latitude":"26.49588000","longitude":"90.70298000"},{"name":"Bilasipara","latitude":"26.23285000","longitude":"90.23410000"},{"name":"Bokajan","latitude":"26.02131000","longitude":"93.77945000"},{"name":"Bokakhat","latitude":"26.64018000","longitude":"93.60052000"},{"name":"Bongaigaon","latitude":"26.46030000","longitude":"90.64640000"},{"name":"Basugaon","latitude":"26.46742000","longitude":"90.41951000"},{"name":"Chirang","latitude":"26.52527000","longitude":"90.49066000"},{"name":"Chabua","latitude":"27.48253000","longitude":"95.17451000"},{"name":"Chapar","latitude":"26.27266000","longitude":"90.44556000"},{"name":"Cachar","latitude":"24.78213000","longitude":"92.85771000"},{"name":"Darrang","latitude":"26.51195000","longitude":"92.16843000"},{"name":"Dergaon","latitude":"26.70000000","longitude":"93.96667000"},{"name":"Dhekiajuli","latitude":"26.70367000","longitude":"92.47808000"},{"name":"Dhemaji","latitude":"27.60910000","longitude":"94.79420000"},{"name":"Dhing","latitude":"26.46793000","longitude":"92.47336000"},{"name":"Dhubri","latitude":"26.06749000","longitude":"90.02238000"},{"name":"Dibrugarh","latitude":"27.50000000","longitude":"95.00000000"},{"name":"Digboi","latitude":"27.39321000","longitude":"95.61839000"},{"name":"Dima Hasao District","latitude":"25.50000000","longitude":"93.00000000"},{"name":"Diphu","latitude":"25.84341000","longitude":"93.43116000"},{"name":"Dispur","latitude":"26.13564000","longitude":"91.80069000"},{"name":"Duliagaon","latitude":"27.37227000","longitude":"95.30754000"},{"name":"Dum Duma","latitude":"27.56884000","longitude":"95.55664000"},{"name":"Gauripur","latitude":"26.08334000","longitude":"89.96118000"},{"name":"Gohpur","latitude":"26.88184000","longitude":"93.61560000"},{"name":"Golaghat","latitude":"26.40920000","longitude":"93.91193000"},{"name":"Golakganj","latitude":"26.10216000","longitude":"89.82275000"},{"name":"Goshaingaon","latitude":"26.43946000","longitude":"89.96307000"},{"name":"Goalpara","latitude":"26.12791000","longitude":"90.60974000"},{"name":"Guwahati","latitude":"26.18440000","longitude":"91.74580000"},{"name":"Hailakandi","latitude":"24.50170000","longitude":"92.60069000"},{"name":"Hojai","latitude":"26.00281000","longitude":"92.85605000"},{"name":"Howli","latitude":"26.42237000","longitude":"90.98004000"},{"name":"Haflong","latitude":"25.16478000","longitude":"93.01744000"},{"name":"Hajo","latitude":"26.24520000","longitude":"91.52525000"},{"name":"Jogighopa","latitude":"26.22646000","longitude":"90.57247000"},{"name":"Jorhat","latitude":"26.80000000","longitude":"94.26000000"},{"name":"Kamrup Metropolitan","latitude":"26.05375000","longitude":"92.00763000"},{"name":"Karimganj","latitude":"24.60000000","longitude":"92.40000000"},{"name":"Kharupatia","latitude":"26.51839000","longitude":"92.14722000"},{"name":"Kokrajhar","latitude":"26.60000000","longitude":"90.20000000"},{"name":"Kamrup","latitude":"26.22322000","longitude":"91.65344000"},{"name":"Karbi Anglong","latitude":"26.00000000","longitude":"93.50000000"},{"name":"Lakhimpur","latitude":"27.35000000","longitude":"94.25000000"},{"name":"Lakhipur","latitude":"24.79281000","longitude":"93.00910000"},{"name":"Lumding Railway Colony","latitude":"25.74903000","longitude":"93.16998000"},{"name":"Lala","latitude":"24.55418000","longitude":"92.61592000"},{"name":"Mahur","latitude":"25.18305000","longitude":"93.11342000"},{"name":"Maibong","latitude":"25.30125000","longitude":"93.13811000"},{"name":"Mangaldai","latitude":"26.44212000","longitude":"92.03047000"},{"name":"Mariani","latitude":"26.65725000","longitude":"94.31529000"},{"name":"Morigaon","latitude":"26.25213000","longitude":"92.34238000"},{"name":"Moranha","latitude":"27.18735000","longitude":"94.91557000"},{"name":"Makum","latitude":"27.48652000","longitude":"95.43646000"},{"name":"Nagaon","latitude":"26.35037000","longitude":"92.69225000"},{"name":"Nahorkatiya","latitude":"27.28912000","longitude":"95.34180000"},{"name":"Nalbari","latitude":"26.50000000","longitude":"91.40000000"},{"name":"North Guwahati","latitude":"26.19749000","longitude":"91.72020000"},{"name":"North Lakhimpur","latitude":"27.23517000","longitude":"94.10357000"},{"name":"Numaligarh","latitude":"26.62249000","longitude":"93.72225000"},{"name":"Namrup","latitude":"27.19395000","longitude":"95.31929000"},{"name":"Nazira","latitude":"26.91649000","longitude":"94.73611000"},{"name":"Palasbari","latitude":"26.12388000","longitude":"91.53974000"},{"name":"Raha","latitude":"26.23333000","longitude":"92.51667000"},{"name":"Rangia","latitude":"26.44931000","longitude":"91.61356000"},{"name":"Rangapara","latitude":"26.83772000","longitude":"92.66876000"},{"name":"Sapatgram","latitude":"26.33732000","longitude":"90.12360000"},{"name":"Sarupathar","latitude":"26.20600000","longitude":"96.81000000"},{"name":"Sibsagar","latitude":"26.98427000","longitude":"94.63784000"},{"name":"Silapathar","latitude":"27.59441000","longitude":"94.72402000"},{"name":"Silchar","latitude":"24.82733000","longitude":"92.79787000"},{"name":"Soalkuchi","latitude":"26.16806000","longitude":"91.57111000"},{"name":"Sonitpur","latitude":"26.76748000","longitude":"92.96425000"},{"name":"Sonari","latitude":"27.02462000","longitude":"95.01629000"},{"name":"Sorbhog","latitude":"26.48612000","longitude":"90.88590000"},{"name":"Tezpur","latitude":"26.63333000","longitude":"92.80000000"},{"name":"Tinsukia","latitude":"27.60000000","longitude":"95.60000000"},{"name":"Titabar","latitude":"26.60140000","longitude":"94.20386000"},{"name":"Udalguri","latitude":"26.75367000","longitude":"92.10215000"}]