[{"name":"Eura","latitude":"61.13333000","longitude":"22.13333000"},{"name":"Eurajoki","latitude":"61.20000000","longitude":"21.73333000"},{"name":"Harjavalta","latitude":"61.31667000","longitude":"22.13333000"},{"name":"Huittinen","latitude":"61.18333000","longitude":"22.70000000"},{"name":"Jämijärvi","latitude":"61.81667000","longitude":"22.70000000"},{"name":"Kankaanpää","latitude":"61.80000000","longitude":"22.41667000"},{"name":"Karvia","latitude":"62.13333000","longitude":"22.56667000"},{"name":"Kiukainen","latitude":"61.21667000","longitude":"22.08333000"},{"name":"Kokemäki","latitude":"61.25647000","longitude":"22.35643000"},{"name":"Kullaa","latitude":"61.46998000","longitude":"22.16145000"},{"name":"Köyliö","latitude":"61.11910000","longitude":"22.30976000"},{"name":"Lappi","latitude":"61.10000000","longitude":"21.83333000"},{"name":"Lavia","latitude":"61.60000000","longitude":"22.60000000"},{"name":"Luvia","latitude":"61.36375000","longitude":"21.62556000"},{"name":"Längelmäki","latitude":"61.65000000","longitude":"22.10000000"},{"name":"Merikarvia","latitude":"61.85839000","longitude":"21.50035000"},{"name":"Nakkila","latitude":"61.36667000","longitude":"22.00000000"},{"name":"Noormarkku","latitude":"61.59274000","longitude":"21.86846000"},{"name":"Pomarkku","latitude":"61.69348000","longitude":"22.00862000"},{"name":"Pori","latitude":"61.48333000","longitude":"21.78333000"},{"name":"Rauma","latitude":"61.12724000","longitude":"21.51127000"},{"name":"Siikainen","latitude":"61.87703000","longitude":"21.81945000"},{"name":"Säkylä","latitude":"61.03333000","longitude":"22.33333000"},{"name":"Ulvila","latitude":"61.42844000","longitude":"21.87103000"},{"name":"Vampula","latitude":"61.01667000","longitude":"22.70000000"}]