[{"name":"Dāmghān","latitude":"36.16790000","longitude":"54.34292000"},{"name":"Mahdishahr","latitude":"35.70806000","longitude":"53.35083000"},{"name":"Semnan","latitude":"35.57691000","longitude":"53.39205000"},{"name":"Shahrestān-e Dāmghān","latitude":"35.50000000","longitude":"54.33333000"},{"name":"Shahrestān-e Garmsār","latitude":"34.96362000","longitude":"52.21270000"},{"name":"Shahrestān-e Mayāmey","latitude":"36.63333000","longitude":"55.95000000"},{"name":"Shahrestān-e Semnān","latitude":"35.11667000","longitude":"53.78333000"},{"name":"Shahrestān-e Shāhrūd","latitude":"35.50000000","longitude":"55.50000000"},{"name":"Shahrestān-e Ārādān","latitude":"34.90000000","longitude":"52.61667000"},{"name":"Shahrud","latitude":"36.41819000","longitude":"54.97628000"},{"name":"Īstgāh-e Rāh Āhan-e Garmsār","latitude":"35.23455000","longitude":"52.30942000"}]