[{"name":"Acacías","latitude":"3.98695000","longitude":"-73.75797000"},{"name":"Barranca de Upía","latitude":"4.56963000","longitude":"-72.96676000"},{"name":"Cabuyaro","latitude":"4.28170000","longitude":"-72.79399000"},{"name":"Castilla la Nueva","latitude":"3.82722000","longitude":"-73.68831000"},{"name":"Cubarral","latitude":"3.79536000","longitude":"-73.84063000"},{"name":"Cumaral","latitude":"4.23814000","longitude":"-73.34101000"},{"name":"El Calvario","latitude":"4.35426000","longitude":"-73.74431000"},{"name":"El Castillo","latitude":"3.56363000","longitude":"-73.79488000"},{"name":"Fuente de Oro","latitude":"3.46263000","longitude":"-73.62162000"},{"name":"Granada","latitude":"3.54625000","longitude":"-73.70687000"},{"name":"Guamal","latitude":"3.88043000","longitude":"-73.76566000"},{"name":"La Macarena","latitude":"2.00702000","longitude":"-74.07320000"},{"name":"Lejanías","latitude":"3.52762000","longitude":"-74.02335000"},{"name":"Mapiripán","latitude":"2.89115000","longitude":"-72.13328000"},{"name":"Mesetas","latitude":"3.38463000","longitude":"-74.04424000"},{"name":"Puerto Concordia","latitude":"2.62206000","longitude":"-72.75724000"},{"name":"Puerto Gaitán","latitude":"4.31328000","longitude":"-72.08157000"},{"name":"Puerto Lleras","latitude":"3.21794000","longitude":"-73.23215000"},{"name":"Puerto López","latitude":"4.04426000","longitude":"-72.65731000"},{"name":"Puerto Rico","latitude":"2.78273000","longitude":"-73.13956000"},{"name":"Puerto Yuca","latitude":"2.93833000","longitude":"-73.20833000"},{"name":"Restrepo","latitude":"4.25833000","longitude":"-73.56142000"},{"name":"San Carlos de Guaroa","latitude":"3.71161000","longitude":"-73.24344000"},{"name":"San Juan de Arama","latitude":"3.29034000","longitude":"-73.82065000"},{"name":"San Martín","latitude":"3.50819000","longitude":"-73.03975000"},{"name":"Villavicencio","latitude":"4.07424000","longitude":"-73.49150000"},{"name":"Vistahermosa","latitude":"3.12428000","longitude":"-73.75156000"}]