[{"name":"Afanas’yevskiy Rayon","latitude":"58.83333000","longitude":"53.25000000"},{"name":"Arbazh","latitude":"57.68041000","longitude":"48.30647000"},{"name":"Arkul’","latitude":"57.28085000","longitude":"50.04400000"},{"name":"Belaya Kholunitsa","latitude":"58.84000000","longitude":"50.85278000"},{"name":"Belorechensk","latitude":"58.77251000","longitude":"52.29357000"},{"name":"Bogorodskoye","latitude":"57.82849000","longitude":"50.74856000"},{"name":"Chërnaya Kholunitsa","latitude":"58.85115000","longitude":"51.71545000"},{"name":"Darovskoy","latitude":"58.76999000","longitude":"47.95642000"},{"name":"Dem’yanovo","latitude":"60.35111000","longitude":"47.08417000"},{"name":"Dubrovka","latitude":"59.22866000","longitude":"51.15578000"},{"name":"Falënki","latitude":"58.36127000","longitude":"51.59461000"},{"name":"Falënskiy Rayon","latitude":"58.33333000","longitude":"51.58333000"},{"name":"Kiknur","latitude":"57.30341000","longitude":"47.20105000"},{"name":"Kiknurskiy Rayon","latitude":"57.33333000","longitude":"47.16667000"},{"name":"Kil’mez’","latitude":"56.94389000","longitude":"51.06500000"},{"name":"Kirov","latitude":"58.59665000","longitude":"49.66007000"},{"name":"Kirovo-Chepetsk","latitude":"58.55386000","longitude":"50.03986000"},{"name":"Kirovo-Chepetskiy Rayon","latitude":"58.50000000","longitude":"50.00000000"},{"name":"Kirs","latitude":"59.33882000","longitude":"52.24467000"},{"name":"Kosino","latitude":"58.41272000","longitude":"51.27819000"},{"name":"Kostino","latitude":"58.90966000","longitude":"53.26907000"},{"name":"Kotel’nich","latitude":"58.30890000","longitude":"48.34800000"},{"name":"Krasnaya Polyana","latitude":"56.24204000","longitude":"51.14425000"},{"name":"Kumëny","latitude":"58.10887000","longitude":"49.91614000"},{"name":"Lal’sk","latitude":"60.74146000","longitude":"47.58617000"},{"name":"Leninskoye","latitude":"58.31637000","longitude":"47.08856000"},{"name":"Lesnoy","latitude":"59.78100000","longitude":"52.12838000"},{"name":"Lesnyye Polyany","latitude":"59.00314000","longitude":"52.41802000"},{"name":"Luza","latitude":"60.63081000","longitude":"47.25118000"},{"name":"Luzskiy Rayon","latitude":"60.58333000","longitude":"47.25000000"},{"name":"Lyangasovo","latitude":"58.51759000","longitude":"49.44718000"},{"name":"Malmyzh","latitude":"56.52050000","longitude":"50.68180000"},{"name":"Malmyzhskiy Rayon","latitude":"56.58333000","longitude":"50.91667000"},{"name":"Maromitsa","latitude":"59.86828000","longitude":"48.01227000"},{"name":"Medvedok","latitude":"57.38913000","longitude":"50.03510000"},{"name":"Mirnyy","latitude":"58.49333000","longitude":"47.65389000"},{"name":"Murashi","latitude":"59.39990000","longitude":"48.96150000"},{"name":"Murashinskiy Rayon","latitude":"59.33333000","longitude":"48.75000000"},{"name":"Murygino","latitude":"58.73831000","longitude":"49.45822000"},{"name":"Nagorsk","latitude":"59.31722000","longitude":"50.80778000"},{"name":"Nagorskiy Rayon","latitude":"59.50000000","longitude":"50.83333000"},{"name":"Nema","latitude":"57.50675000","longitude":"50.50115000"},{"name":"Nemskiy Rayon","latitude":"57.50000000","longitude":"50.66667000"},{"name":"Nizhneivkino","latitude":"58.19398000","longitude":"49.52137000"},{"name":"Nolinsk","latitude":"57.55962000","longitude":"49.93629000"},{"name":"Nolinskiy Rayon","latitude":"57.58333000","longitude":"49.91667000"},{"name":"Omutninsk","latitude":"58.67001000","longitude":"52.19320000"},{"name":"Oparino","latitude":"59.85179000","longitude":"48.27826000"},{"name":"Orichevskiy Rayon","latitude":"58.25000000","longitude":"48.75000000"},{"name":"Orichi","latitude":"58.40356000","longitude":"49.05719000"},{"name":"Orlov","latitude":"58.53946000","longitude":"48.89173000"},{"name":"Orlovskiy Rayon","latitude":"58.66306000","longitude":"48.74222000"},{"name":"Pasegovo","latitude":"58.50602000","longitude":"49.51383000"},{"name":"Peskovka","latitude":"59.04478000","longitude":"52.36057000"},{"name":"Pinyug","latitude":"60.25095000","longitude":"47.78425000"},{"name":"Pizhanka","latitude":"57.46042000","longitude":"48.54200000"},{"name":"Pizhanskiy Rayon","latitude":"57.41667000","longitude":"48.50000000"},{"name":"Podosinovets","latitude":"60.27758000","longitude":"47.06587000"},{"name":"Podosinovskiy Rayon","latitude":"60.16667000","longitude":"47.33333000"},{"name":"Raduzhnyy","latitude":"58.49899000","longitude":"49.64347000"},{"name":"Rudnichnyy","latitude":"59.61702000","longitude":"52.47033000"},{"name":"Sanchursk","latitude":"56.94125000","longitude":"47.24987000"},{"name":"Sanchurskiy Rayon","latitude":"57.00000000","longitude":"47.33333000"},{"name":"Shabalinskiy Rayon","latitude":"58.33333000","longitude":"46.91667000"},{"name":"Slobodskoy","latitude":"58.73222000","longitude":"50.17722000"},{"name":"Slobodskoy Rayon","latitude":"58.75000000","longitude":"50.25000000"},{"name":"Sosnovka","latitude":"56.25496000","longitude":"51.28419000"},{"name":"Sovetsk","latitude":"57.58475000","longitude":"48.95844000"},{"name":"Sovetskiy Rayon","latitude":"57.58333000","longitude":"49.00000000"},{"name":"Sozimskiy","latitude":"59.74178000","longitude":"52.24821000"},{"name":"Strizhi","latitude":"58.45758000","longitude":"49.28667000"},{"name":"Stulovo","latitude":"58.72250000","longitude":"50.14389000"},{"name":"Suna","latitude":"57.83379000","longitude":"50.05884000"},{"name":"Sunskiy Rayon","latitude":"57.83333000","longitude":"50.00000000"},{"name":"Svecha","latitude":"58.27849000","longitude":"47.51636000"},{"name":"Svetlopolyansk","latitude":"59.41836000","longitude":"52.36045000"},{"name":"Torfyanoy","latitude":"58.49160000","longitude":"49.19786000"},{"name":"Tuzha","latitude":"57.60615000","longitude":"47.93597000"},{"name":"Uni","latitude":"57.75100000","longitude":"51.49130000"},{"name":"Uninskiy Rayon","latitude":"57.66667000","longitude":"51.50000000"},{"name":"Urzhum","latitude":"57.11412000","longitude":"49.99956000"},{"name":"Vakhrushi","latitude":"58.68472000","longitude":"50.02611000"},{"name":"Verkhoshizhem’ye","latitude":"58.01097000","longitude":"49.10384000"},{"name":"Vostochnyy","latitude":"58.78811000","longitude":"52.24513000"},{"name":"Vyatskiye Polyany","latitude":"56.22602000","longitude":"51.06557000"},{"name":"Yaransk","latitude":"57.30331000","longitude":"47.88611000"},{"name":"Yaranskiy Rayon","latitude":"57.16667000","longitude":"48.00000000"},{"name":"Yur’yanskiy Rayon","latitude":"59.00000000","longitude":"49.25000000"},{"name":"Zuyevka","latitude":"58.40503000","longitude":"51.13355000"}]