[{"name":"Al Kittah","latitude":"32.27685000","longitude":"35.84114000"},{"name":"Balīlā","latitude":"32.39109000","longitude":"35.93832000"},{"name":"Burmā","latitude":"32.21930000","longitude":"35.78507000"},{"name":"Jarash","latitude":"32.28082000","longitude":"35.89929000"},{"name":"Qafqafā","latitude":"32.34851000","longitude":"35.93864000"},{"name":"Raymūn","latitude":"32.28202000","longitude":"35.82779000"},{"name":"Sakib","latitude":"32.28431000","longitude":"35.80909000"},{"name":"Sūf","latitude":"32.31372000","longitude":"35.83713000"}]