[{"name":"Dishnā","latitude":"26.12467000","longitude":"32.47598000"},{"name":"Farshūţ","latitude":"26.05494000","longitude":"32.16329000"},{"name":"Isnā","latitude":"25.29336000","longitude":"32.55402000"},{"name":"Kousa","latitude":"25.91407000","longitude":"32.76362000"},{"name":"Naja' Ḥammādī","latitude":"26.04949000","longitude":"32.24142000"},{"name":"Qinā","latitude":"26.16418000","longitude":"32.72671000"}]