[{"name":"Benkovac","latitude":"44.03444000","longitude":"15.61278000"},{"name":"Bibinje","latitude":"44.07324000","longitude":"15.28288000"},{"name":"Biograd na Moru","latitude":"43.94333000","longitude":"15.45194000"},{"name":"Galovac","latitude":"44.07139000","longitude":"15.39333000"},{"name":"Gornji Karin","latitude":"44.13598000","longitude":"15.63423000"},{"name":"Grad Biograd na Moru","latitude":"43.93333000","longitude":"15.43333000"},{"name":"Gračac","latitude":"44.29916000","longitude":"15.84752000"},{"name":"Jasenice","latitude":"44.22969000","longitude":"15.57514000"},{"name":"Kali","latitude":"44.06278000","longitude":"15.20556000"},{"name":"Kruševo","latitude":"44.18333000","longitude":"15.65000000"},{"name":"Nin","latitude":"44.24139000","longitude":"15.17833000"},{"name":"Novigrad Općina","latitude":"44.19417000","longitude":"15.55667000"},{"name":"Obrovac","latitude":"44.20056000","longitude":"15.68222000"},{"name":"Osljak","latitude":"44.07667000","longitude":"15.20722000"},{"name":"Pag","latitude":"44.44500000","longitude":"15.05750000"},{"name":"Pakoštane","latitude":"43.91222000","longitude":"15.50889000"},{"name":"Polača","latitude":"44.01833000","longitude":"15.51750000"},{"name":"Poličnik","latitude":"44.17806000","longitude":"15.37556000"},{"name":"Posedarje","latitude":"44.21361000","longitude":"15.47667000"},{"name":"Preko","latitude":"44.08111000","longitude":"15.18750000"},{"name":"Pridraga","latitude":"44.16667000","longitude":"15.56667000"},{"name":"Privlaka","latitude":"44.26667000","longitude":"15.13333000"},{"name":"Ražanac","latitude":"44.28194000","longitude":"15.34806000"},{"name":"Sali","latitude":"43.93972000","longitude":"15.16333000"},{"name":"Stari Grad","latitude":"44.43000000","longitude":"15.06222000"},{"name":"Starigrad","latitude":"44.29601000","longitude":"15.43865000"},{"name":"Sukošan","latitude":"44.04696000","longitude":"15.31391000"},{"name":"Sveti Filip i Jakov","latitude":"43.96472000","longitude":"15.43000000"},{"name":"Tkon","latitude":"43.91996000","longitude":"15.41639000"},{"name":"Turanj","latitude":"43.97111000","longitude":"15.41139000"},{"name":"Ugljan","latitude":"44.13083000","longitude":"15.10306000"},{"name":"Vir","latitude":"44.29995000","longitude":"15.08663000"},{"name":"Vrsi","latitude":"44.26472000","longitude":"15.23250000"},{"name":"Zadar","latitude":"44.11972000","longitude":"15.24222000"},{"name":"Škabrnja","latitude":"44.08949000","longitude":"15.45146000"}]