[{"name":"Adamov","latitude":"49.30162000","longitude":"16.65253000"},{"name":"Blansko","latitude":"49.36304000","longitude":"16.64446000"},{"name":"Blažovice","latitude":"49.16569000","longitude":"16.78611000"},{"name":"Blučina","latitude":"49.05497000","longitude":"16.64450000"},{"name":"Blížkovice","latitude":"48.99976000","longitude":"15.83482000"},{"name":"Boskovice","latitude":"49.48751000","longitude":"16.65997000"},{"name":"Bořetice","latitude":"48.91302000","longitude":"16.85306000"},{"name":"Bořitov","latitude":"49.42504000","longitude":"16.59119000"},{"name":"Bošovice","latitude":"49.05351000","longitude":"16.83676000"},{"name":"Božice","latitude":"48.83687000","longitude":"16.28875000"},{"name":"Brno","latitude":"49.19522000","longitude":"16.60796000"},{"name":"Bučovice","latitude":"49.14896000","longitude":"17.00191000"},{"name":"Bzenec","latitude":"48.97336000","longitude":"17.26685000"},{"name":"Bílovice nad Svitavou","latitude":"49.24708000","longitude":"16.67247000"},{"name":"Břeclav","latitude":"48.75897000","longitude":"16.88203000"},{"name":"Březí","latitude":"48.81928000","longitude":"16.56748000"},{"name":"Dambořice","latitude":"49.03828000","longitude":"16.91757000"},{"name":"Dobšice","latitude":"48.84834000","longitude":"16.08218000"},{"name":"Dolní Bojanovice","latitude":"48.85861000","longitude":"17.02859000"},{"name":"Dolní Dunajovice","latitude":"48.85447000","longitude":"16.59283000"},{"name":"Dolní Kounice","latitude":"49.07011000","longitude":"16.46492000"},{"name":"Dolní Loućky","latitude":"49.36099000","longitude":"16.35871000"},{"name":"Domanín","latitude":"49.00167000","longitude":"17.28476000"},{"name":"Doubravice nad Svitavou","latitude":"49.43664000","longitude":"16.62937000"},{"name":"Drnholec","latitude":"48.85746000","longitude":"16.48586000"},{"name":"Drnovice","latitude":"49.27630000","longitude":"16.95146000"},{"name":"Drásov","latitude":"49.33183000","longitude":"16.47798000"},{"name":"Dubňany","latitude":"48.91694000","longitude":"17.09004000"},{"name":"Hevlín","latitude":"48.75209000","longitude":"16.38131000"},{"name":"Hlohovec","latitude":"48.77399000","longitude":"16.76230000"},{"name":"Hodonice","latitude":"48.83680000","longitude":"16.16337000"},{"name":"Hodonín","latitude":"48.84893000","longitude":"17.13244000"},{"name":"Hostěradice","latitude":"48.95006000","longitude":"16.25931000"},{"name":"Hovorany","latitude":"48.95493000","longitude":"16.99346000"},{"name":"Hroznová Lhota","latitude":"48.90784000","longitude":"17.41697000"},{"name":"Hrušky","latitude":"48.79272000","longitude":"16.97404000"},{"name":"Hrušovany nad Jevišovkou","latitude":"48.82991000","longitude":"16.40271000"},{"name":"Hrušovany u Brna","latitude":"49.03863000","longitude":"16.59429000"},{"name":"Hustopeče","latitude":"48.94085000","longitude":"16.73762000"},{"name":"Ivanovice na Hané","latitude":"49.30542000","longitude":"17.09343000"},{"name":"Ivančice","latitude":"49.10144000","longitude":"16.37752000"},{"name":"Jaroslavice","latitude":"48.75657000","longitude":"16.23351000"},{"name":"Jedovnice","latitude":"49.34453000","longitude":"16.75595000"},{"name":"Jevišovice","latitude":"48.98736000","longitude":"15.98992000"},{"name":"Klobouky","latitude":"48.99609000","longitude":"16.86298000"},{"name":"Kněždub","latitude":"48.88666000","longitude":"17.39546000"},{"name":"Kobylí","latitude":"48.93286000","longitude":"16.89159000"},{"name":"Kostice","latitude":"48.74685000","longitude":"16.97869000"},{"name":"Krumvíř","latitude":"48.98901000","longitude":"16.91027000"},{"name":"Kunštát","latitude":"49.50645000","longitude":"16.51722000"},{"name":"Kuřim","latitude":"49.29852000","longitude":"16.53144000"},{"name":"Kyjov","latitude":"49.01018000","longitude":"17.12253000"},{"name":"Křenovice","latitude":"49.14216000","longitude":"16.82932000"},{"name":"Křepice","latitude":"48.99986000","longitude":"16.71989000"},{"name":"Lanžhot","latitude":"48.72443000","longitude":"16.96695000"},{"name":"Lednice","latitude":"48.79992000","longitude":"16.80339000"},{"name":"Lelekovice","latitude":"49.29144000","longitude":"16.57874000"},{"name":"Letonice","latitude":"49.17726000","longitude":"16.95913000"},{"name":"Letovice","latitude":"49.54709000","longitude":"16.57357000"},{"name":"Lipov","latitude":"48.90495000","longitude":"17.46171000"},{"name":"Lipovec","latitude":"49.38394000","longitude":"16.80583000"},{"name":"Lipůvka","latitude":"49.33933000","longitude":"16.55313000"},{"name":"Lomnice","latitude":"49.40462000","longitude":"16.41359000"},{"name":"Louka","latitude":"48.91517000","longitude":"17.48927000"},{"name":"Lužice","latitude":"48.84098000","longitude":"17.07104000"},{"name":"Lysice","latitude":"49.45160000","longitude":"16.53716000"},{"name":"Mikulov","latitude":"48.80556000","longitude":"16.63780000"},{"name":"Mikulčice","latitude":"48.81643000","longitude":"17.05107000"},{"name":"Milotice","latitude":"48.95528000","longitude":"17.14241000"},{"name":"Miroslav","latitude":"48.94767000","longitude":"16.31252000"},{"name":"Modřice","latitude":"49.11928000","longitude":"16.60446000"},{"name":"Mokrá Hora","latitude":"49.26176000","longitude":"16.59107000"},{"name":"Moravany","latitude":"49.14780000","longitude":"16.58026000"},{"name":"Moravská Nová Ves","latitude":"48.80304000","longitude":"17.01371000"},{"name":"Moravský Krumlov","latitude":"49.04893000","longitude":"16.31169000"},{"name":"Moravský Písek","latitude":"48.99016000","longitude":"17.33269000"},{"name":"Moravský Žižkov","latitude":"48.83285000","longitude":"16.93140000"},{"name":"Moutnice","latitude":"49.04924000","longitude":"16.73741000"},{"name":"Mutěnice","latitude":"48.90413000","longitude":"17.02917000"},{"name":"Měnín","latitude":"49.08240000","longitude":"16.69424000"},{"name":"Město Brno","latitude":"49.19954000","longitude":"16.60755000"},{"name":"Nedvědice","latitude":"49.45702000","longitude":"16.33406000"},{"name":"Nesovice","latitude":"49.15111000","longitude":"17.08095000"},{"name":"Nosislav","latitude":"49.01380000","longitude":"16.65431000"},{"name":"Novosedly","latitude":"48.83704000","longitude":"16.49273000"},{"name":"Okres Blansko","latitude":"49.37399000","longitude":"16.64360000"},{"name":"Okres Brno-venkov","latitude":"49.16667000","longitude":"16.50000000"},{"name":"Okres Břeclav","latitude":"48.75958000","longitude":"16.87260000"},{"name":"Okres Hodonín","latitude":"48.86471000","longitude":"17.13284000"},{"name":"Okres Vyškov","latitude":"49.27844000","longitude":"16.99362000"},{"name":"Okres Znojmo","latitude":"48.86200000","longitude":"16.06270000"},{"name":"Olbramovice","latitude":"48.98480000","longitude":"16.40239000"},{"name":"Olešnice","latitude":"49.55755000","longitude":"16.42169000"},{"name":"Oslavany","latitude":"49.12335000","longitude":"16.33653000"},{"name":"Ostopovice","latitude":"49.16100000","longitude":"16.54548000"},{"name":"Ostrov u Macochy","latitude":"49.38236000","longitude":"16.76268000"},{"name":"Otnice","latitude":"49.08642000","longitude":"16.81443000"},{"name":"Ořechov","latitude":"49.11118000","longitude":"16.52329000"},{"name":"Petrov","latitude":"48.88196000","longitude":"17.27810000"},{"name":"Podivín","latitude":"48.82554000","longitude":"16.84822000"},{"name":"Podolí","latitude":"49.19042000","longitude":"16.72084000"},{"name":"Pohořelice","latitude":"48.98119000","longitude":"16.52445000"},{"name":"Pozořice","latitude":"49.20976000","longitude":"16.79074000"},{"name":"Prušánky","latitude":"48.82840000","longitude":"16.98068000"},{"name":"Pustiměř","latitude":"49.32251000","longitude":"17.02792000"},{"name":"Předklášteří","latitude":"49.35253000","longitude":"16.40241000"},{"name":"Rajhrad","latitude":"49.09021000","longitude":"16.60388000"},{"name":"Rajhradice","latitude":"49.09203000","longitude":"16.62933000"},{"name":"Rakvice","latitude":"48.85811000","longitude":"16.81330000"},{"name":"Ratíškovice","latitude":"48.92002000","longitude":"17.16561000"},{"name":"Rohatec","latitude":"48.88040000","longitude":"17.18330000"},{"name":"Rosice","latitude":"49.18232000","longitude":"16.38787000"},{"name":"Rousínov","latitude":"49.20128000","longitude":"16.88215000"},{"name":"Rájec-Jestřebí","latitude":"49.41094000","longitude":"16.63902000"},{"name":"Ráječko","latitude":"49.39393000","longitude":"16.64497000"},{"name":"Slavkov u Brna","latitude":"49.15325000","longitude":"16.87649000"},{"name":"Sokolnice","latitude":"49.11392000","longitude":"16.72156000"},{"name":"Strážnice","latitude":"48.90102000","longitude":"17.31680000"},{"name":"Střelice","latitude":"49.15221000","longitude":"16.50399000"},{"name":"Suchohrdly","latitude":"48.86822000","longitude":"16.09471000"},{"name":"Sudoměřice","latitude":"48.86723000","longitude":"17.25676000"},{"name":"Svitávka","latitude":"49.50178000","longitude":"16.59793000"},{"name":"Tasovice","latitude":"48.83610000","longitude":"16.15558000"},{"name":"Telnice","latitude":"49.10187000","longitude":"16.71774000"},{"name":"Tišnov","latitude":"49.34872000","longitude":"16.42438000"},{"name":"Troubsko","latitude":"49.16951000","longitude":"16.51078000"},{"name":"Tvarožná","latitude":"49.19177000","longitude":"16.77146000"},{"name":"Tvrdonice","latitude":"48.76048000","longitude":"16.99446000"},{"name":"Týnec","latitude":"48.77943000","longitude":"17.01322000"},{"name":"Těšany","latitude":"49.03956000","longitude":"16.77003000"},{"name":"Vacenovice","latitude":"48.94510000","longitude":"17.17404000"},{"name":"Valtice","latitude":"48.74069000","longitude":"16.75499000"},{"name":"Velká nad Veličkou","latitude":"48.88257000","longitude":"17.52060000"},{"name":"Velké Bílovice","latitude":"48.84929000","longitude":"16.89227000"},{"name":"Velké Němčice","latitude":"48.99168000","longitude":"16.67208000"},{"name":"Velké Opatovice","latitude":"49.61237000","longitude":"16.67947000"},{"name":"Velké Pavlovice","latitude":"48.90469000","longitude":"16.81605000"},{"name":"Veselí nad Moravou","latitude":"48.95363000","longitude":"17.37648000"},{"name":"Veverská Bítýška","latitude":"49.27591000","longitude":"16.43686000"},{"name":"Viničné Šumice","latitude":"49.21358000","longitude":"16.82541000"},{"name":"Višňové","latitude":"48.98241000","longitude":"16.15025000"},{"name":"Vlkoš","latitude":"48.98960000","longitude":"17.16356000"},{"name":"Vnorovy","latitude":"48.93096000","longitude":"17.35050000"},{"name":"Vojkovice","latitude":"49.05138000","longitude":"16.60820000"},{"name":"Vracov","latitude":"48.97523000","longitude":"17.21100000"},{"name":"Vranovice","latitude":"48.96600000","longitude":"16.60660000"},{"name":"Vrbice","latitude":"48.91508000","longitude":"16.89779000"},{"name":"Vrbovec","latitude":"48.79978000","longitude":"16.10061000"},{"name":"Vyškov","latitude":"49.27747000","longitude":"16.99897000"},{"name":"Zaječí","latitude":"48.87295000","longitude":"16.76646000"},{"name":"Zastávka","latitude":"49.18800000","longitude":"16.36310000"},{"name":"Zbraslav","latitude":"49.22155000","longitude":"16.29415000"},{"name":"Zbýšov","latitude":"49.15524000","longitude":"16.34951000"},{"name":"Znojmo","latitude":"48.85550000","longitude":"16.04880000"},{"name":"Únanov","latitude":"48.90082000","longitude":"16.06351000"},{"name":"Čebín","latitude":"49.31324000","longitude":"16.47791000"},{"name":"Čejkovice","latitude":"48.90592000","longitude":"16.94230000"},{"name":"Čejč","latitude":"48.94653000","longitude":"16.96511000"},{"name":"Černá Hora","latitude":"49.41361000","longitude":"16.58140000"},{"name":"Říčany","latitude":"49.21497000","longitude":"16.39362000"},{"name":"Šakvice","latitude":"48.89746000","longitude":"16.71424000"},{"name":"Šanov","latitude":"48.80089000","longitude":"16.37858000"},{"name":"Šardice","latitude":"48.96403000","longitude":"17.02812000"},{"name":"Šatov","latitude":"48.79317000","longitude":"16.00992000"},{"name":"Šitbořice","latitude":"49.01433000","longitude":"16.77975000"},{"name":"Šlapanice","latitude":"49.16863000","longitude":"16.72731000"},{"name":"Žabčice","latitude":"49.01160000","longitude":"16.60257000"},{"name":"Ždánice","latitude":"49.06729000","longitude":"17.02751000"},{"name":"Želešice","latitude":"49.11689000","longitude":"16.58137000"},{"name":"Žeravice","latitude":"49.02288000","longitude":"17.23726000"},{"name":"Židlochovice","latitude":"49.03952000","longitude":"16.61881000"}]