[{"name":"Afa","latitude":"41.98396000","longitude":"8.79833000"},{"name":"Ajaccio","latitude":"41.91886000","longitude":"8.73812000"},{"name":"Alata","latitude":"41.97636000","longitude":"8.74208000"},{"name":"Albitreccia","latitude":"41.86301000","longitude":"8.94262000"},{"name":"Aléria","latitude":"42.10431000","longitude":"9.51265000"},{"name":"Appietto","latitude":"42.01426000","longitude":"8.76855000"},{"name":"Bastia","latitude":"42.70278000","longitude":"9.45000000"},{"name":"Biguglia","latitude":"42.62692000","longitude":"9.42018000"},{"name":"Bonifacio","latitude":"41.38740000","longitude":"9.15941000"},{"name":"Borgo","latitude":"42.55488000","longitude":"9.42636000"},{"name":"Brando","latitude":"42.76667000","longitude":"9.45000000"},{"name":"Calenzana","latitude":"42.50855000","longitude":"8.85538000"},{"name":"Calvi","latitude":"42.56604000","longitude":"8.75713000"},{"name":"Cargèse","latitude":"42.13629000","longitude":"8.59586000"},{"name":"Cauro","latitude":"41.91756000","longitude":"8.91480000"},{"name":"Cervione","latitude":"42.32835000","longitude":"9.49343000"},{"name":"Corte","latitude":"42.30956000","longitude":"9.14917000"},{"name":"Cuttoli-Corticchiato","latitude":"41.98333000","longitude":"8.91667000"},{"name":"Département de la Corse-du-Sud","latitude":"41.91667000","longitude":"9.16667000"},{"name":"Département de la Haute-Corse","latitude":"42.41667000","longitude":"9.16667000"},{"name":"Figari","latitude":"41.48792000","longitude":"9.13013000"},{"name":"Furiani","latitude":"42.65847000","longitude":"9.41446000"},{"name":"Ghisonaccia","latitude":"42.01582000","longitude":"9.40507000"},{"name":"Grosseto-Prugna","latitude":"41.87097000","longitude":"8.96403000"},{"name":"L'Île-Rousse","latitude":"42.63371000","longitude":"8.93764000"},{"name":"Linguizzetta","latitude":"42.26384000","longitude":"9.47297000"},{"name":"Lucciana","latitude":"42.54609000","longitude":"9.41865000"},{"name":"Lumio","latitude":"42.57894000","longitude":"8.83373000"},{"name":"Monticello","latitude":"42.61705000","longitude":"8.95477000"},{"name":"Morosaglia","latitude":"42.43511000","longitude":"9.30009000"},{"name":"Oletta","latitude":"42.62991000","longitude":"9.35431000"},{"name":"Olmeto","latitude":"41.71724000","longitude":"8.91783000"},{"name":"Penta-di-Casinca","latitude":"42.46579000","longitude":"9.45884000"},{"name":"Peri","latitude":"42.00345000","longitude":"8.92066000"},{"name":"Pietranera","latitude":"42.72338000","longitude":"9.45621000"},{"name":"Pietrosella","latitude":"41.83576000","longitude":"8.84573000"},{"name":"Porto-Vecchio","latitude":"41.59101000","longitude":"9.27947000"},{"name":"Propriano","latitude":"41.67590000","longitude":"8.90412000"},{"name":"Prunelli-di-Fiumorbo","latitude":"42.01047000","longitude":"9.32473000"},{"name":"Saint-Florent","latitude":"42.68150000","longitude":"9.30396000"},{"name":"San-Martino-di-Lota","latitude":"42.73163000","longitude":"9.43966000"},{"name":"San-Nicolao","latitude":"42.36993000","longitude":"9.51443000"},{"name":"Santa-Lucia-di-Moriani","latitude":"42.38212000","longitude":"9.52242000"},{"name":"Santa-Maria-di-Lota","latitude":"42.74783000","longitude":"9.43202000"},{"name":"Sari-Solenzara","latitude":"41.83519000","longitude":"9.37470000"},{"name":"Sarrola","latitude":"42.02828000","longitude":"8.84241000"},{"name":"Sartène","latitude":"41.61667000","longitude":"8.98333000"},{"name":"Sisco","latitude":"42.80000000","longitude":"9.43333000"},{"name":"Ventiseri","latitude":"41.94356000","longitude":"9.33342000"},{"name":"Vescovato","latitude":"42.49293000","longitude":"9.43934000"},{"name":"Zonza","latitude":"41.74934000","longitude":"9.17082000"}]