[{"name":"Al  Hawtah","latitude":"13.06240000","longitude":"44.88160000"},{"name":"Al Had","latitude":"13.97830000","longitude":"45.25530000"},{"name":"Al Madaribah Wa Al Arah","latitude":"12.85690000","longitude":"43.99060000"},{"name":"Al Maflahy","latitude":"13.77670000","longitude":"45.10880000"},{"name":"Al Maqatirah","latitude":"13.13720000","longitude":"44.14040000"},{"name":"Al Milah","latitude":"13.32020000","longitude":"44.92670000"},{"name":"Al Musaymir","latitude":"13.42910000","longitude":"44.59140000"},{"name":"Al Qabbaytah","latitude":"13.32750000","longitude":"44.50250000"},{"name":"Al Ḩabīlayn","latitude":"13.52002000","longitude":"44.85076000"},{"name":"Habil Jabr","latitude":"13.59210000","longitude":"45.07370000"},{"name":"Halimayn","latitude":"13.70880000","longitude":"44.94430000"},{"name":"Laḩij","latitude":"13.05667000","longitude":"44.88194000"},{"name":"Radfan","latitude":"13.46670000","longitude":"44.99000000"},{"name":"Tuban","latitude":"13.09210000","longitude":"44.87840000"},{"name":"Tur Al Bahah","latitude":"13.04269000","longitude":"44.41154000"},{"name":"Yafa'a","latitude":"13.86200000","longitude":"45.20140000"},{"name":"Yahr","latitude":"13.72270000","longitude":"45.13050000"}]