[{"name":"Añatuya","latitude":"-28.46064000","longitude":"-62.83472000"},{"name":"Beltrán","latitude":"-27.82913000","longitude":"-64.06098000"},{"name":"Campo Gallo","latitude":"-26.58333000","longitude":"-62.85000000"},{"name":"Clodomira","latitude":"-27.57440000","longitude":"-64.13108000"},{"name":"Colonia Dora","latitude":"-28.60000000","longitude":"-62.95000000"},{"name":"Departamento de Aguirre","latitude":"-29.33333000","longitude":"-62.50000000"},{"name":"Departamento de Banda","latitude":"-27.50000000","longitude":"-64.33333000"},{"name":"Departamento de Choya","latitude":"-28.75000000","longitude":"-64.75000000"},{"name":"Departamento de Guasayán","latitude":"-28.00000000","longitude":"-64.83333000"},{"name":"Departamento de Loreto","latitude":"-28.55000000","longitude":"-64.33333000"},{"name":"Departamento de Moreno","latitude":"-27.33333000","longitude":"-62.50000000"},{"name":"Departamento de Robles","latitude":"-27.83333000","longitude":"-63.91667000"},{"name":"Departamento de Río Hondo","latitude":"-27.58333000","longitude":"-64.75000000"},{"name":"Departamento de San Martín","latitude":"-28.16667000","longitude":"-63.83333000"},{"name":"Departamento de Sarmiento","latitude":"-28.08333000","longitude":"-63.41667000"},{"name":"El Hoyo","latitude":"-27.02872000","longitude":"-63.23197000"},{"name":"La Banda","latitude":"-27.73348000","longitude":"-64.24278000"},{"name":"Los Juríes","latitude":"-28.46539000","longitude":"-62.10862000"},{"name":"Los Telares","latitude":"-28.98479000","longitude":"-63.44889000"},{"name":"Pampa de los Guanacos","latitude":"-26.23002000","longitude":"-61.83774000"},{"name":"Quimilí","latitude":"-27.64615000","longitude":"-62.41655000"},{"name":"San Pedro","latitude":"-27.95386000","longitude":"-65.16651000"},{"name":"Santiago del Estero","latitude":"-27.79511000","longitude":"-64.26149000"},{"name":"Sumampa","latitude":"-29.38470000","longitude":"-63.46907000"},{"name":"Suncho Corral","latitude":"-27.93357000","longitude":"-63.42938000"},{"name":"Termas de Río Hondo","latitude":"-27.49362000","longitude":"-64.85972000"},{"name":"Tintina","latitude":"-27.02687000","longitude":"-62.70643000"},{"name":"Villa Atamisqui","latitude":"-28.49609000","longitude":"-63.81609000"},{"name":"Villa General Mitre","latitude":"-29.14310000","longitude":"-62.65248000"},{"name":"Villa Ojo de Agua","latitude":"-29.50003000","longitude":"-63.69377000"}]