[{"name":"Abbotsford","latitude":"44.94636000","longitude":"-90.31597000"},{"name":"Adams","latitude":"43.95608000","longitude":"-89.81818000"},{"name":"Adams County","latitude":"43.96963000","longitude":"-89.77064000"},{"name":"Addison","latitude":"43.42278000","longitude":"-88.37454000"},{"name":"Albany","latitude":"42.70778000","longitude":"-89.43706000"},{"name":"Algoma","latitude":"44.60889000","longitude":"-87.43259000"},{"name":"Allouez","latitude":"44.47749000","longitude":"-88.01621000"},{"name":"Alma","latitude":"44.31997000","longitude":"-91.91488000"},{"name":"Alto","latitude":"43.67665000","longitude":"-88.79511000"},{"name":"Altoona","latitude":"44.80468000","longitude":"-91.44321000"},{"name":"Amery","latitude":"45.30691000","longitude":"-92.36214000"},{"name":"Amherst","latitude":"44.45081000","longitude":"-89.28484000"},{"name":"Antigo","latitude":"45.14025000","longitude":"-89.15234000"},{"name":"Appleton","latitude":"44.26193000","longitude":"-88.41538000"},{"name":"Arcadia","latitude":"44.25274000","longitude":"-91.50154000"},{"name":"Ashford","latitude":"43.58694000","longitude":"-88.37066000"},{"name":"Ashland","latitude":"46.59244000","longitude":"-90.88380000"},{"name":"Ashland County","latitude":"46.50974000","longitude":"-90.71960000"},{"name":"Ashwaubenon","latitude":"44.48221000","longitude":"-88.07010000"},{"name":"Athens","latitude":"45.03302000","longitude":"-90.07402000"},{"name":"Augusta","latitude":"44.68024000","longitude":"-91.11988000"},{"name":"Aztalan","latitude":"43.07278000","longitude":"-88.86233000"},{"name":"Baldwin","latitude":"44.96663000","longitude":"-92.37436000"},{"name":"Balsam Lake","latitude":"45.45218000","longitude":"-92.45464000"},{"name":"Bangor","latitude":"43.89302000","longitude":"-90.99041000"},{"name":"Baraboo","latitude":"43.47109000","longitude":"-89.74429000"},{"name":"Barneveld","latitude":"43.01555000","longitude":"-89.89540000"},{"name":"Barron","latitude":"45.40135000","longitude":"-91.84906000"},{"name":"Barron County","latitude":"45.42372000","longitude":"-91.84831000"},{"name":"Barton","latitude":"43.44361000","longitude":"-88.18065000"},{"name":"Bayfield County","latitude":"46.63544000","longitude":"-91.18068000"},{"name":"Bayside","latitude":"43.18056000","longitude":"-87.90064000"},{"name":"Beaver Dam","latitude":"43.45777000","longitude":"-88.83733000"},{"name":"Belgium","latitude":"43.49972000","longitude":"-87.85037000"},{"name":"Belle Plaine","latitude":"44.71526000","longitude":"-88.66621000"},{"name":"Belleville","latitude":"42.85972000","longitude":"-89.53818000"},{"name":"Bellevue","latitude":"44.44416000","longitude":"-87.92010000"},{"name":"Beloit","latitude":"42.50835000","longitude":"-89.03178000"},{"name":"Berlin","latitude":"43.96804000","longitude":"-88.94345000"},{"name":"Bevent","latitude":"44.77053000","longitude":"-89.38956000"},{"name":"Big Bend","latitude":"42.88140000","longitude":"-88.20676000"},{"name":"Black Creek","latitude":"44.47749000","longitude":"-88.45066000"},{"name":"Black Earth","latitude":"43.13722000","longitude":"-89.74679000"},{"name":"Black River Falls","latitude":"44.29468000","longitude":"-90.85153000"},{"name":"Blair","latitude":"44.29440000","longitude":"-91.23516000"},{"name":"Bloomer","latitude":"45.10024000","longitude":"-91.48877000"},{"name":"Bohners Lake","latitude":"42.62307000","longitude":"-88.28037000"},{"name":"Bonduel","latitude":"44.74027000","longitude":"-88.44482000"},{"name":"Boscobel","latitude":"43.13443000","longitude":"-90.70540000"},{"name":"Boyceville","latitude":"45.04357000","longitude":"-92.04101000"},{"name":"Brice Prairie","latitude":"43.93857000","longitude":"-91.29986000"},{"name":"Brillion","latitude":"44.17721000","longitude":"-88.06427000"},{"name":"Bristol","latitude":"42.55891000","longitude":"-88.04925000"},{"name":"Brodhead","latitude":"42.61834000","longitude":"-89.37623000"},{"name":"Brookfield","latitude":"43.06057000","longitude":"-88.10648000"},{"name":"Brooklyn","latitude":"42.85361000","longitude":"-89.37040000"},{"name":"Brothertown","latitude":"43.96805000","longitude":"-88.30899000"},{"name":"Brown County","latitude":"44.47433000","longitude":"-87.99287000"},{"name":"Brown Deer","latitude":"43.16334000","longitude":"-87.96453000"},{"name":"Browns Lake","latitude":"42.69252000","longitude":"-88.23120000"},{"name":"Brussels","latitude":"44.73611000","longitude":"-87.62093000"},{"name":"Buffalo County","latitude":"44.37983000","longitude":"-91.75447000"},{"name":"Burlington","latitude":"42.67807000","longitude":"-88.27620000"},{"name":"Burnett County","latitude":"45.86272000","longitude":"-92.36757000"},{"name":"Butler","latitude":"43.10584000","longitude":"-88.06953000"},{"name":"Cadott","latitude":"44.94802000","longitude":"-91.15070000"},{"name":"Caledonia","latitude":"42.80780000","longitude":"-87.92425000"},{"name":"Calumet County","latitude":"44.08160000","longitude":"-88.21806000"},{"name":"Cambridge","latitude":"43.00361000","longitude":"-89.01650000"},{"name":"Cameron","latitude":"45.40857000","longitude":"-91.74406000"},{"name":"Camp Lake","latitude":"42.53474000","longitude":"-88.14370000"},{"name":"Campbellsport","latitude":"43.59777000","longitude":"-88.27899000"},{"name":"Cashton","latitude":"43.74191000","longitude":"-90.77930000"},{"name":"Cato","latitude":"44.14277000","longitude":"-87.86120000"},{"name":"Cedar Grove","latitude":"43.56972000","longitude":"-87.82342000"},{"name":"Cedarburg","latitude":"43.29667000","longitude":"-87.98759000"},{"name":"Chetek","latitude":"45.31413000","longitude":"-91.65100000"},{"name":"Chilton","latitude":"44.02888000","longitude":"-88.16288000"},{"name":"Chippewa County","latitude":"45.06940000","longitude":"-91.27989000"},{"name":"Chippewa Falls","latitude":"44.93691000","longitude":"-91.39293000"},{"name":"Clark County","latitude":"44.73471000","longitude":"-90.61208000"},{"name":"Clear Lake","latitude":"45.25191000","longitude":"-92.27130000"},{"name":"Cleveland","latitude":"43.91499000","longitude":"-87.74731000"},{"name":"Clinton","latitude":"42.55779000","longitude":"-88.86511000"},{"name":"Clintonville","latitude":"44.62053000","longitude":"-88.76232000"},{"name":"Colby","latitude":"44.90997000","longitude":"-90.31569000"},{"name":"Colfax","latitude":"44.99746000","longitude":"-91.72712000"},{"name":"Columbia County","latitude":"43.46660000","longitude":"-89.33373000"},{"name":"Columbus","latitude":"43.33805000","longitude":"-89.01539000"},{"name":"Combined Locks","latitude":"44.26582000","longitude":"-88.31427000"},{"name":"Como","latitude":"42.61224000","longitude":"-88.48232000"},{"name":"Concord","latitude":"43.06945000","longitude":"-88.59871000"},{"name":"Cooperstown","latitude":"44.31277000","longitude":"-87.77453000"},{"name":"Cornell","latitude":"45.16719000","longitude":"-91.14931000"},{"name":"Cottage Grove","latitude":"43.07611000","longitude":"-89.19956000"},{"name":"Crandon","latitude":"45.57191000","longitude":"-88.90289000"},{"name":"Crawford County","latitude":"43.23946000","longitude":"-90.93105000"},{"name":"Cross Plains","latitude":"43.11444000","longitude":"-89.65568000"},{"name":"Cuba City","latitude":"42.60555000","longitude":"-90.42985000"},{"name":"Cudahy","latitude":"42.95974000","longitude":"-87.86147000"},{"name":"Cumberland","latitude":"45.53218000","longitude":"-92.01935000"},{"name":"Dakota","latitude":"43.99025000","longitude":"-89.35651000"},{"name":"Dane","latitude":"43.25055000","longitude":"-89.50151000"},{"name":"Dane County","latitude":"43.06735000","longitude":"-89.41832000"},{"name":"Darien","latitude":"42.60168000","longitude":"-88.70760000"},{"name":"Darlington","latitude":"42.68306000","longitude":"-90.11763000"},{"name":"De Forest","latitude":"43.24777000","longitude":"-89.34373000"},{"name":"De Pere","latitude":"44.44888000","longitude":"-88.06038000"},{"name":"Decatur","latitude":"42.63433000","longitude":"-89.41155000"},{"name":"Deerfield","latitude":"43.05194000","longitude":"-89.07567000"},{"name":"Delafield","latitude":"43.06084000","longitude":"-88.40371000"},{"name":"Delavan","latitude":"42.63307000","longitude":"-88.64371000"},{"name":"Delavan Lake","latitude":"42.58418000","longitude":"-88.63260000"},{"name":"Denmark","latitude":"44.34777000","longitude":"-87.82732000"},{"name":"Dickeyville","latitude":"42.62722000","longitude":"-90.59207000"},{"name":"Dodge County","latitude":"43.41630000","longitude":"-88.70752000"},{"name":"Dodgeville","latitude":"42.96027000","longitude":"-90.13012000"},{"name":"Door County","latitude":"44.83834000","longitude":"-87.35779000"},{"name":"Douglas County","latitude":"46.46411000","longitude":"-91.89940000"},{"name":"Dousman","latitude":"43.01418000","longitude":"-88.47260000"},{"name":"Dunn County","latitude":"44.94659000","longitude":"-91.89641000"},{"name":"Durand","latitude":"44.62635000","longitude":"-91.96573000"},{"name":"Eagle","latitude":"42.87946000","longitude":"-88.47427000"},{"name":"Eagle Lake","latitude":"42.70696000","longitude":"-88.12814000"},{"name":"Eagle River","latitude":"45.91718000","longitude":"-89.24430000"},{"name":"East Troy","latitude":"42.78529000","longitude":"-88.40510000"},{"name":"Easton","latitude":"43.83803000","longitude":"-89.80679000"},{"name":"Eau Claire","latitude":"44.81135000","longitude":"-91.49849000"},{"name":"Eau Claire County","latitude":"44.72677000","longitude":"-91.28600000"},{"name":"Edgar","latitude":"44.92719000","longitude":"-89.96346000"},{"name":"Edgerton","latitude":"42.83528000","longitude":"-89.06761000"},{"name":"Eldorado","latitude":"43.82471000","longitude":"-88.62178000"},{"name":"Elkhorn","latitude":"42.67279000","longitude":"-88.54454000"},{"name":"Ellsworth","latitude":"44.73219000","longitude":"-92.48741000"},{"name":"Elm Grove","latitude":"43.04307000","longitude":"-88.07898000"},{"name":"Elroy","latitude":"43.74080000","longitude":"-90.27235000"},{"name":"Evansville","latitude":"42.78028000","longitude":"-89.29928000"},{"name":"Evergreen","latitude":"44.84247000","longitude":"-89.63762000"},{"name":"Fall Creek","latitude":"44.76357000","longitude":"-91.27710000"},{"name":"Fall River","latitude":"43.38443000","longitude":"-89.04511000"},{"name":"Fennimore","latitude":"42.98360000","longitude":"-90.65540000"},{"name":"Fitchburg","latitude":"42.96083000","longitude":"-89.46984000"},{"name":"Florence","latitude":"45.92218000","longitude":"-88.25180000"},{"name":"Florence County","latitude":"45.84845000","longitude":"-88.39816000"},{"name":"Fond du Lac","latitude":"43.77500000","longitude":"-88.43883000"},{"name":"Fond du Lac County","latitude":"43.75359000","longitude":"-88.48826000"},{"name":"Fontana","latitude":"42.55141000","longitude":"-88.57510000"},{"name":"Forest County","latitude":"45.66726000","longitude":"-88.77038000"},{"name":"Fort Atkinson","latitude":"42.92889000","longitude":"-88.83705000"},{"name":"Fox Lake","latitude":"43.56554000","longitude":"-88.90650000"},{"name":"Fox Point","latitude":"43.15751000","longitude":"-87.90175000"},{"name":"Franklin","latitude":"42.88863000","longitude":"-88.03842000"},{"name":"Franksville","latitude":"42.76002000","longitude":"-87.91341000"},{"name":"Frederic","latitude":"45.65912000","longitude":"-92.46714000"},{"name":"Fredonia","latitude":"43.47056000","longitude":"-87.95065000"},{"name":"French Island","latitude":"43.85830000","longitude":"-91.26042000"},{"name":"Friendship","latitude":"43.97053000","longitude":"-89.81679000"},{"name":"Galesville","latitude":"44.08163000","longitude":"-91.34904000"},{"name":"Genoa City","latitude":"42.49835000","longitude":"-88.32815000"},{"name":"Germantown","latitude":"43.22862000","longitude":"-88.11037000"},{"name":"Gillett","latitude":"44.88999000","longitude":"-88.30732000"},{"name":"Glendale","latitude":"43.13529000","longitude":"-87.93564000"},{"name":"Glenmore","latitude":"44.38583000","longitude":"-87.92732000"},{"name":"Glenwood City","latitude":"45.05857000","longitude":"-92.17241000"},{"name":"Grafton","latitude":"43.31973000","longitude":"-87.95342000"},{"name":"Grant County","latitude":"42.86749000","longitude":"-90.70622000"},{"name":"Grantsburg","latitude":"45.77634000","longitude":"-92.68270000"},{"name":"Green Bay","latitude":"44.51916000","longitude":"-88.01983000"},{"name":"Green County","latitude":"42.67999000","longitude":"-89.60221000"},{"name":"Green Lake","latitude":"43.84415000","longitude":"-88.96011000"},{"name":"Green Lake County","latitude":"43.80038000","longitude":"-89.04486000"},{"name":"Greendale","latitude":"42.94057000","longitude":"-87.99592000"},{"name":"Greenfield","latitude":"42.96140000","longitude":"-88.01259000"},{"name":"Greenwood","latitude":"44.77024000","longitude":"-90.59931000"},{"name":"Hales Corners","latitude":"42.93751000","longitude":"-88.04870000"},{"name":"Hammond","latitude":"44.97886000","longitude":"-92.43575000"},{"name":"Harrison","latitude":"44.22776000","longitude":"-88.33591000"},{"name":"Hartford","latitude":"43.31778000","longitude":"-88.37899000"},{"name":"Hartland","latitude":"43.10501000","longitude":"-88.34204000"},{"name":"Hayward","latitude":"46.01301000","longitude":"-91.48462000"},{"name":"Hazel Green","latitude":"42.53278000","longitude":"-90.43457000"},{"name":"Hilbert","latitude":"44.14027000","longitude":"-88.16399000"},{"name":"Hillsboro","latitude":"43.65220000","longitude":"-90.34402000"},{"name":"Hobart","latitude":"44.49925000","longitude":"-88.14986000"},{"name":"Holmen","latitude":"43.96330000","longitude":"-91.25625000"},{"name":"Horicon","latitude":"43.45138000","longitude":"-88.63121000"},{"name":"Hortonville","latitude":"44.33470000","longitude":"-88.63816000"},{"name":"Howard","latitude":"44.54360000","longitude":"-88.08816000"},{"name":"Howards Grove","latitude":"43.83388000","longitude":"-87.82009000"},{"name":"Hudson","latitude":"44.97469000","longitude":"-92.75687000"},{"name":"Hurley","latitude":"46.44967000","longitude":"-90.18656000"},{"name":"Hustisford","latitude":"43.34611000","longitude":"-88.60066000"},{"name":"Independence","latitude":"44.35691000","longitude":"-91.42043000"},{"name":"Iola","latitude":"44.50803000","longitude":"-89.13067000"},{"name":"Iowa County","latitude":"43.00048000","longitude":"-90.13543000"},{"name":"Iron County","latitude":"46.31706000","longitude":"-90.26445000"},{"name":"Ixonia","latitude":"43.14389000","longitude":"-88.59732000"},{"name":"Jackson","latitude":"43.32389000","longitude":"-88.16676000"},{"name":"Jackson County","latitude":"44.31913000","longitude":"-90.80518000"},{"name":"Janesville","latitude":"42.68279000","longitude":"-89.01872000"},{"name":"Jefferson","latitude":"43.00556000","longitude":"-88.80733000"},{"name":"Jefferson County","latitude":"43.02082000","longitude":"-88.77587000"},{"name":"Johnson Creek","latitude":"43.07611000","longitude":"-88.77427000"},{"name":"Juneau","latitude":"43.40555000","longitude":"-88.70510000"},{"name":"Juneau County","latitude":"43.92444000","longitude":"-90.11402000"},{"name":"Kaukauna","latitude":"44.27804000","longitude":"-88.27205000"},{"name":"Kenosha","latitude":"42.58474000","longitude":"-87.82119000"},{"name":"Kenosha County","latitude":"42.57280000","longitude":"-87.83981000"},{"name":"Keshena","latitude":"44.88387000","longitude":"-88.63372000"},{"name":"Kewaskum","latitude":"43.52083000","longitude":"-88.22899000"},{"name":"Kewaunee","latitude":"44.45833000","longitude":"-87.50314000"},{"name":"Kewaunee County","latitude":"44.48279000","longitude":"-87.51434000"},{"name":"Kiel","latitude":"43.91249000","longitude":"-88.03565000"},{"name":"Kimberly","latitude":"44.27221000","longitude":"-88.33900000"},{"name":"King","latitude":"44.33748000","longitude":"-89.14178000"},{"name":"Kohler","latitude":"43.73916000","longitude":"-87.78175000"},{"name":"Kronenwetter","latitude":"44.82219000","longitude":"-89.59040000"},{"name":"La Crosse","latitude":"43.80136000","longitude":"-91.23958000"},{"name":"La Crosse County","latitude":"43.90653000","longitude":"-91.11522000"},{"name":"Lac du Flambeau","latitude":"45.96967000","longitude":"-89.89210000"},{"name":"Ladysmith","latitude":"45.46302000","longitude":"-91.10404000"},{"name":"Lafayette County","latitude":"42.66050000","longitude":"-90.13172000"},{"name":"Lake Delton","latitude":"43.60109000","longitude":"-89.79374000"},{"name":"Lake Geneva","latitude":"42.59168000","longitude":"-88.43343000"},{"name":"Lake Hallie","latitude":"44.87579000","longitude":"-91.44071000"},{"name":"Lake Koshkonong","latitude":"42.90973000","longitude":"-88.91955000"},{"name":"Lake Mills","latitude":"43.08139000","longitude":"-88.91177000"},{"name":"Lake Nebagamon","latitude":"46.51494000","longitude":"-91.69991000"},{"name":"Lake Ripley","latitude":"43.00583000","longitude":"-88.98622000"},{"name":"Lake Wazeecha","latitude":"44.37108000","longitude":"-89.75651000"},{"name":"Lake Wisconsin","latitude":"43.37360000","longitude":"-89.57568000"},{"name":"Lake Wissota","latitude":"44.92635000","longitude":"-91.30099000"},{"name":"Lamartine","latitude":"43.73332000","longitude":"-88.56872000"},{"name":"Lancaster","latitude":"42.84749000","longitude":"-90.71068000"},{"name":"Langlade County","latitude":"45.26236000","longitude":"-89.07191000"},{"name":"Lannon","latitude":"43.14612000","longitude":"-88.16620000"},{"name":"Legend Lake","latitude":"44.89095000","longitude":"-88.54406000"},{"name":"Lincoln County","latitude":"45.33746000","longitude":"-89.73461000"},{"name":"Little Chute","latitude":"44.27999000","longitude":"-88.31844000"},{"name":"Little Round Lake","latitude":"45.96495000","longitude":"-91.36795000"},{"name":"Lodi","latitude":"43.31388000","longitude":"-89.52651000"},{"name":"Lomira","latitude":"43.59138000","longitude":"-88.44371000"},{"name":"Loyal","latitude":"44.73691000","longitude":"-90.49597000"},{"name":"Luck","latitude":"45.57607000","longitude":"-92.48270000"},{"name":"Luxemburg","latitude":"44.53861000","longitude":"-87.70398000"},{"name":"Madison","latitude":"43.07305000","longitude":"-89.40123000"},{"name":"Maine","latitude":"45.02716000","longitude":"-89.69039000"},{"name":"Manawa","latitude":"44.46443000","longitude":"-88.91983000"},{"name":"Manchester","latitude":"43.69054000","longitude":"-89.04845000"},{"name":"Manitowoc","latitude":"44.08861000","longitude":"-87.65758000"},{"name":"Manitowoc County","latitude":"44.09054000","longitude":"-87.69974000"},{"name":"Maple Bluff","latitude":"43.11833000","longitude":"-89.37956000"},{"name":"Marathon","latitude":"44.92913000","longitude":"-89.84040000"},{"name":"Marathon County","latitude":"44.89829000","longitude":"-89.75906000"},{"name":"Marinette","latitude":"45.09998000","longitude":"-87.63066000"},{"name":"Marinette County","latitude":"45.35090000","longitude":"-88.00222000"},{"name":"Marion","latitude":"44.67081000","longitude":"-88.88927000"},{"name":"Markesan","latitude":"43.70720000","longitude":"-88.99011000"},{"name":"Marquette County","latitude":"43.81958000","longitude":"-89.39875000"},{"name":"Marshall","latitude":"43.16833000","longitude":"-89.06678000"},{"name":"Marshfield","latitude":"44.66885000","longitude":"-90.17180000"},{"name":"Mauston","latitude":"43.79719000","longitude":"-90.07735000"},{"name":"Mayville","latitude":"43.49416000","longitude":"-88.54482000"},{"name":"Mazomanie","latitude":"43.17666000","longitude":"-89.79485000"},{"name":"McFarland","latitude":"43.01250000","longitude":"-89.28984000"},{"name":"Medford","latitude":"45.13858000","longitude":"-90.34014000"},{"name":"Menasha","latitude":"44.20221000","longitude":"-88.44650000"},{"name":"Menominee County","latitude":"45.00437000","longitude":"-88.71001000"},{"name":"Menomonee Falls","latitude":"43.17890000","longitude":"-88.11731000"},{"name":"Menomonie","latitude":"44.87552000","longitude":"-91.91934000"},{"name":"Mequon","latitude":"43.21555000","longitude":"-88.03001000"},{"name":"Merrill","latitude":"45.18052000","longitude":"-89.68346000"},{"name":"Merton","latitude":"43.14667000","longitude":"-88.30676000"},{"name":"Middleton","latitude":"43.09722000","longitude":"-89.50429000"},{"name":"Milford","latitude":"43.10083000","longitude":"-88.84677000"},{"name":"Milton","latitude":"42.77556000","longitude":"-88.94400000"},{"name":"Milwaukee","latitude":"43.03890000","longitude":"-87.90647000"},{"name":"Milwaukee County","latitude":"43.02172000","longitude":"-87.92908000"},{"name":"Mineral Point","latitude":"42.86000000","longitude":"-90.17985000"},{"name":"Mishicot","latitude":"44.23916000","longitude":"-87.64119000"},{"name":"Mondovi","latitude":"44.56774000","longitude":"-91.67099000"},{"name":"Monona","latitude":"43.06222000","longitude":"-89.33401000"},{"name":"Monroe","latitude":"42.60112000","longitude":"-89.63845000"},{"name":"Monroe County","latitude":"43.94575000","longitude":"-90.61787000"},{"name":"Montello","latitude":"43.79137000","longitude":"-89.31984000"},{"name":"Monticello","latitude":"42.74556000","longitude":"-89.59484000"},{"name":"Mosinee","latitude":"44.79302000","longitude":"-89.70318000"},{"name":"Mount Horeb","latitude":"43.00861000","longitude":"-89.73846000"},{"name":"Mount Morris","latitude":"44.11442000","longitude":"-89.19067000"},{"name":"Mount Pleasant","latitude":"42.69743000","longitude":"-87.85577000"},{"name":"Mukwonago","latitude":"42.86668000","longitude":"-88.33343000"},{"name":"Muscoda","latitude":"43.18499000","longitude":"-90.44318000"},{"name":"Muskego","latitude":"42.90585000","longitude":"-88.13898000"},{"name":"Nashotah","latitude":"43.09779000","longitude":"-88.40232000"},{"name":"Nashville","latitude":"45.52274000","longitude":"-89.02484000"},{"name":"Neenah","latitude":"44.18582000","longitude":"-88.46261000"},{"name":"Neillsville","latitude":"44.55996000","longitude":"-90.59625000"},{"name":"Nekoosa","latitude":"44.31246000","longitude":"-89.90429000"},{"name":"New Berlin","latitude":"42.97640000","longitude":"-88.10842000"},{"name":"New Glarus","latitude":"42.81445000","longitude":"-89.63512000"},{"name":"New Holstein","latitude":"43.94999000","longitude":"-88.08426000"},{"name":"New Lisbon","latitude":"43.87914000","longitude":"-90.16541000"},{"name":"New London","latitude":"44.39276000","longitude":"-88.73983000"},{"name":"New Richmond","latitude":"45.12302000","longitude":"-92.53659000"},{"name":"Newburg","latitude":"43.43167000","longitude":"-88.04648000"},{"name":"Niagara","latitude":"45.77135000","longitude":"-87.99485000"},{"name":"North Fond du Lac","latitude":"43.81138000","longitude":"-88.48344000"},{"name":"North Hudson","latitude":"44.99302000","longitude":"-92.75687000"},{"name":"North La Crosse","latitude":"43.84635000","longitude":"-91.24819000"},{"name":"North Prairie","latitude":"42.93446000","longitude":"-88.40537000"},{"name":"Oak Creek","latitude":"42.88585000","longitude":"-87.86314000"},{"name":"Oakfield","latitude":"43.68610000","longitude":"-88.54650000"},{"name":"Oconomowoc","latitude":"43.11167000","longitude":"-88.49927000"},{"name":"Oconto","latitude":"44.88721000","longitude":"-87.86455000"},{"name":"Oconto County","latitude":"44.99851000","longitude":"-88.22056000"},{"name":"Oconto Falls","latitude":"44.87388000","longitude":"-88.14288000"},{"name":"Okauchee Lake","latitude":"43.12334000","longitude":"-88.44065000"},{"name":"Omro","latitude":"44.03943000","longitude":"-88.74428000"},{"name":"Onalaska","latitude":"43.88441000","longitude":"-91.23514000"},{"name":"Oneida","latitude":"44.49860000","longitude":"-88.18288000"},{"name":"Oneida County","latitude":"45.70559000","longitude":"-89.52171000"},{"name":"Oostburg","latitude":"43.62277000","longitude":"-87.79453000"},{"name":"Oregon","latitude":"42.92611000","longitude":"-89.38456000"},{"name":"Orfordville","latitude":"42.62751000","longitude":"-89.25317000"},{"name":"Osceola","latitude":"45.32052000","longitude":"-92.70493000"},{"name":"Oshkosh","latitude":"44.02471000","longitude":"-88.54261000"},{"name":"Osseo","latitude":"44.57218000","longitude":"-91.22738000"},{"name":"Outagamie County","latitude":"44.41609000","longitude":"-88.46493000"},{"name":"Ozaukee County","latitude":"43.40305000","longitude":"-87.89063000"},{"name":"Paddock Lake","latitude":"42.57752000","longitude":"-88.10509000"},{"name":"Palmyra","latitude":"42.87779000","longitude":"-88.58621000"},{"name":"Pardeeville","latitude":"43.53776000","longitude":"-89.30012000"},{"name":"Park Falls","latitude":"45.93440000","longitude":"-90.44155000"},{"name":"Pell Lake","latitude":"42.53807000","longitude":"-88.35093000"},{"name":"Pepin County","latitude":"44.48265000","longitude":"-92.14969000"},{"name":"Peshtigo","latitude":"45.05443000","longitude":"-87.74927000"},{"name":"Pewaukee","latitude":"43.08057000","longitude":"-88.26120000"},{"name":"Phillips","latitude":"45.69663000","longitude":"-90.40043000"},{"name":"Pierce County","latitude":"44.71963000","longitude":"-92.42249000"},{"name":"Pittsfield","latitude":"44.59944000","longitude":"-88.24510000"},{"name":"Platteville","latitude":"42.73416000","longitude":"-90.47846000"},{"name":"Pleasant Prairie","latitude":"42.55308000","longitude":"-87.93341000"},{"name":"Plover","latitude":"44.45636000","longitude":"-89.54401000"},{"name":"Plymouth","latitude":"43.74861000","longitude":"-87.97704000"},{"name":"Polk County","latitude":"45.46142000","longitude":"-92.44139000"},{"name":"Port Edwards","latitude":"44.35080000","longitude":"-89.86540000"},{"name":"Port Washington","latitude":"43.38722000","longitude":"-87.87564000"},{"name":"Portage","latitude":"43.53915000","longitude":"-89.46262000"},{"name":"Portage County","latitude":"44.47604000","longitude":"-89.50142000"},{"name":"Portland","latitude":"43.76886000","longitude":"-90.85819000"},{"name":"Potter Lake","latitude":"42.82168000","longitude":"-88.34898000"},{"name":"Powers Lake","latitude":"42.55363000","longitude":"-88.29454000"},{"name":"Poynette","latitude":"43.39026000","longitude":"-89.40290000"},{"name":"Prairie du Chien","latitude":"43.05165000","longitude":"-91.14124000"},{"name":"Prairie du Sac","latitude":"43.28693000","longitude":"-89.72401000"},{"name":"Prescott","latitude":"44.74886000","longitude":"-92.80215000"},{"name":"Price County","latitude":"45.68038000","longitude":"-90.36137000"},{"name":"Princeton","latitude":"43.85081000","longitude":"-89.12178000"},{"name":"Pulaski","latitude":"44.67222000","longitude":"-88.24260000"},{"name":"Racine","latitude":"42.72613000","longitude":"-87.78285000"},{"name":"Racine County","latitude":"42.72987000","longitude":"-87.81235000"},{"name":"Randolph","latitude":"43.53915000","longitude":"-89.00678000"},{"name":"Random Lake","latitude":"43.55222000","longitude":"-87.96176000"},{"name":"Redgranite","latitude":"44.04192000","longitude":"-89.09845000"},{"name":"Reedsburg","latitude":"43.53248000","longitude":"-90.00263000"},{"name":"Reedsville","latitude":"44.15360000","longitude":"-87.95676000"},{"name":"Rhinelander","latitude":"45.63662000","longitude":"-89.41208000"},{"name":"Rib Mountain","latitude":"44.91275000","longitude":"-89.67540000"},{"name":"Rice Lake","latitude":"45.50607000","longitude":"-91.73823000"},{"name":"Richfield","latitude":"43.25612000","longitude":"-88.19398000"},{"name":"Richland Center","latitude":"43.33471000","longitude":"-90.38679000"},{"name":"Richland County","latitude":"43.37564000","longitude":"-90.42948000"},{"name":"Richmond","latitude":"42.71473000","longitude":"-88.74927000"},{"name":"Rio","latitude":"43.44776000","longitude":"-89.23984000"},{"name":"Ripon","latitude":"43.84220000","longitude":"-88.83594000"},{"name":"River Falls","latitude":"44.86136000","longitude":"-92.62381000"},{"name":"River Hills","latitude":"43.17418000","longitude":"-87.92425000"},{"name":"Roberts","latitude":"44.98386000","longitude":"-92.55603000"},{"name":"Rochester","latitude":"42.74141000","longitude":"-88.22426000"},{"name":"Rock County","latitude":"42.67122000","longitude":"-89.07158000"},{"name":"Rome","latitude":"44.22060000","longitude":"-89.80843000"},{"name":"Rosendale","latitude":"43.80776000","longitude":"-88.67483000"},{"name":"Rothschild","latitude":"44.88719000","longitude":"-89.62012000"},{"name":"Roxbury","latitude":"43.24943000","longitude":"-89.67540000"},{"name":"Rusk County","latitude":"45.47513000","longitude":"-91.13312000"},{"name":"Rutland","latitude":"42.87889000","longitude":"-89.35012000"},{"name":"Saint Croix County","latitude":"45.03407000","longitude":"-92.45278000"},{"name":"Saint Croix Falls","latitude":"45.40996000","longitude":"-92.63965000"},{"name":"Saint Francis","latitude":"42.96752000","longitude":"-87.87758000"},{"name":"Saint Peter","latitude":"43.83638000","longitude":"-88.34149000"},{"name":"Salem","latitude":"42.55474000","longitude":"-88.11092000"},{"name":"Sauk City","latitude":"43.27082000","longitude":"-89.72207000"},{"name":"Sauk County","latitude":"43.42678000","longitude":"-89.94837000"},{"name":"Saukville","latitude":"43.38167000","longitude":"-87.94065000"},{"name":"Sawyer County","latitude":"45.87997000","longitude":"-91.14467000"},{"name":"Schofield","latitude":"44.90969000","longitude":"-89.60457000"},{"name":"Seymour","latitude":"44.51499000","longitude":"-88.33038000"},{"name":"Sharon","latitude":"42.50252000","longitude":"-88.72899000"},{"name":"Shawano","latitude":"44.78221000","longitude":"-88.60899000"},{"name":"Shawano County","latitude":"44.78915000","longitude":"-88.76544000"},{"name":"Sheboygan","latitude":"43.75083000","longitude":"-87.71453000"},{"name":"Sheboygan County","latitude":"43.75622000","longitude":"-87.79999000"},{"name":"Sheboygan Falls","latitude":"43.73197000","longitude":"-87.82213000"},{"name":"Shell Lake","latitude":"45.73939000","longitude":"-91.92545000"},{"name":"Sherwood","latitude":"44.17360000","longitude":"-88.25983000"},{"name":"Shorewood","latitude":"43.08918000","longitude":"-87.88758000"},{"name":"Shorewood Hills","latitude":"43.07750000","longitude":"-89.44568000"},{"name":"Shullsburg","latitude":"42.57334000","longitude":"-90.23096000"},{"name":"Silver Lake","latitude":"44.05526000","longitude":"-89.22623000"},{"name":"Siren","latitude":"45.78578000","longitude":"-92.38103000"},{"name":"Slinger","latitude":"43.33361000","longitude":"-88.28621000"},{"name":"Somers","latitude":"42.64030000","longitude":"-87.91036000"},{"name":"Somerset","latitude":"45.12441000","longitude":"-92.67354000"},{"name":"South Milwaukee","latitude":"42.91057000","longitude":"-87.86064000"},{"name":"Sparta","latitude":"43.94413000","longitude":"-90.81291000"},{"name":"Spencer","latitude":"44.75774000","longitude":"-90.29680000"},{"name":"Spooner","latitude":"45.82245000","longitude":"-91.88934000"},{"name":"Spring Green","latitude":"43.17527000","longitude":"-90.06790000"},{"name":"Spring Valley","latitude":"44.84524000","longitude":"-92.23880000"},{"name":"Stanley","latitude":"44.95997000","longitude":"-90.93708000"},{"name":"Stevens Point","latitude":"44.52358000","longitude":"-89.57456000"},{"name":"Stoughton","latitude":"42.91695000","longitude":"-89.21789000"},{"name":"Stratford","latitude":"44.80108000","longitude":"-90.07930000"},{"name":"Strum","latitude":"44.54969000","longitude":"-91.39266000"},{"name":"Sturgeon Bay","latitude":"44.83416000","longitude":"-87.37704000"},{"name":"Sturtevant","latitude":"42.69807000","longitude":"-87.89452000"},{"name":"Suamico","latitude":"44.63194000","longitude":"-88.03927000"},{"name":"Sun Prairie","latitude":"43.18360000","longitude":"-89.21373000"},{"name":"Superior","latitude":"46.72077000","longitude":"-92.10408000"},{"name":"Sussex","latitude":"43.13390000","longitude":"-88.22204000"},{"name":"Tainter Lake","latitude":"44.98913000","longitude":"-91.84767000"},{"name":"Taylor County","latitude":"45.21153000","longitude":"-90.50125000"},{"name":"Theresa","latitude":"43.51722000","longitude":"-88.45121000"},{"name":"Thiensville","latitude":"43.23751000","longitude":"-87.97870000"},{"name":"Thorp","latitude":"44.96108000","longitude":"-90.79986000"},{"name":"Tichigan","latitude":"42.82890000","longitude":"-88.19759000"},{"name":"Tomah","latitude":"43.97858000","longitude":"-90.50402000"},{"name":"Tomahawk","latitude":"45.47108000","longitude":"-89.72986000"},{"name":"Trempealeau","latitude":"44.00552000","longitude":"-91.44209000"},{"name":"Trempealeau County","latitude":"44.30395000","longitude":"-91.35846000"},{"name":"Turtle Lake","latitude":"45.39440000","longitude":"-92.14241000"},{"name":"Twin Lakes","latitude":"42.53113000","longitude":"-88.24815000"},{"name":"Two Rivers","latitude":"44.15388000","longitude":"-87.56925000"},{"name":"Union Grove","latitude":"42.68807000","longitude":"-88.05147000"},{"name":"Vernon County","latitude":"43.59386000","longitude":"-90.83438000"},{"name":"Verona","latitude":"42.99083000","longitude":"-89.53318000"},{"name":"Vilas County","latitude":"46.05289000","longitude":"-89.51477000"},{"name":"Viroqua","latitude":"43.55692000","longitude":"-90.88874000"},{"name":"Wales","latitude":"43.00445000","longitude":"-88.37676000"},{"name":"Walworth","latitude":"42.53113000","longitude":"-88.59955000"},{"name":"Walworth County","latitude":"42.66848000","longitude":"-88.54192000"},{"name":"Washburn","latitude":"46.67327000","longitude":"-90.89491000"},{"name":"Washburn County","latitude":"45.89918000","longitude":"-91.79123000"},{"name":"Washington County","latitude":"43.36847000","longitude":"-88.23078000"},{"name":"Waterford","latitude":"42.76307000","longitude":"-88.21426000"},{"name":"Waterloo","latitude":"43.18388000","longitude":"-88.98844000"},{"name":"Watertown","latitude":"43.19472000","longitude":"-88.72899000"},{"name":"Waukesha","latitude":"43.01168000","longitude":"-88.23148000"},{"name":"Waukesha County","latitude":"43.01819000","longitude":"-88.30453000"},{"name":"Waunakee","latitude":"43.19194000","longitude":"-89.45567000"},{"name":"Waupaca","latitude":"44.35803000","longitude":"-89.08595000"},{"name":"Waupaca County","latitude":"44.47043000","longitude":"-88.96482000"},{"name":"Waupun","latitude":"43.63332000","longitude":"-88.72955000"},{"name":"Wausau","latitude":"44.95914000","longitude":"-89.63012000"},{"name":"Waushara County","latitude":"44.11312000","longitude":"-89.24288000"},{"name":"Wautoma","latitude":"44.07470000","longitude":"-89.28790000"},{"name":"Wauwatosa","latitude":"43.04946000","longitude":"-88.00759000"},{"name":"West Allis","latitude":"43.01668000","longitude":"-88.00703000"},{"name":"West Baraboo","latitude":"43.47443000","longitude":"-89.77040000"},{"name":"West Bend","latitude":"43.42528000","longitude":"-88.18343000"},{"name":"West Milwaukee","latitude":"43.01251000","longitude":"-87.97259000"},{"name":"West Salem","latitude":"43.89913000","longitude":"-91.08125000"},{"name":"Westby","latitude":"43.65692000","longitude":"-90.85430000"},{"name":"Westfield","latitude":"43.88359000","longitude":"-89.49346000"},{"name":"Weston","latitude":"44.89080000","longitude":"-89.54762000"},{"name":"Weyauwega","latitude":"44.32137000","longitude":"-88.93372000"},{"name":"Whitefish Bay","latitude":"43.11334000","longitude":"-87.90009000"},{"name":"Whitehall","latitude":"44.36746000","longitude":"-91.31655000"},{"name":"Whitewater","latitude":"42.83362000","longitude":"-88.73233000"},{"name":"Whiting","latitude":"44.49358000","longitude":"-89.55873000"},{"name":"Williams Bay","latitude":"42.57807000","longitude":"-88.54093000"},{"name":"Wind Lake","latitude":"42.82946000","longitude":"-88.15870000"},{"name":"Wind Point","latitude":"42.78446000","longitude":"-87.76619000"},{"name":"Windsor","latitude":"43.21833000","longitude":"-89.34151000"},{"name":"Winnebago County","latitude":"44.06888000","longitude":"-88.64466000"},{"name":"Winneconne","latitude":"44.11082000","longitude":"-88.71261000"},{"name":"Wisconsin Dells","latitude":"43.62748000","longitude":"-89.77096000"},{"name":"Wisconsin Rapids","latitude":"44.38358000","longitude":"-89.81735000"},{"name":"Wittenberg","latitude":"44.82720000","longitude":"-89.16956000"},{"name":"Wood County","latitude":"44.45532000","longitude":"-90.04158000"},{"name":"Woodville","latitude":"44.95302000","longitude":"-92.29130000"},{"name":"Wrightstown","latitude":"44.32582000","longitude":"-88.16288000"}]