[{"name":"Amphoe Ban Phaeng","latitude":"17.86955000","longitude":"104.22744000"},{"name":"Amphoe Mueang Nakhon Phanom","latitude":"17.31965000","longitude":"104.68232000"},{"name":"Amphoe Na Kae","latitude":"16.95737000","longitude":"104.49349000"},{"name":"Amphoe Na Thom","latitude":"17.82134000","longitude":"104.10871000"},{"name":"Amphoe Na Wa","latitude":"17.49922000","longitude":"104.11833000"},{"name":"Amphoe Phon Sawan","latitude":"17.46868000","longitude":"104.42234000"},{"name":"Amphoe Pla Pak","latitude":"17.20133000","longitude":"104.54674000"},{"name":"Amphoe Renu Nakhon","latitude":"17.05080000","longitude":"104.65664000"},{"name":"Amphoe Si Songkhram","latitude":"17.62989000","longitude":"104.24495000"},{"name":"Amphoe Tha Uthen","latitude":"17.59263000","longitude":"104.49884000"},{"name":"Amphoe That Phanom","latitude":"16.96457000","longitude":"104.70277000"},{"name":"Amphoe Wangyang","latitude":"17.07189000","longitude":"104.45373000"},{"name":"Na Wa","latitude":"17.48970000","longitude":"104.10056000"},{"name":"Nakhon Phanom","latitude":"17.41081000","longitude":"104.77856000"},{"name":"That Phanom","latitude":"16.93636000","longitude":"104.71039000"}]