[{"name":"Agano Shi","latitude":"37.81420000","longitude":"139.25914000"},{"name":"Arai","latitude":"37.00059000","longitude":"138.22590000"},{"name":"Gosen","latitude":"37.73333000","longitude":"139.16667000"},{"name":"Gosen Shi","latitude":"37.65643000","longitude":"139.22634000"},{"name":"Itoigawa","latitude":"37.03333000","longitude":"137.85000000"},{"name":"Itoigawa Shi","latitude":"36.96626000","longitude":"137.89402000"},{"name":"Jōetsu","latitude":"37.14828000","longitude":"138.23642000"},{"name":"Jōetsu Shi","latitude":"37.12010000","longitude":"138.33752000"},{"name":"Kameda-honchō","latitude":"37.87214000","longitude":"139.10990000"},{"name":"Kamo","latitude":"37.66442000","longitude":"139.03502000"},{"name":"Kamo Shi","latitude":"37.62209000","longitude":"139.11068000"},{"name":"Kashiwazaki","latitude":"37.36667000","longitude":"138.55000000"},{"name":"Kashiwazaki Shi","latitude":"37.29913000","longitude":"138.58654000"},{"name":"Maki","latitude":"37.75000000","longitude":"138.88333000"},{"name":"Minamiuonuma Shi","latitude":"37.05587000","longitude":"138.93735000"},{"name":"Mitsuke","latitude":"37.53333000","longitude":"138.93333000"},{"name":"Mitsuke Shi","latitude":"37.52465000","longitude":"138.93711000"},{"name":"Muikamachi","latitude":"37.06667000","longitude":"138.88333000"},{"name":"Murakami Shi","latitude":"38.31023000","longitude":"139.61733000"},{"name":"Muramatsu","latitude":"37.69257000","longitude":"139.17127000"},{"name":"Myoko-shi","latitude":"37.00000000","longitude":"138.25000000"},{"name":"Nagaoka","latitude":"37.45000000","longitude":"138.85000000"},{"name":"Nagaoka Shi","latitude":"37.44516000","longitude":"138.85678000"},{"name":"Niigata","latitude":"37.88637000","longitude":"139.00589000"},{"name":"Niigata Shi","latitude":"37.82738000","longitude":"139.03303000"},{"name":"Niitsu-honchō","latitude":"37.80024000","longitude":"139.12240000"},{"name":"Ojiya","latitude":"37.30000000","longitude":"138.80000000"},{"name":"Ojiya-shi","latitude":"37.30000000","longitude":"138.80000000"},{"name":"Ryōtsu-minato","latitude":"38.07817000","longitude":"138.43939000"},{"name":"Sado Shi","latitude":"38.04439000","longitude":"138.38984000"},{"name":"Sanjō Shi","latitude":"37.54068000","longitude":"139.08983000"},{"name":"Shibata","latitude":"37.95000000","longitude":"139.33333000"},{"name":"Shibata Shi","latitude":"37.90732000","longitude":"139.42786000"},{"name":"Shiozawa","latitude":"37.03757000","longitude":"138.84867000"},{"name":"Shirone","latitude":"37.76354000","longitude":"139.02199000"},{"name":"Suibara","latitude":"37.84608000","longitude":"139.23039000"},{"name":"Tainai","latitude":"38.06646000","longitude":"139.37436000"},{"name":"Tainai Shi","latitude":"38.00587000","longitude":"139.48053000"},{"name":"Tochio-honchō","latitude":"37.47642000","longitude":"138.99513000"},{"name":"Tsubame","latitude":"37.66450000","longitude":"138.92518000"},{"name":"Tsubame Shi","latitude":"37.66541000","longitude":"138.88619000"},{"name":"Tōkamachi","latitude":"37.13333000","longitude":"138.76667000"},{"name":"Tōkamachi-shi","latitude":"37.13333000","longitude":"138.76667000"},{"name":"Uonuma","latitude":"37.24488000","longitude":"138.96234000"},{"name":"Uonuma Shi","latitude":"37.22088000","longitude":"139.09795000"},{"name":"Yoshida-kasugachō","latitude":"37.68333000","longitude":"138.88333000"}]