[{"name":"Pagazzano","latitude":"45.53428000","longitude":"9.67116000"},{"name":"Pagnona","latitude":"46.05969000","longitude":"9.40274000"},{"name":"Paisco Loveno","latitude":"46.07910000","longitude":"10.29256000"},{"name":"Paitone","latitude":"45.55208000","longitude":"10.40227000"},{"name":"Paladina","latitude":"45.73068000","longitude":"9.60585000"},{"name":"Palazzago","latitude":"45.75298000","longitude":"9.53365000"},{"name":"Palazzo Pignano","latitude":"45.39007000","longitude":"9.56956000"},{"name":"Palazzolo sull'Oglio","latitude":"45.59665000","longitude":"9.88688000"},{"name":"Palestro","latitude":"45.30302000","longitude":"8.53320000"},{"name":"Palidano","latitude":"44.97203000","longitude":"10.77943000"},{"name":"Palosco","latitude":"45.58928000","longitude":"9.83646000"},{"name":"Pancarana","latitude":"45.07523000","longitude":"9.05109000"},{"name":"Pandino","latitude":"45.40559000","longitude":"9.55218000"},{"name":"Pantigliate","latitude":"45.43526000","longitude":"9.35220000"},{"name":"Parabiago","latitude":"45.56034000","longitude":"8.94545000"},{"name":"Paratico","latitude":"45.65879000","longitude":"9.95792000"},{"name":"Parlasco","latitude":"46.01789000","longitude":"9.34494000"},{"name":"Parmezzana Calzana","latitude":"45.63350000","longitude":"10.09540000"},{"name":"Parona","latitude":"45.28165000","longitude":"8.75055000"},{"name":"Parre","latitude":"45.87459000","longitude":"9.89086000"},{"name":"Parzanica","latitude":"45.73873000","longitude":"10.03518000"},{"name":"Parè","latitude":"45.81088000","longitude":"9.00874000"},{"name":"Paspardo","latitude":"46.03225000","longitude":"10.36879000"},{"name":"Passirana","latitude":"45.54792000","longitude":"9.04412000"},{"name":"Passirano","latitude":"45.59673000","longitude":"10.06986000"},{"name":"Pasturo","latitude":"45.95168000","longitude":"9.44414000"},{"name":"Paullo","latitude":"45.41834000","longitude":"9.40042000"},{"name":"Pavia","latitude":"45.19205000","longitude":"9.15917000"},{"name":"Pavone del Mella","latitude":"45.30147000","longitude":"10.20984000"},{"name":"Pedesina","latitude":"46.08189000","longitude":"9.54944000"},{"name":"Pedrengo","latitude":"45.69598000","longitude":"9.73495000"},{"name":"Peglio","latitude":"46.16039000","longitude":"9.29474000"},{"name":"Pegognaga","latitude":"44.99456000","longitude":"10.85967000"},{"name":"Peia","latitude":"45.79949000","longitude":"9.89926000"},{"name":"Pellio Intelvi","latitude":"45.97988000","longitude":"9.05864000"},{"name":"Perego","latitude":"45.73758000","longitude":"9.36295000"},{"name":"Perledo","latitude":"46.01529000","longitude":"9.29560000"},{"name":"Pero","latitude":"45.51017000","longitude":"9.08704000"},{"name":"Persico Dosimo","latitude":"45.18587000","longitude":"10.10517000"},{"name":"Pertica Alta","latitude":"45.74239000","longitude":"10.34417000"},{"name":"Pertica Bassa","latitude":"45.75339000","longitude":"10.37247000"},{"name":"Pescarolo","latitude":"45.19387000","longitude":"10.18647000"},{"name":"Pescate","latitude":"45.83348000","longitude":"9.39395000"},{"name":"Pessano Con Bornago","latitude":"45.54937000","longitude":"9.38145000"},{"name":"Pessina Cremonese","latitude":"45.18505000","longitude":"10.24815000"},{"name":"Pezzaze","latitude":"45.77629000","longitude":"10.23597000"},{"name":"Piadena","latitude":"45.12859000","longitude":"10.37101000"},{"name":"Piamborno","latitude":"45.91969000","longitude":"10.22526000"},{"name":"Pian Camuno","latitude":"45.84186000","longitude":"10.14181000"},{"name":"Pianazzo","latitude":"46.42815000","longitude":"9.34420000"},{"name":"Pianello del Lario","latitude":"46.10279000","longitude":"9.27694000"},{"name":"Pianengo","latitude":"45.40217000","longitude":"9.69476000"},{"name":"Piangaiano","latitude":"45.78877000","longitude":"9.99461000"},{"name":"Pianico","latitude":"45.80989000","longitude":"10.04306000"},{"name":"Piantedo","latitude":"46.13663000","longitude":"9.42770000"},{"name":"Piario","latitude":"45.89649000","longitude":"9.92726000"},{"name":"Piateda Centro","latitude":"46.15960000","longitude":"9.93495000"},{"name":"Piazza","latitude":"45.58725000","longitude":"10.15526000"},{"name":"Piazza Brembana","latitude":"45.94769000","longitude":"9.67330000"},{"name":"Piazza Caduti","latitude":"45.70513000","longitude":"9.50251000"},{"name":"Piazzatorre","latitude":"45.99273000","longitude":"9.68942000"},{"name":"Piazzolo","latitude":"45.97979000","longitude":"9.67055000"},{"name":"Pieranica","latitude":"45.42617000","longitude":"9.61026000"},{"name":"Pietra de' Giorgi","latitude":"45.02136000","longitude":"9.23036000"},{"name":"Pieve","latitude":"45.77273000","longitude":"10.75913000"},{"name":"Pieve Albignola","latitude":"45.11316000","longitude":"8.95999000"},{"name":"Pieve Emanuele","latitude":"45.35052000","longitude":"9.20268000"},{"name":"Pieve Fissiraga","latitude":"45.26327000","longitude":"9.45836000"},{"name":"Pieve Porto Morone","latitude":"45.10979000","longitude":"9.44019000"},{"name":"Pieve San Giacomo","latitude":"45.13204000","longitude":"10.18775000"},{"name":"Pieve d'Olmi","latitude":"45.08957000","longitude":"10.12368000"},{"name":"Pieve del Cairo","latitude":"45.04920000","longitude":"8.80322000"},{"name":"Pieve di Coriano","latitude":"45.03388000","longitude":"11.10780000"},{"name":"Pievedizio","latitude":"45.46062000","longitude":"10.08771000"},{"name":"Pigra","latitude":"45.95735000","longitude":"9.12649000"},{"name":"Pinarolo Po","latitude":"45.06986000","longitude":"9.16725000"},{"name":"Pino sulla Sponda del Lago Maggiore","latitude":"46.10078000","longitude":"8.73873000"},{"name":"Pioltello","latitude":"45.50147000","longitude":"9.33053000"},{"name":"Pisogne","latitude":"45.80777000","longitude":"10.11023000"},{"name":"Piubega","latitude":"45.22677000","longitude":"10.53195000"},{"name":"Piuro","latitude":"46.32979000","longitude":"9.42064000"},{"name":"Pizzale","latitude":"45.03856000","longitude":"9.04995000"},{"name":"Pizzighettone","latitude":"45.18690000","longitude":"9.78781000"},{"name":"Plesio","latitude":"46.04742000","longitude":"9.22882000"},{"name":"Poasco-Sorigherio","latitude":"45.40310000","longitude":"9.23092000"},{"name":"Poggio Rusco","latitude":"44.96693000","longitude":"11.10419000"},{"name":"Poggiridenti Alto","latitude":"46.17480000","longitude":"9.92605000"},{"name":"Poggiridenti Piano","latitude":"46.16991000","longitude":"9.92671000"},{"name":"Pogliano Milanese","latitude":"45.53786000","longitude":"8.99403000"},{"name":"Pognana Lario","latitude":"45.88044000","longitude":"9.15762000"},{"name":"Pognano","latitude":"45.58638000","longitude":"9.63996000"},{"name":"Polaveno","latitude":"45.66148000","longitude":"10.12396000"},{"name":"Polpenazze del Garda","latitude":"45.55118000","longitude":"10.50488000"},{"name":"Pometo","latitude":"44.92788000","longitude":"9.27348000"},{"name":"Pompiano","latitude":"45.43116000","longitude":"9.98910000"},{"name":"Pomponesco","latitude":"44.93118000","longitude":"10.59402000"},{"name":"Poncarale","latitude":"45.46089000","longitude":"10.17976000"},{"name":"Ponna Superiore","latitude":"45.98957000","longitude":"9.09406000"},{"name":"Ponte Caffaro","latitude":"45.82078000","longitude":"10.52707000"},{"name":"Ponte Cingoli","latitude":"45.59751000","longitude":"10.10687000"},{"name":"Ponte Lambro","latitude":"45.82539000","longitude":"9.22455000"},{"name":"Ponte Nizza","latitude":"44.85188000","longitude":"9.09739000"},{"name":"Ponte Nossa","latitude":"45.86611000","longitude":"9.88364000"},{"name":"Ponte San Marco","latitude":"45.47686000","longitude":"10.41315000"},{"name":"Ponte San Pietro","latitude":"45.70596000","longitude":"9.59050000"},{"name":"Ponte di Legno","latitude":"46.25896000","longitude":"10.51048000"},{"name":"Ponte in Valtellina","latitude":"46.17500000","longitude":"9.97785000"},{"name":"Ponteranica","latitude":"45.73248000","longitude":"9.65175000"},{"name":"Pontevico","latitude":"45.27315000","longitude":"10.09248000"},{"name":"Ponti sul Mincio","latitude":"45.41208000","longitude":"10.68508000"},{"name":"Pontida","latitude":"45.73129000","longitude":"9.51141000"},{"name":"Pontirolo Nuovo","latitude":"45.56918000","longitude":"9.56935000"},{"name":"Pontoglio","latitude":"45.56938000","longitude":"9.85346000"},{"name":"Porlezza","latitude":"46.03714000","longitude":"9.12921000"},{"name":"Portalbera","latitude":"45.09789000","longitude":"9.31774000"},{"name":"Porto Ceresio","latitude":"45.91285000","longitude":"8.89684000"},{"name":"Porto Valtravaglia","latitude":"45.96088000","longitude":"8.68109000"},{"name":"Porto d'Adda","latitude":"45.66241000","longitude":"9.47563000"},{"name":"Postalesio","latitude":"46.17379000","longitude":"9.77659000"},{"name":"Pozzaglio","latitude":"45.19999000","longitude":"10.05345000"},{"name":"Pozzaglio ed Uniti","latitude":"45.20027000","longitude":"10.05057000"},{"name":"Pozzo d'Adda","latitude":"45.57258000","longitude":"9.50295000"},{"name":"Pozzolengo","latitude":"45.40515000","longitude":"10.63040000"},{"name":"Pozzuolo Martesana","latitude":"45.51398000","longitude":"9.45625000"},{"name":"Pradalunga","latitude":"45.74588000","longitude":"9.78225000"},{"name":"Pralboino","latitude":"45.26720000","longitude":"10.21839000"},{"name":"Prata Camportaccio","latitude":"46.30719000","longitude":"9.39524000"},{"name":"Prata Centro","latitude":"46.30847000","longitude":"9.39625000"},{"name":"Predore","latitude":"45.68085000","longitude":"10.01271000"},{"name":"Pregnana Milanese","latitude":"45.51597000","longitude":"9.00704000"},{"name":"Pregola","latitude":"44.75069000","longitude":"9.28223000"},{"name":"Premana","latitude":"46.05245000","longitude":"9.42129000"},{"name":"Premenugo","latitude":"45.46790000","longitude":"9.38458000"},{"name":"Premolo","latitude":"45.87019000","longitude":"9.87466000"},{"name":"Preseglie","latitude":"45.66829000","longitude":"10.39677000"},{"name":"Presezzo","latitude":"45.69208000","longitude":"9.57035000"},{"name":"Prevalle","latitude":"45.55138000","longitude":"10.42207000"},{"name":"Primaluna","latitude":"45.98379000","longitude":"9.43764000"},{"name":"Proserpio","latitude":"45.82828000","longitude":"9.24554000"},{"name":"Prosto","latitude":"46.32946000","longitude":"9.42094000"},{"name":"Provaglio Val Sabbia","latitude":"45.68879000","longitude":"10.43397000"},{"name":"Provaglio d'Iseo","latitude":"45.63538000","longitude":"10.04466000"},{"name":"Provezze","latitude":"45.63139000","longitude":"10.07287000"},{"name":"Provincia di Bergamo","latitude":"45.83333000","longitude":"9.80000000"},{"name":"Provincia di Brescia","latitude":"45.70648000","longitude":"10.33562000"},{"name":"Provincia di Como","latitude":"45.91249000","longitude":"9.15744000"},{"name":"Provincia di Cremona","latitude":"45.23333000","longitude":"9.93333000"},{"name":"Provincia di Lecco","latitude":"45.85397000","longitude":"9.39001000"},{"name":"Provincia di Lodi","latitude":"45.29638000","longitude":"9.52858000"},{"name":"Provincia di Mantova","latitude":"45.16667000","longitude":"10.78333000"},{"name":"Provincia di Monza e della Brianza","latitude":"45.59674000","longitude":"9.21616000"},{"name":"Provincia di Pavia","latitude":"45.11667000","longitude":"9.13333000"},{"name":"Provincia di Sondrio","latitude":"46.21108000","longitude":"9.94907000"},{"name":"Provincia di Varese","latitude":"45.80000000","longitude":"8.80000000"},{"name":"Puegnago sul Garda","latitude":"45.56679000","longitude":"10.50977000"},{"name":"Puginate","latitude":"45.71095000","longitude":"9.05772000"},{"name":"Pumenengo","latitude":"45.48002000","longitude":"9.86775000"},{"name":"Pusiano","latitude":"45.81478000","longitude":"9.28217000"},{"name":"Quartiano","latitude":"45.35800000","longitude":"9.41760000"},{"name":"Quattro Strade","latitude":"45.69550000","longitude":"9.37681000"},{"name":"Quingentole","latitude":"45.03801000","longitude":"11.04575000"},{"name":"Quintano","latitude":"45.42047000","longitude":"9.61856000"},{"name":"Quinzano d'Oglio","latitude":"45.31430000","longitude":"10.00785000"},{"name":"Quistello","latitude":"45.00794000","longitude":"10.98377000"},{"name":"Raffa","latitude":"45.57047000","longitude":"10.52962000"},{"name":"Ramponio Verna","latitude":"45.99698000","longitude":"9.06633000"},{"name":"Rancio Valcuvia","latitude":"45.91594000","longitude":"8.77157000"},{"name":"Ranco","latitude":"45.79733000","longitude":"8.57105000"},{"name":"Ranica","latitude":"45.72328000","longitude":"9.71335000"},{"name":"Ranzanico","latitude":"45.78839000","longitude":"9.93506000"},{"name":"Rasura","latitude":"46.10059000","longitude":"9.55274000"},{"name":"Rea","latitude":"45.11336000","longitude":"9.15465000"},{"name":"Redavalle","latitude":"45.03796000","longitude":"9.20225000"},{"name":"Redondesco","latitude":"45.16638000","longitude":"10.51228000"},{"name":"Regoledo","latitude":"46.13319000","longitude":"9.54597000"},{"name":"Remedello","latitude":"45.27838000","longitude":"10.37198000"},{"name":"Remedello di Sopra","latitude":"45.27873000","longitude":"10.37109000"},{"name":"Renate","latitude":"45.72438000","longitude":"9.27994000"},{"name":"Rescaldina","latitude":"45.62002000","longitude":"8.94878000"},{"name":"Retorbido","latitude":"44.94980000","longitude":"9.03680000"},{"name":"Revere","latitude":"45.05207000","longitude":"11.13059000"},{"name":"Rezzago","latitude":"45.86673000","longitude":"9.24863000"},{"name":"Rezzato","latitude":"45.51182000","longitude":"10.31731000"},{"name":"Rho","latitude":"45.53245000","longitude":"9.04020000"},{"name":"Ricengo","latitude":"45.40567000","longitude":"9.72396000"},{"name":"Riozzo","latitude":"45.34622000","longitude":"9.32168000"},{"name":"Ripalta Arpina","latitude":"45.30187000","longitude":"9.72896000"},{"name":"Ripalta Guerina","latitude":"45.30607000","longitude":"9.70396000"},{"name":"Ripalta Nuova","latitude":"45.33203000","longitude":"9.69244000"},{"name":"Riva di Solto","latitude":"45.77418000","longitude":"10.03941000"},{"name":"Rivanazzano","latitude":"44.92908000","longitude":"9.01368000"},{"name":"Rivarolo Mantovano","latitude":"45.07272000","longitude":"10.43713000"},{"name":"Rivarolo del Re","latitude":"45.03116000","longitude":"10.47253000"},{"name":"Rivolta d'Adda","latitude":"45.46962000","longitude":"9.51251000"},{"name":"Robbiate","latitude":"45.68829000","longitude":"9.43712000"},{"name":"Robbio","latitude":"45.28901000","longitude":"8.59289000"},{"name":"Robecchetto Con Induno","latitude":"45.52848000","longitude":"8.77068000"},{"name":"Robecco Pavese","latitude":"45.04836000","longitude":"9.15015000"},{"name":"Robecco d'Oglio","latitude":"45.25851000","longitude":"10.07718000"},{"name":"Robecco sul Naviglio","latitude":"45.43662000","longitude":"8.88573000"},{"name":"Roccafranca","latitude":"45.46405000","longitude":"9.91260000"},{"name":"Rodengo-Saiano","latitude":"45.59958000","longitude":"10.10717000"},{"name":"Rodero","latitude":"45.82398000","longitude":"8.91523000"},{"name":"Rodigo","latitude":"45.19912000","longitude":"10.62527000"},{"name":"Rogeno","latitude":"45.78238000","longitude":"9.27404000"},{"name":"Roggione","latitude":"45.18378000","longitude":"9.80739000"},{"name":"Rognano","latitude":"45.28847000","longitude":"9.09025000"},{"name":"Rogno","latitude":"45.85659000","longitude":"10.13216000"},{"name":"Rogolo","latitude":"46.13721000","longitude":"9.48528000"},{"name":"Rogoredo-Valaperta-Rimoldo","latitude":"45.67695000","longitude":"9.33277000"},{"name":"Romagnese","latitude":"44.84131000","longitude":"9.32810000"},{"name":"Romanengo","latitude":"45.37815000","longitude":"9.78777000"},{"name":"Romano Banco","latitude":"45.42309000","longitude":"9.10707000"},{"name":"Romano di Lombardia","latitude":"45.52081000","longitude":"9.75440000"},{"name":"Ronago","latitude":"45.83228000","longitude":"8.98364000"},{"name":"Roncadelle","latitude":"45.52718000","longitude":"10.15407000"},{"name":"Roncaro","latitude":"45.22817000","longitude":"9.27545000"},{"name":"Roncello","latitude":"45.60238000","longitude":"9.45495000"},{"name":"Ronco","latitude":"45.52668000","longitude":"9.35921000"},{"name":"Ronco Briantino","latitude":"45.66628000","longitude":"9.40535000"},{"name":"Roncobello","latitude":"45.95569000","longitude":"9.75235000"},{"name":"Roncoferraro","latitude":"45.13812000","longitude":"10.94210000"},{"name":"Roncola","latitude":"45.76868000","longitude":"9.56065000"},{"name":"Rosasco","latitude":"45.25031000","longitude":"8.57930000"},{"name":"Rosate","latitude":"45.34965000","longitude":"9.01659000"},{"name":"Rota d'Imagna","latitude":"45.83088000","longitude":"9.51225000"},{"name":"Rotta","latitude":"45.16242000","longitude":"9.14564000"},{"name":"Rovagnate","latitude":"45.73692000","longitude":"9.37111000"},{"name":"Rovato","latitude":"45.56342000","longitude":"10.00213000"},{"name":"Rovellasca","latitude":"45.66664000","longitude":"9.04884000"},{"name":"Rovello Porro","latitude":"45.65210000","longitude":"9.03940000"},{"name":"Roverbella","latitude":"45.26659000","longitude":"10.77047000"},{"name":"Rovescala","latitude":"45.00696000","longitude":"9.34586000"},{"name":"Rovetta","latitude":"45.89178000","longitude":"9.98212000"},{"name":"Rozzano","latitude":"45.38193000","longitude":"9.15590000"},{"name":"Roè","latitude":"45.62576000","longitude":"10.49960000"},{"name":"Roè Volciano","latitude":"45.61199000","longitude":"10.48857000"},{"name":"Rudiano","latitude":"45.48952000","longitude":"9.88606000"},{"name":"Ruino","latitude":"44.91145000","longitude":"9.27553000"},{"name":"Sabbio Chiese","latitude":"45.65589000","longitude":"10.42193000"},{"name":"Sabbioneta","latitude":"44.99787000","longitude":"10.48848000"},{"name":"Sacca","latitude":"45.89953000","longitude":"10.22008000"},{"name":"Sairano","latitude":"45.13672000","longitude":"9.05162000"},{"name":"Sala Comacina","latitude":"45.96418000","longitude":"9.16604000"},{"name":"Sala al Barro","latitude":"45.82057000","longitude":"9.36220000"},{"name":"Sale Marasino","latitude":"45.70638000","longitude":"10.11216000"},{"name":"Salerano sul Lambro","latitude":"45.29657000","longitude":"9.38515000"},{"name":"Salice Terme","latitude":"44.91510000","longitude":"9.02630000"},{"name":"Saltrio","latitude":"45.87347000","longitude":"8.92436000"},{"name":"Salvirola","latitude":"45.35630000","longitude":"9.77924000"},{"name":"Salò","latitude":"45.60685000","longitude":"10.52050000"},{"name":"Samarate","latitude":"45.62410000","longitude":"8.78507000"},{"name":"Samolaco","latitude":"46.24249000","longitude":"9.39404000"},{"name":"San Bartolomeo Val Cavargna","latitude":"46.08349000","longitude":"9.14913000"},{"name":"San Bassano","latitude":"45.24378000","longitude":"9.80954000"},{"name":"San Benedetto Po","latitude":"45.04612000","longitude":"10.93367000"},{"name":"San Biagio","latitude":"45.09942000","longitude":"10.84728000"},{"name":"San Bovio-San Felice","latitude":"45.46282000","longitude":"9.31263000"},{"name":"San Cassiano","latitude":"46.27697000","longitude":"9.39743000"},{"name":"San Cipriano Po","latitude":"45.10909000","longitude":"9.28089000"},{"name":"San Colombano al Lambro","latitude":"45.18322000","longitude":"9.49028000"},{"name":"San Damiano al Colle","latitude":"45.02713000","longitude":"9.34860000"},{"name":"San Daniele Po","latitude":"45.06727000","longitude":"10.17637000"},{"name":"San Donato Milanese","latitude":"45.41047000","longitude":"9.26838000"},{"name":"San Fedele Intelvi","latitude":"45.96768000","longitude":"9.08074000"},{"name":"San Fedele Superiore","latitude":"45.96667000","longitude":"9.06667000"},{"name":"San Felice","latitude":"45.14301000","longitude":"10.07373000"},{"name":"San Felice del Benaco","latitude":"45.58276000","longitude":"10.55380000"},{"name":"San Fermo della Battaglia","latitude":"45.80868000","longitude":"9.04744000"},{"name":"San Fiorano","latitude":"45.13815000","longitude":"9.72063000"},{"name":"San Genesio ed Uniti","latitude":"45.23414000","longitude":"9.17997000"},{"name":"San Gervasio Bresciano","latitude":"45.30774000","longitude":"10.14652000"},{"name":"San Giacomo","latitude":"45.59379000","longitude":"10.47689000"},{"name":"San Giacomo Filippo","latitude":"46.33769000","longitude":"9.37124000"},{"name":"San Giacomo delle Segnate","latitude":"44.97418000","longitude":"11.03434000"},{"name":"San Giorgio Su Legnano","latitude":"45.57377000","longitude":"8.91374000"},{"name":"San Giorgio di Lomellina","latitude":"45.17486000","longitude":"8.79014000"},{"name":"San Giovanni Bianco","latitude":"45.87342000","longitude":"9.65420000"},{"name":"San Giovanni del Dosso","latitude":"44.96627000","longitude":"11.08114000"},{"name":"San Giovanni in Croce","latitude":"45.07396000","longitude":"10.37315000"},{"name":"San Giuliano Milanese","latitude":"45.39402000","longitude":"9.29109000"},{"name":"San Lorenzo di Rovetta","latitude":"45.87971000","longitude":"9.97537000"},{"name":"San Mamete","latitude":"46.02505000","longitude":"9.05364000"},{"name":"San Martino Dall'Argine","latitude":"45.09715000","longitude":"10.51766000"},{"name":"San Martino Siccomario","latitude":"45.16340000","longitude":"9.14062000"},{"name":"San Martino del Lago","latitude":"45.07243000","longitude":"10.31568000"},{"name":"San Martino della Battaglia","latitude":"45.43832000","longitude":"10.60053000"},{"name":"San Martino in Strada","latitude":"45.27497000","longitude":"9.52636000"},{"name":"San Michele-San Giorgio","latitude":"45.69594000","longitude":"9.05856000"},{"name":"San Nazzaro Val Cavargna","latitude":"46.08939000","longitude":"9.12743000"},{"name":"San Nicolò","latitude":"46.46299000","longitude":"10.40998000"},{"name":"San Paolo","latitude":"45.37249000","longitude":"10.02397000"},{"name":"San Paolo d'Argon","latitude":"45.68838000","longitude":"9.80226000"},{"name":"San Pellegrino Terme","latitude":"45.83443000","longitude":"9.66753000"},{"name":"San Rocco","latitude":"45.00945000","longitude":"9.16191000"},{"name":"San Rocco al Porto","latitude":"45.08197000","longitude":"9.69717000"},{"name":"San Sebastiano","latitude":"45.65192000","longitude":"10.25681000"},{"name":"San Siro","latitude":"46.06573000","longitude":"9.26877000"},{"name":"San Vigilio","latitude":"45.60808000","longitude":"10.19442000"},{"name":"San Vittore","latitude":"46.30799000","longitude":"9.38310000"},{"name":"San Vittore Olona","latitude":"45.58577000","longitude":"8.94134000"},{"name":"San Zeno Naviglio","latitude":"45.49258000","longitude":"10.21847000"},{"name":"San Zenone","latitude":"45.64169000","longitude":"10.14685000"},{"name":"San Zenone al Lambro","latitude":"45.32681000","longitude":"9.35598000"},{"name":"San Zenone al Po","latitude":"45.10856000","longitude":"9.36176000"},{"name":"Sangiano","latitude":"45.87508000","longitude":"8.63333000"},{"name":"Sannazzaro de' Burgondi","latitude":"45.10226000","longitude":"8.90635000"},{"name":"Sant'Agata Martesana","latitude":"45.52220000","longitude":"9.38382000"},{"name":"Sant'Alessio Con Vialone","latitude":"45.22237000","longitude":"9.22605000"},{"name":"Sant'Angelo Lodigiano","latitude":"45.23526000","longitude":"9.40651000"},{"name":"Sant'Angelo Lomellina","latitude":"45.24663000","longitude":"8.64317000"},{"name":"Sant'Antonio","latitude":"46.46110000","longitude":"10.41738000"},{"name":"Sant'Omobono Terme","latitude":"45.80838000","longitude":"9.53625000"},{"name":"Santa Brigida","latitude":"45.98489000","longitude":"9.62115000"},{"name":"Santa Corinna","latitude":"45.34018000","longitude":"9.08878000"},{"name":"Santa Cristina","latitude":"45.15756000","longitude":"9.39976000"},{"name":"Santa Giuletta","latitude":"45.03397000","longitude":"9.18126000"},{"name":"Santa Margherita","latitude":"45.63391000","longitude":"9.23013000"},{"name":"Santa Margherita di Staffora","latitude":"44.77154000","longitude":"9.24006000"},{"name":"Santa Maria Hoè","latitude":"45.74428000","longitude":"9.37445000"},{"name":"Santa Maria dei Sabbioni","latitude":"45.24386000","longitude":"9.83927000"},{"name":"Santa Maria della Versa","latitude":"44.98757000","longitude":"9.29976000"},{"name":"Santo Stefano Lodigiano","latitude":"45.11857000","longitude":"9.73527000"},{"name":"Santo Stefano Ticino","latitude":"45.48635000","longitude":"8.91582000"},{"name":"Sarezzo","latitude":"45.66067000","longitude":"10.19690000"},{"name":"Sarnico","latitude":"45.67099000","longitude":"9.96152000"},{"name":"Saronno","latitude":"45.62513000","longitude":"9.03517000"},{"name":"Sartirana Lomellina","latitude":"45.11352000","longitude":"8.66711000"},{"name":"Saviore","latitude":"46.08049000","longitude":"10.39823000"},{"name":"Scaldasole","latitude":"45.12495000","longitude":"8.91029000"},{"name":"Scandolara Ravara","latitude":"45.05309000","longitude":"10.30215000"},{"name":"Scandolara Ripa d'Oglio","latitude":"45.22171000","longitude":"10.15717000"},{"name":"Scannabue-Cascine Capri","latitude":"45.39306000","longitude":"9.59302000"},{"name":"Scano al Brembo","latitude":"45.71858000","longitude":"9.60905000"},{"name":"Scanzorosciate","latitude":"45.71078000","longitude":"9.73505000"},{"name":"Schignano","latitude":"45.92978000","longitude":"9.10214000"},{"name":"Schilpario","latitude":"46.00874000","longitude":"10.15534000"},{"name":"Schivenoglia","latitude":"44.99498000","longitude":"11.07300000"},{"name":"Secugnago","latitude":"45.23132000","longitude":"9.59394000"},{"name":"Sedriano","latitude":"45.49105000","longitude":"8.97161000"},{"name":"Sedrina","latitude":"45.78067000","longitude":"9.62362000"},{"name":"Segrate","latitude":"45.49185000","longitude":"9.29812000"},{"name":"Selino Basso","latitude":"45.81029000","longitude":"9.53495000"},{"name":"Sellero","latitude":"46.05145000","longitude":"10.34764000"},{"name":"Selvino","latitude":"45.78525000","longitude":"9.75292000"},{"name":"Semiana","latitude":"45.13737000","longitude":"8.72973000"},{"name":"Senago","latitude":"45.57562000","longitude":"9.12620000"},{"name":"Seniga","latitude":"45.24479000","longitude":"10.17759000"},{"name":"Senna Comasco","latitude":"45.76298000","longitude":"9.11104000"},{"name":"Senna Lodigiana","latitude":"45.15023000","longitude":"9.59379000"},{"name":"Seregno","latitude":"45.65002000","longitude":"9.20548000"},{"name":"Sergnano","latitude":"45.42755000","longitude":"9.70122000"},{"name":"Seriate","latitude":"45.68532000","longitude":"9.72487000"},{"name":"Serina","latitude":"45.87071000","longitude":"9.73102000"},{"name":"Serle","latitude":"45.56137000","longitude":"10.36821000"},{"name":"Sermide","latitude":"45.00349000","longitude":"11.29290000"},{"name":"Sernio","latitude":"46.22420000","longitude":"10.20526000"},{"name":"Serone","latitude":"46.15627000","longitude":"9.58171000"},{"name":"Serravalle a Po","latitude":"45.06638000","longitude":"11.08180000"},{"name":"Sesto Calende","latitude":"45.72608000","longitude":"8.63397000"},{"name":"Sesto San Giovanni","latitude":"45.53329000","longitude":"9.22585000"},{"name":"Sesto ed Uniti","latitude":"45.17647000","longitude":"9.91407000"},{"name":"Settala","latitude":"45.45357000","longitude":"9.38715000"},{"name":"Settimo Milanese","latitude":"45.47771000","longitude":"9.05574000"},{"name":"Seveso","latitude":"45.64670000","longitude":"9.14296000"},{"name":"Silvano Pietra","latitude":"45.03923000","longitude":"8.94637000"},{"name":"Sirmione","latitude":"45.49744000","longitude":"10.60507000"},{"name":"Sirone","latitude":"45.77268000","longitude":"9.32214000"},{"name":"Sirta","latitude":"46.15823000","longitude":"9.66109000"},{"name":"Sirtori","latitude":"45.73658000","longitude":"9.33085000"},{"name":"Siviano","latitude":"45.71487000","longitude":"10.08026000"},{"name":"Siziano","latitude":"45.31606000","longitude":"9.20357000"},{"name":"Soave","latitude":"45.19509000","longitude":"10.72365000"},{"name":"Soiano","latitude":"45.52778000","longitude":"10.51267000"},{"name":"Solaro","latitude":"44.87990000","longitude":"9.17315000"},{"name":"Solarolo","latitude":"45.55047000","longitude":"10.55489000"},{"name":"Solarolo Rainerio","latitude":"45.08126000","longitude":"10.35711000"},{"name":"Solbiate","latitude":"45.78968000","longitude":"8.93314000"},{"name":"Solbiate Arno","latitude":"45.71960000","longitude":"8.81372000"},{"name":"Solbiate Olona","latitude":"45.65028000","longitude":"8.88198000"},{"name":"Solferino","latitude":"45.37236000","longitude":"10.56648000"},{"name":"Solto Collina","latitude":"45.78230000","longitude":"10.02638000"},{"name":"Solza","latitude":"45.67868000","longitude":"9.49075000"},{"name":"Somaglia","latitude":"45.14947000","longitude":"9.63346000"},{"name":"Somma Lombardo","latitude":"45.68213000","longitude":"8.70759000"},{"name":"Sommo","latitude":"45.13316000","longitude":"9.08655000"},{"name":"Soncino","latitude":"45.40033000","longitude":"9.86845000"},{"name":"Sondalo","latitude":"46.32983000","longitude":"10.32690000"},{"name":"Sondrio","latitude":"46.16852000","longitude":"9.87134000"},{"name":"Songavazzo","latitude":"45.87949000","longitude":"9.98956000"},{"name":"Sonico","latitude":"46.16640000","longitude":"10.35071000"},{"name":"Sordio","latitude":"45.34217000","longitude":"9.36385000"},{"name":"Soresina","latitude":"45.28819000","longitude":"9.85862000"},{"name":"Sorico","latitude":"46.17259000","longitude":"9.38404000"},{"name":"Sorisole","latitude":"45.73140000","longitude":"9.63715000"},{"name":"Sormano","latitude":"45.87803000","longitude":"9.24582000"},{"name":"Sospiro","latitude":"45.10762000","longitude":"10.15853000"},{"name":"Sotto il Monte Giovanni XXIII","latitude":"45.70568000","longitude":"9.50345000"},{"name":"Sottocastello","latitude":"45.66720000","longitude":"10.39416000"},{"name":"Sovere","latitude":"45.81188000","longitude":"10.03438000"},{"name":"Sovico","latitude":"45.64598000","longitude":"9.26275000"},{"name":"Spessa","latitude":"45.11356000","longitude":"9.34856000"},{"name":"Spinadesco","latitude":"45.14917000","longitude":"9.92637000"},{"name":"Spineda","latitude":"45.06140000","longitude":"10.51165000"},{"name":"Spino d'Adda","latitude":"45.40086000","longitude":"9.48674000"},{"name":"Spinone al Lago","latitude":"45.76476000","longitude":"9.92157000"},{"name":"Spirano","latitude":"45.58144000","longitude":"9.66863000"},{"name":"Spriana","latitude":"46.22030000","longitude":"9.86425000"},{"name":"Stagno Lombardo","latitude":"45.07459000","longitude":"10.08890000"},{"name":"Stazzona","latitude":"46.13879000","longitude":"9.27524000"},{"name":"Stezzano","latitude":"45.64968000","longitude":"9.65192000"},{"name":"Stradella","latitude":"45.07445000","longitude":"9.30169000"},{"name":"Stravignino","latitude":"45.77469000","longitude":"10.23838000"},{"name":"Strozza","latitude":"45.77294000","longitude":"9.57886000"},{"name":"Suardi","latitude":"45.03247000","longitude":"8.74127000"},{"name":"Sueglio","latitude":"46.08579000","longitude":"9.33374000"},{"name":"Suello","latitude":"45.81678000","longitude":"9.31154000"},{"name":"Suisio","latitude":"45.65708000","longitude":"9.50225000"},{"name":"Sulbiate","latitude":"45.64047000","longitude":"9.42762000"},{"name":"Sulzano","latitude":"45.68732000","longitude":"10.09988000"},{"name":"Sumirago","latitude":"45.73651000","longitude":"8.78356000"},{"name":"Susella","latitude":"44.91267000","longitude":"9.09651000"},{"name":"Sustinente","latitude":"45.07096000","longitude":"11.02178000"},{"name":"Suzzara","latitude":"44.99242000","longitude":"10.74407000"},{"name":"Tabiago-Cibrone","latitude":"45.75639000","longitude":"9.26684000"},{"name":"Taceno","latitude":"46.02253000","longitude":"9.36400000"},{"name":"Taino","latitude":"45.76249000","longitude":"8.61654000"},{"name":"Talamona","latitude":"46.13849000","longitude":"9.61294000"},{"name":"Taleggio","latitude":"45.89339000","longitude":"9.56485000"},{"name":"Tartano","latitude":"46.10554000","longitude":"9.67864000"},{"name":"Tavazzano","latitude":"45.32783000","longitude":"9.40473000"},{"name":"Tavernerio","latitude":"45.80068000","longitude":"9.14054000"},{"name":"Tavernola Bergamasca","latitude":"45.70846000","longitude":"10.04454000"},{"name":"Tavernole","latitude":"45.74618000","longitude":"10.23952000"},{"name":"Teglio","latitude":"46.17235000","longitude":"10.06399000"},{"name":"Telgate","latitude":"45.62792000","longitude":"9.84912000"},{"name":"Temù","latitude":"46.25022000","longitude":"10.46592000"},{"name":"Ternate","latitude":"45.78673000","longitude":"8.69931000"},{"name":"Terno d'Isola","latitude":"45.68548000","longitude":"9.53095000"},{"name":"Terranova dei Passerini","latitude":"45.21527000","longitude":"9.66186000"},{"name":"Terraverde-Corte Palasio","latitude":"45.31552000","longitude":"9.56162000"},{"name":"Ticengo","latitude":"45.36927000","longitude":"9.82766000"},{"name":"Tirano","latitude":"46.21482000","longitude":"10.16335000"},{"name":"Torbole Casaglia","latitude":"45.51279000","longitude":"10.11700000"},{"name":"Torchione-Moia","latitude":"46.15486000","longitude":"9.85996000"},{"name":"Torlino Vimercati","latitude":"45.41747000","longitude":"9.59476000"},{"name":"Tornata","latitude":"45.10437000","longitude":"10.43078000"},{"name":"Torno","latitude":"45.85593000","longitude":"9.11707000"},{"name":"Torrazza Coste","latitude":"44.97820000","longitude":"9.07613000"},{"name":"Torrazza dei Mandelli","latitude":"45.56629000","longitude":"9.39921000"},{"name":"Torre Beretti","latitude":"45.05996000","longitude":"8.67094000"},{"name":"Torre Boldone","latitude":"45.71725000","longitude":"9.70792000"},{"name":"Torre Pallavicina","latitude":"45.44638000","longitude":"9.87706000"},{"name":"Torre d'Arese","latitude":"45.24277000","longitude":"9.31735000"},{"name":"Torre d'Isola","latitude":"45.21796000","longitude":"9.07651000"},{"name":"Torre de' Busi","latitude":"45.77408000","longitude":"9.48025000"},{"name":"Torre de' Negri","latitude":"45.14966000","longitude":"9.33456000"},{"name":"Torre de' Picenardi","latitude":"45.14317000","longitude":"10.28803000"},{"name":"Torre de' Roveri","latitude":"45.69718000","longitude":"9.76326000"},{"name":"Torre del Mangano","latitude":"45.25208000","longitude":"9.13042000"},{"name":"Torre di Santa Maria","latitude":"46.23356000","longitude":"9.85228000"},{"name":"Torrevecchia Pia","latitude":"45.28197000","longitude":"9.29635000"},{"name":"Torricella Verzate","latitude":"45.01996000","longitude":"9.17356000"},{"name":"Torricella del Pizzo","latitude":"45.02023000","longitude":"10.29497000"},{"name":"Toscolano Maderno","latitude":"45.63977000","longitude":"10.60760000"},{"name":"Tovo di Sant'Agata","latitude":"46.24505000","longitude":"10.24670000"},{"name":"Tradate","latitude":"45.70843000","longitude":"8.90763000"},{"name":"Traona","latitude":"46.14737000","longitude":"9.53256000"},{"name":"Travacò Siccomario","latitude":"45.14906000","longitude":"9.15965000"},{"name":"Travagliato","latitude":"45.52391000","longitude":"10.08013000"},{"name":"Travedona Monate","latitude":"45.80427000","longitude":"8.67143000"},{"name":"Trebbio","latitude":"45.71289000","longitude":"10.46137000"},{"name":"Trecella","latitude":"45.51498000","longitude":"9.47905000"},{"name":"Tregasio","latitude":"45.67771000","longitude":"9.28806000"},{"name":"Tremenico","latitude":"46.07592000","longitude":"9.36602000"},{"name":"Tremezzo","latitude":"45.98423000","longitude":"9.21613000"},{"name":"Trenzano","latitude":"45.47728000","longitude":"10.01066000"},{"name":"Trescore Balneario","latitude":"45.69409000","longitude":"9.84173000"},{"name":"Trescore Cremasco","latitude":"45.40298000","longitude":"9.62278000"},{"name":"Tresivio","latitude":"46.17569000","longitude":"9.94255000"},{"name":"Treviglio","latitude":"45.52081000","longitude":"9.59102000"},{"name":"Treviolo","latitude":"45.67368000","longitude":"9.61195000"},{"name":"Trezzano Rosa","latitude":"45.58228000","longitude":"9.48567000"},{"name":"Trezzano sul Naviglio","latitude":"45.42212000","longitude":"9.06342000"},{"name":"Trezzo sull'Adda","latitude":"45.60523000","longitude":"9.51417000"},{"name":"Trezzone","latitude":"46.17159000","longitude":"9.35184000"},{"name":"Tribiano","latitude":"45.41323000","longitude":"9.37693000"},{"name":"Triginto","latitude":"45.40223000","longitude":"9.32512000"},{"name":"Trigolo","latitude":"45.32997000","longitude":"9.81415000"},{"name":"Triuggio","latitude":"45.66144000","longitude":"9.26691000"},{"name":"Trivolzio","latitude":"45.25846000","longitude":"9.04275000"},{"name":"Tromello","latitude":"45.20890000","longitude":"8.87054000"},{"name":"Tronzano Lago Maggiore","latitude":"46.08871000","longitude":"8.73310000"},{"name":"Trovo","latitude":"45.28296000","longitude":"9.03545000"},{"name":"Truccazzano","latitude":"45.48455000","longitude":"9.46950000"},{"name":"Turano Lodigiano","latitude":"45.24785000","longitude":"9.62221000"},{"name":"Turate","latitude":"45.65727000","longitude":"9.00424000"},{"name":"Turbigo","latitude":"45.53076000","longitude":"8.73671000"},{"name":"Ubiale","latitude":"45.78350000","longitude":"9.61650000"},{"name":"Ubiale Clanezzo","latitude":"45.78368000","longitude":"9.61935000"},{"name":"Uboldo","latitude":"45.61527000","longitude":"9.00394000"},{"name":"Uggiate Trevano","latitude":"45.82338000","longitude":"8.95964000"},{"name":"Urago d'Oglio","latitude":"45.51598000","longitude":"9.86966000"},{"name":"Urgnano","latitude":"45.59943000","longitude":"9.69473000"},{"name":"Usmate-Velate","latitude":"45.64798000","longitude":"9.36245000"},{"name":"Vaiano Cremasco","latitude":"45.37133000","longitude":"9.58793000"},{"name":"Vailate","latitude":"45.46231000","longitude":"9.60326000"},{"name":"Val Masino","latitude":"46.21519000","longitude":"9.63804000"},{"name":"Val Rezzo","latitude":"46.07268000","longitude":"9.11183000"},{"name":"Valbrona","latitude":"45.87738000","longitude":"9.29884000"},{"name":"Valdisotto","latitude":"46.43441000","longitude":"10.35695000"},{"name":"Valeggio","latitude":"45.15065000","longitude":"8.86132000"},{"name":"Valera Fratta","latitude":"45.25717000","longitude":"9.33615000"},{"name":"Valganna","latitude":"45.90228000","longitude":"8.82333000"},{"name":"Valgoglio","latitude":"45.97489000","longitude":"9.91355000"},{"name":"Valgreghentino","latitude":"45.77928000","longitude":"9.41345000"},{"name":"Vall'Alta","latitude":"45.76116000","longitude":"9.82640000"},{"name":"Valle Lomellina","latitude":"45.15096000","longitude":"8.66957000"},{"name":"Valle Salimbene","latitude":"45.17196000","longitude":"9.23445000"},{"name":"Valleve","latitude":"46.02819000","longitude":"9.74375000"},{"name":"Vallio Terme","latitude":"45.60979000","longitude":"10.39737000"},{"name":"Valmadrera-Caserta","latitude":"45.84628000","longitude":"9.35824000"},{"name":"Valmorea","latitude":"45.81518000","longitude":"8.93064000"},{"name":"Valnegra","latitude":"45.94909000","longitude":"9.68935000"},{"name":"Valtorta","latitude":"45.97685000","longitude":"9.53478000"},{"name":"Valvestino","latitude":"45.76069000","longitude":"10.59547000"},{"name":"Vanzaghello","latitude":"45.57964000","longitude":"8.78234000"},{"name":"Vanzago","latitude":"45.52566000","longitude":"8.99097000"},{"name":"Vaprio d'Adda","latitude":"45.57640000","longitude":"9.52407000"},{"name":"Varano Borghi","latitude":"45.77407000","longitude":"8.70403000"},{"name":"Varedo","latitude":"45.59761000","longitude":"9.16323000"},{"name":"Varenna","latitude":"46.01078000","longitude":"9.28465000"},{"name":"Varese","latitude":"45.82058000","longitude":"8.82511000"},{"name":"Varzi","latitude":"44.82297000","longitude":"9.19762000"},{"name":"Vassena","latitude":"45.92998000","longitude":"9.28399000"},{"name":"Vedano Olona","latitude":"45.77570000","longitude":"8.88771000"},{"name":"Vedano al Lambro","latitude":"45.60878000","longitude":"9.26785000"},{"name":"Veddasca","latitude":"46.07058000","longitude":"8.79873000"},{"name":"Vedeseta","latitude":"45.89102000","longitude":"9.53927000"},{"name":"Veduggio Con Colzano","latitude":"45.73388000","longitude":"9.27024000"},{"name":"Velasca","latitude":"45.63165000","longitude":"9.35519000"},{"name":"Veleso","latitude":"45.90875000","longitude":"9.18090000"},{"name":"Velezzo Lomellina","latitude":"45.16336000","longitude":"8.73724000"},{"name":"Vellezzo Bellini","latitude":"45.26948000","longitude":"9.10088000"},{"name":"Vendrogno","latitude":"46.03439000","longitude":"9.32944000"},{"name":"Venegono Inferiore","latitude":"45.73569000","longitude":"8.89545000"},{"name":"Venegono Superiore","latitude":"45.75246000","longitude":"8.89734000"},{"name":"Veniano","latitude":"45.71629000","longitude":"8.98501000"},{"name":"Verano Brianza","latitude":"45.68868000","longitude":"9.22454000"},{"name":"Vercana","latitude":"46.15949000","longitude":"9.33514000"},{"name":"Verceia","latitude":"46.19869000","longitude":"9.45474000"},{"name":"Vercurago","latitude":"45.80943000","longitude":"9.42211000"},{"name":"Verdellino","latitude":"45.60108000","longitude":"9.60805000"},{"name":"Verdello","latitude":"45.60372000","longitude":"9.62852000"},{"name":"Verderio Inferiore","latitude":"45.66558000","longitude":"9.43345000"},{"name":"Verderio Superiore","latitude":"45.66778000","longitude":"9.44035000"},{"name":"Vergano-Villa","latitude":"45.79416000","longitude":"9.37460000"},{"name":"Vergiate","latitude":"45.72210000","longitude":"8.69530000"},{"name":"Vermezzo","latitude":"45.39627000","longitude":"8.97904000"},{"name":"Vernate","latitude":"45.31589000","longitude":"9.06045000"},{"name":"Verolanuova","latitude":"45.32834000","longitude":"10.07857000"},{"name":"Verolavecchia","latitude":"45.32862000","longitude":"10.05493000"},{"name":"Verretto","latitude":"45.03976000","longitude":"9.11315000"},{"name":"Verrua Po","latitude":"45.10686000","longitude":"9.17535000"},{"name":"Vertemate Con Minoprio","latitude":"45.72518000","longitude":"9.07300000"},{"name":"Vertova","latitude":"45.81000000","longitude":"9.84944000"},{"name":"Vervio","latitude":"46.25285000","longitude":"10.24056000"},{"name":"Vescovato","latitude":"45.17419000","longitude":"10.16451000"},{"name":"Vestone","latitude":"45.70783000","longitude":"10.39611000"},{"name":"Vestreno","latitude":"46.08329000","longitude":"9.32484000"},{"name":"Vezza d'Oglio","latitude":"46.23867000","longitude":"10.39825000"},{"name":"Viadana","latitude":"44.93553000","longitude":"10.51898000"},{"name":"Viadanica","latitude":"45.68468000","longitude":"9.96146000"},{"name":"Vicomoscano","latitude":"44.97476000","longitude":"10.45045000"},{"name":"Vidalengo","latitude":"45.52235000","longitude":"9.64128000"},{"name":"Vidardo","latitude":"45.25667000","longitude":"9.40241000"},{"name":"Vidigulfo","latitude":"45.29245000","longitude":"9.23498000"},{"name":"Vigano San Martino","latitude":"45.72608000","longitude":"9.89616000"},{"name":"Viganò","latitude":"45.72468000","longitude":"9.32494000"},{"name":"Vigevano","latitude":"45.31407000","longitude":"8.85437000"},{"name":"Viggiù","latitude":"45.87096000","longitude":"8.90861000"},{"name":"Vighignolo","latitude":"45.49542000","longitude":"9.04308000"},{"name":"Vighizzolo","latitude":"45.43524000","longitude":"10.35507000"},{"name":"Vigliano-Bettolino","latitude":"45.43272000","longitude":"9.34422000"},{"name":"Vignate","latitude":"45.49939000","longitude":"9.37719000"},{"name":"Vignola","latitude":"46.08815000","longitude":"9.27456000"},{"name":"Vigolo","latitude":"45.71642000","longitude":"10.02634000"},{"name":"Vigonzone","latitude":"45.27350000","longitude":"9.30980000"},{"name":"Vill'Albese","latitude":"45.79684000","longitude":"9.18859000"},{"name":"Villa","latitude":"46.20390000","longitude":"10.13385000"},{"name":"Villa Biscossi","latitude":"45.09066000","longitude":"8.78715000"},{"name":"Villa Carcina","latitude":"45.63329000","longitude":"10.19556000"},{"name":"Villa Cortese","latitude":"45.56666000","longitude":"8.88712000"},{"name":"Villa Fornace","latitude":"44.97194000","longitude":"9.25215000"},{"name":"Villa Guardia","latitude":"45.77505000","longitude":"9.02321000"},{"name":"Villa Pedergnano","latitude":"45.58528000","longitude":"9.99381000"},{"name":"Villa Poma","latitude":"45.00238000","longitude":"11.11450000"},{"name":"Villa Raverio","latitude":"45.69189000","longitude":"9.26239000"},{"name":"Villa d'Adda","latitude":"45.71398000","longitude":"9.46165000"},{"name":"Villa d'Almè","latitude":"45.74843000","longitude":"9.61702000"},{"name":"Villa d'Ogna","latitude":"45.90469000","longitude":"9.93085000"},{"name":"Villa d'Oneta","latitude":"45.87074000","longitude":"9.81929000"},{"name":"Villa di Chiavenna","latitude":"46.33069000","longitude":"9.48114000"},{"name":"Villa di Serio","latitude":"45.72260000","longitude":"9.73522000"},{"name":"Villachiara","latitude":"45.35445000","longitude":"9.93081000"},{"name":"Villaggio Residenziale","latitude":"45.52826000","longitude":"9.46737000"},{"name":"Villaggio del Sole","latitude":"45.61398000","longitude":"9.10725000"},{"name":"Villanova","latitude":"45.64027000","longitude":"9.39187000"},{"name":"Villanova d'Ardenghi","latitude":"45.17049000","longitude":"9.04078000"},{"name":"Villanova del Sillaro","latitude":"45.23797000","longitude":"9.48186000"},{"name":"Villanterio","latitude":"45.21780000","longitude":"9.36100000"},{"name":"Villanuova","latitude":"45.44245000","longitude":"9.86690000"},{"name":"Villanuova sul Clisi","latitude":"45.59938000","longitude":"10.45275000"},{"name":"Villapinta","latitude":"46.17508000","longitude":"9.67950000"},{"name":"Villasanta","latitude":"45.60634000","longitude":"9.30797000"},{"name":"Villassio","latitude":"45.86313000","longitude":"9.84466000"},{"name":"Villimpenta","latitude":"45.14111000","longitude":"11.03170000"},{"name":"Villongo","latitude":"45.66939000","longitude":"9.93076000"},{"name":"Vilminore","latitude":"45.99795000","longitude":"10.09531000"},{"name":"Vilminore di Scalve","latitude":"45.99819000","longitude":"10.09376000"},{"name":"Vimercate","latitude":"45.61545000","longitude":"9.36801000"},{"name":"Vimodrone","latitude":"45.51461000","longitude":"9.28772000"},{"name":"Vione","latitude":"46.24808000","longitude":"10.44842000"},{"name":"Visano","latitude":"45.31684000","longitude":"10.37092000"},{"name":"Vistarino","latitude":"45.21077000","longitude":"9.30825000"},{"name":"Vittuone","latitude":"45.48792000","longitude":"8.95141000"},{"name":"Vizzola Ticino","latitude":"45.62615000","longitude":"8.69651000"},{"name":"Vizzolo Predabissi","latitude":"45.35587000","longitude":"9.34815000"},{"name":"Vobarno","latitude":"45.64153000","longitude":"10.49866000"},{"name":"Voghera","latitude":"44.99151000","longitude":"9.01175000"},{"name":"Volongo","latitude":"45.21155000","longitude":"10.30242000"},{"name":"Volpara","latitude":"44.95379000","longitude":"9.29750000"},{"name":"Volta Mantovana","latitude":"45.32192000","longitude":"10.65891000"},{"name":"Voltido","latitude":"45.11197000","longitude":"10.33298000"},{"name":"Zandobbio","latitude":"45.68613000","longitude":"9.85785000"},{"name":"Zanica","latitude":"45.64088000","longitude":"9.68566000"},{"name":"Zavattarello","latitude":"44.86766000","longitude":"9.26662000"},{"name":"Zeccone","latitude":"45.25787000","longitude":"9.20115000"},{"name":"Zelbio","latitude":"45.90458000","longitude":"9.18054000"},{"name":"Zelo Buon Persico","latitude":"45.41170000","longitude":"9.43171000"},{"name":"Zelo Surrigone","latitude":"45.38767000","longitude":"8.98504000"},{"name":"Zeme","latitude":"45.19686000","longitude":"8.66733000"},{"name":"Zenevredo","latitude":"45.05391000","longitude":"9.32667000"},{"name":"Zerbo","latitude":"45.11046000","longitude":"9.39606000"},{"name":"Zerbolò","latitude":"45.20676000","longitude":"9.01441000"},{"name":"Zibido San Giacomo","latitude":"45.36041000","longitude":"9.11119000"},{"name":"Zinasco Vecchio","latitude":"45.12836000","longitude":"9.02975000"},{"name":"Zoccorino-Vergo","latitude":"45.69735000","longitude":"9.25377000"},{"name":"Zogno","latitude":"45.79378000","longitude":"9.65992000"},{"name":"Zone","latitude":"45.76339000","longitude":"10.11586000"},{"name":"Zorlesco","latitude":"45.20035000","longitude":"9.61603000"},{"name":"Abbadia Cerreto","latitude":"45.31217000","longitude":"9.59416000"},{"name":"Abbadia Lariana","latitude":"45.89947000","longitude":"9.33518000"},{"name":"Abbazia","latitude":"45.74800000","longitude":"9.84205000"},{"name":"Abbiategrasso","latitude":"45.39821000","longitude":"8.91678000"},{"name":"Acquafredda","latitude":"45.30697000","longitude":"10.41343000"},{"name":"Acquanegra Cremonese","latitude":"45.16864000","longitude":"9.89074000"},{"name":"Acquanegra sul Chiese","latitude":"45.16404000","longitude":"10.43323000"},{"name":"Adrara San Martino","latitude":"45.70228000","longitude":"9.94896000"},{"name":"Adrara San Rocco","latitude":"45.71578000","longitude":"9.95906000"},{"name":"Adro","latitude":"45.62059000","longitude":"9.96159000"},{"name":"Agnadello","latitude":"45.44516000","longitude":"9.55408000"},{"name":"Agnosine","latitude":"45.64969000","longitude":"10.35267000"},{"name":"Agra","latitude":"46.03668000","longitude":"8.76833000"},{"name":"Agrate Brianza","latitude":"45.57431000","longitude":"9.34793000"},{"name":"Aicurzio","latitude":"45.63998000","longitude":"9.41495000"},{"name":"Airuno","latitude":"45.75352000","longitude":"9.42765000"},{"name":"Alagna","latitude":"45.16917000","longitude":"8.88947000"},{"name":"Albairate","latitude":"45.41957000","longitude":"8.93744000"},{"name":"Albano Sant'Alessandro","latitude":"45.68762000","longitude":"9.76651000"},{"name":"Albaredo","latitude":"46.10293000","longitude":"9.59046000"},{"name":"Albaredo Arnaboldi","latitude":"45.10666000","longitude":"9.24296000"},{"name":"Albavilla","latitude":"45.80038000","longitude":"9.18504000"},{"name":"Albese Con Cassano","latitude":"45.79488000","longitude":"9.16364000"},{"name":"Albiate","latitude":"45.65537000","longitude":"9.25035000"},{"name":"Albignano","latitude":"45.50054000","longitude":"9.49299000"},{"name":"Albino","latitude":"45.76444000","longitude":"9.79904000"},{"name":"Albiolo","latitude":"45.80558000","longitude":"8.93924000"},{"name":"Albizzate","latitude":"45.72698000","longitude":"8.80312000"},{"name":"Albonese","latitude":"45.29285000","longitude":"8.70615000"},{"name":"Albosaggia","latitude":"46.14749000","longitude":"9.85405000"},{"name":"Albuzzano","latitude":"45.18719000","longitude":"9.27383000"},{"name":"Alfianello","latitude":"45.26698000","longitude":"10.14817000"},{"name":"Algua","latitude":"45.82584000","longitude":"9.72225000"},{"name":"Almenno San Bartolomeo","latitude":"45.73912000","longitude":"9.58082000"},{"name":"Almenno San Salvatore","latitude":"45.74971000","longitude":"9.59699000"},{"name":"Almè","latitude":"45.73883000","longitude":"9.61558000"},{"name":"Alserio","latitude":"45.77888000","longitude":"9.20014000"},{"name":"Alzano Lombardo","latitude":"45.73681000","longitude":"9.72638000"},{"name":"Alzate Brianza","latitude":"45.76978000","longitude":"9.18204000"},{"name":"Ambivere","latitude":"45.71958000","longitude":"9.55015000"},{"name":"Andalo Valtellino","latitude":"46.13599000","longitude":"9.47384000"},{"name":"Anfo","latitude":"45.76575000","longitude":"10.49382000"},{"name":"Angera","latitude":"45.77555000","longitude":"8.57861000"},{"name":"Angolo Terme","latitude":"45.89168000","longitude":"10.14963000"},{"name":"Annicco","latitude":"45.24344000","longitude":"9.87905000"},{"name":"Annone di Brianza","latitude":"45.80216000","longitude":"9.33119000"},{"name":"Antegnate","latitude":"45.48648000","longitude":"9.79146000"},{"name":"Anzano del Parco","latitude":"45.77006000","longitude":"9.19752000"},{"name":"Appiano Gentile","latitude":"45.73499000","longitude":"8.98103000"},{"name":"Aprica","latitude":"46.15220000","longitude":"10.14884000"},{"name":"Arcene","latitude":"45.57717000","longitude":"9.61461000"},{"name":"Arcisate","latitude":"45.85578000","longitude":"8.86823000"},{"name":"Arconate","latitude":"45.54134000","longitude":"8.84891000"},{"name":"Arcore","latitude":"45.62675000","longitude":"9.32454000"},{"name":"Ardenno","latitude":"46.16714000","longitude":"9.64729000"},{"name":"Ardesio","latitude":"45.93613000","longitude":"9.92950000"},{"name":"Ardole San Marino","latitude":"45.15633000","longitude":"10.10546000"},{"name":"Arena Po","latitude":"45.09427000","longitude":"9.36312000"},{"name":"Arese","latitude":"45.55048000","longitude":"9.07741000"},{"name":"Argegno","latitude":"45.94218000","longitude":"9.12635000"},{"name":"Arlate","latitude":"45.72363000","longitude":"9.44242000"},{"name":"Arluno","latitude":"45.50344000","longitude":"8.94222000"},{"name":"Arosio","latitude":"45.71933000","longitude":"9.20816000"},{"name":"Arsago Seprio","latitude":"45.68764000","longitude":"8.73509000"},{"name":"Artogne","latitude":"45.85437000","longitude":"10.16646000"},{"name":"Arzago d'Adda","latitude":"45.48137000","longitude":"9.56415000"},{"name":"Asola","latitude":"45.22018000","longitude":"10.41214000"},{"name":"Assago","latitude":"45.40887000","longitude":"9.12565000"},{"name":"Asso","latitude":"45.86061000","longitude":"9.26730000"},{"name":"Aurogna","latitude":"46.17147000","longitude":"9.35536000"},{"name":"Averara","latitude":"45.98847000","longitude":"9.63160000"},{"name":"Aviatico","latitude":"45.79758000","longitude":"9.77145000"},{"name":"Azzanello","latitude":"45.31312000","longitude":"9.91973000"},{"name":"Azzano","latitude":"45.98096000","longitude":"9.20284000"},{"name":"Azzano Mella","latitude":"45.45458000","longitude":"10.11717000"},{"name":"Azzano San Paolo","latitude":"45.65798000","longitude":"9.67305000"},{"name":"Azzate","latitude":"45.77803000","longitude":"8.79414000"},{"name":"Azzio","latitude":"45.88468000","longitude":"8.70853000"},{"name":"Azzone","latitude":"45.97903000","longitude":"10.11284000"},{"name":"Badalasco","latitude":"45.54217000","longitude":"9.55494000"},{"name":"Badia Pavese","latitude":"45.12087000","longitude":"9.46866000"},{"name":"Badile","latitude":"45.35061000","longitude":"9.12705000"},{"name":"Bagnaria","latitude":"44.82726000","longitude":"9.12256000"},{"name":"Bagnatica","latitude":"45.66088000","longitude":"9.78106000"},{"name":"Bagnolo Cremasco","latitude":"45.36117000","longitude":"9.61296000"},{"name":"Bagnolo Mella","latitude":"45.42765000","longitude":"10.18638000"},{"name":"Bagnolo San Vito","latitude":"45.08892000","longitude":"10.87747000"},{"name":"Bagolino","latitude":"45.82519000","longitude":"10.46183000"},{"name":"Ballabio","latitude":"45.89629000","longitude":"9.42294000"},{"name":"Baraggia","latitude":"45.85516000","longitude":"8.90885000"},{"name":"Baranzate","latitude":"45.52717000","longitude":"9.11724000"},{"name":"Barasso","latitude":"45.84048000","longitude":"8.75683000"},{"name":"Barbariga","latitude":"45.40508000","longitude":"10.05437000"},{"name":"Barbata","latitude":"45.47498000","longitude":"9.77736000"},{"name":"Barbianello","latitude":"45.07571000","longitude":"9.20602000"},{"name":"Bardello","latitude":"45.83597000","longitude":"8.69683000"},{"name":"Bareggio","latitude":"45.47927000","longitude":"8.99789000"},{"name":"Bargano","latitude":"45.24031000","longitude":"9.44689000"},{"name":"Barghe","latitude":"45.67833000","longitude":"10.40775000"},{"name":"Bariano","latitude":"45.51258000","longitude":"9.70366000"},{"name":"Barlassina","latitude":"45.65558000","longitude":"9.12878000"},{"name":"Barni","latitude":"45.91111000","longitude":"9.26592000"},{"name":"Barzago","latitude":"45.75548000","longitude":"9.31424000"},{"name":"Barzana","latitude":"45.73340000","longitude":"9.56842000"},{"name":"Barzanò","latitude":"45.73257000","longitude":"9.31360000"},{"name":"Barzio","latitude":"45.94349000","longitude":"9.46694000"},{"name":"Bascapè","latitude":"45.30598000","longitude":"9.31397000"},{"name":"Basiano","latitude":"45.58248000","longitude":"9.46325000"},{"name":"Basiglio","latitude":"45.35917000","longitude":"9.15855000"},{"name":"Bassano Bresciano","latitude":"45.32827000","longitude":"10.12869000"},{"name":"Bastida Pancarana","latitude":"45.08606000","longitude":"9.08515000"},{"name":"Bastida de' Dossi","latitude":"45.03976000","longitude":"8.92155000"},{"name":"Battaglione-Bagnara","latitude":"45.11638000","longitude":"10.06726000"},{"name":"Battuda","latitude":"45.27466000","longitude":"9.07805000"},{"name":"Bedero","latitude":"45.97776000","longitude":"8.71852000"},{"name":"Bedero Valcuvia","latitude":"45.91088000","longitude":"8.79553000"},{"name":"Bedizzole","latitude":"45.51038000","longitude":"10.42327000"},{"name":"Bedulita","latitude":"45.79138000","longitude":"9.55165000"},{"name":"Belforte","latitude":"45.08097000","longitude":"10.56156000"},{"name":"Belgioioso","latitude":"45.15933000","longitude":"9.31347000"},{"name":"Bellagio","latitude":"45.98772000","longitude":"9.26182000"},{"name":"Bellano","latitude":"46.04426000","longitude":"9.30734000"},{"name":"Bellinzago Lombardo","latitude":"45.54207000","longitude":"9.44595000"},{"name":"Bellusco","latitude":"45.61958000","longitude":"9.41905000"},{"name":"Bema","latitude":"46.10819000","longitude":"9.56414000"},{"name":"Bene Lario","latitude":"46.02898000","longitude":"9.18414000"},{"name":"Berbenno","latitude":"45.81478000","longitude":"9.57105000"},{"name":"Berbenno di Valtellina","latitude":"46.16641000","longitude":"9.74734000"},{"name":"Beregazzo","latitude":"45.77019000","longitude":"8.95869000"},{"name":"Beregazzo con Figliaro","latitude":"45.78068000","longitude":"8.94414000"},{"name":"Bereguardo","latitude":"45.25706000","longitude":"9.02735000"},{"name":"Bergamo","latitude":"45.69601000","longitude":"9.66721000"},{"name":"Berlingo","latitude":"45.50281000","longitude":"10.03436000"},{"name":"Bernareggio","latitude":"45.64778000","longitude":"9.40505000"},{"name":"Bernate Ticino","latitude":"45.47873000","longitude":"8.81834000"},{"name":"Bertonico","latitude":"45.23307000","longitude":"9.66806000"},{"name":"Berzo","latitude":"46.09287000","longitude":"10.33303000"},{"name":"Berzo Inferiore","latitude":"45.93027000","longitude":"10.27696000"},{"name":"Berzo San Fermo","latitude":"45.71938000","longitude":"9.90316000"},{"name":"Besana in Brianza","latitude":"45.70235000","longitude":"9.29470000"},{"name":"Besano","latitude":"45.88949000","longitude":"8.89068000"},{"name":"Besate","latitude":"45.31296000","longitude":"8.96964000"},{"name":"Besnate","latitude":"45.69858000","longitude":"8.76734000"},{"name":"Besozzo","latitude":"45.84889000","longitude":"8.66517000"},{"name":"Bettola","latitude":"45.33173000","longitude":"9.02080000"},{"name":"Bettola-Zeloforomagno","latitude":"45.43080000","longitude":"9.30870000"},{"name":"Biandronno","latitude":"45.81281000","longitude":"8.70882000"},{"name":"Bianzano","latitude":"45.77309000","longitude":"9.91816000"},{"name":"Bianzone","latitude":"46.18665000","longitude":"10.10934000"},{"name":"Biassono","latitude":"45.62864000","longitude":"9.27124000"},{"name":"Bienno","latitude":"45.93526000","longitude":"10.29232000"},{"name":"Binago","latitude":"45.78218000","longitude":"8.92234000"},{"name":"Binasco","latitude":"45.33102000","longitude":"9.09440000"},{"name":"Bione","latitude":"45.67279000","longitude":"10.33887000"},{"name":"Bisuschio","latitude":"45.87148000","longitude":"8.86843000"},{"name":"Bizzarone","latitude":"45.83428000","longitude":"8.94274000"},{"name":"Blello","latitude":"45.83778000","longitude":"9.57105000"},{"name":"Blessagno","latitude":"45.95908000","longitude":"9.09754000"},{"name":"Blevio","latitude":"45.84218000","longitude":"9.10514000"},{"name":"Bodio","latitude":"45.78989000","longitude":"8.75146000"},{"name":"Bodio Lomnago","latitude":"45.78867000","longitude":"8.75083000"},{"name":"Boffalora Sopra Ticino","latitude":"45.46735000","longitude":"8.83095000"},{"name":"Boffalora d'Adda","latitude":"45.35851000","longitude":"9.49628000"},{"name":"Bolgare","latitude":"45.63242000","longitude":"9.81412000"},{"name":"Bolladello-Peveranza","latitude":"45.68649000","longitude":"8.84517000"},{"name":"Bollate","latitude":"45.54647000","longitude":"9.12054000"},{"name":"Boltiere","latitude":"45.60088000","longitude":"9.57845000"},{"name":"Bonate Sopra","latitude":"45.68179000","longitude":"9.55956000"},{"name":"Bonate Sotto","latitude":"45.66818000","longitude":"9.55865000"},{"name":"Bondeno","latitude":"44.93569000","longitude":"10.86035000"},{"name":"Bondione","latitude":"46.03541000","longitude":"10.00832000"},{"name":"Bonemerse","latitude":"45.11367000","longitude":"10.07747000"},{"name":"Bordolano","latitude":"45.29170000","longitude":"9.98731000"},{"name":"Borgarello","latitude":"45.24066000","longitude":"9.14055000"},{"name":"Borghetto Lodigiano","latitude":"45.21326000","longitude":"9.49946000"},{"name":"Borgo Priolo","latitude":"44.96632000","longitude":"9.14835000"},{"name":"Borgo San Giacomo","latitude":"45.34798000","longitude":"9.96817000"},{"name":"Borgo San Giovanni","latitude":"45.27787000","longitude":"9.43496000"},{"name":"Borgo San Siro","latitude":"45.23506000","longitude":"8.91334000"},{"name":"Borgo di Terzo","latitude":"45.72078000","longitude":"9.89096000"},{"name":"Borgoforte","latitude":"45.05185000","longitude":"10.75018000"},{"name":"Borgofranco sul Po","latitude":"45.04658000","longitude":"11.20930000"},{"name":"Borgoratto Mormorolo","latitude":"44.92889000","longitude":"9.19402000"},{"name":"Borgosatollo","latitude":"45.47690000","longitude":"10.24030000"},{"name":"Bormio","latitude":"46.46717000","longitude":"10.37008000"},{"name":"Bornasco","latitude":"45.26657000","longitude":"9.21795000"},{"name":"Bornato","latitude":"45.59368000","longitude":"10.04090000"},{"name":"Borno","latitude":"45.94748000","longitude":"10.20243000"},{"name":"Boschetto","latitude":"45.16591000","longitude":"10.02656000"},{"name":"Bosco Ex Parmigiano","latitude":"45.10697000","longitude":"10.03870000"},{"name":"Bosisio Parini","latitude":"45.80075000","longitude":"9.29000000"},{"name":"Bosnasco","latitude":"45.06400000","longitude":"9.35692000"},{"name":"Bossico","latitude":"45.82839000","longitude":"10.04506000"},{"name":"Botta","latitude":"45.83222000","longitude":"9.53257000"},{"name":"Bottanuco","latitude":"45.63931000","longitude":"9.50903000"},{"name":"Botticino","latitude":"45.52972000","longitude":"10.31085000"},{"name":"Bovegno","latitude":"45.79121000","longitude":"10.27012000"},{"name":"Bovezzo","latitude":"45.58998000","longitude":"10.24184000"},{"name":"Bovisio-Masciago","latitude":"45.61019000","longitude":"9.15301000"},{"name":"Bozzolo","latitude":"45.10324000","longitude":"10.47988000"},{"name":"Bracca","latitude":"45.82267000","longitude":"9.70784000"},{"name":"Brandico","latitude":"45.45418000","longitude":"10.05267000"},{"name":"Branzi","latitude":"46.00249000","longitude":"9.75935000"},{"name":"Braone","latitude":"45.99011000","longitude":"10.34178000"},{"name":"Brebbia","latitude":"45.82983000","longitude":"8.65042000"},{"name":"Bregano","latitude":"45.82578000","longitude":"8.68773000"},{"name":"Bregnano","latitude":"45.69778000","longitude":"9.05934000"},{"name":"Brembate","latitude":"45.60468000","longitude":"9.55480000"},{"name":"Brembate di Sopra","latitude":"45.71668000","longitude":"9.57945000"},{"name":"Brembilla","latitude":"45.82154000","longitude":"9.59679000"},{"name":"Brembio","latitude":"45.21234000","longitude":"9.57244000"},{"name":"Breme","latitude":"45.12756000","longitude":"8.62564000"},{"name":"Brenna","latitude":"45.74338000","longitude":"9.18657000"},{"name":"Brenno Useria","latitude":"45.86148000","longitude":"8.87801000"},{"name":"Breno","latitude":"45.95889000","longitude":"10.30648000"},{"name":"Brenta","latitude":"45.89418000","longitude":"8.68373000"},{"name":"Brescia","latitude":"45.53558000","longitude":"10.21472000"},{"name":"Bressana","latitude":"45.07807000","longitude":"9.13119000"},{"name":"Bresso","latitude":"45.53792000","longitude":"9.18921000"},{"name":"Brezzo di Bedero","latitude":"45.97838000","longitude":"8.71743000"},{"name":"Brienno","latitude":"45.91175000","longitude":"9.13142000"},{"name":"Brignano Gera d'Adda","latitude":"45.54324000","longitude":"9.64424000"},{"name":"Brinzio","latitude":"45.88914000","longitude":"8.78683000"},{"name":"Brione","latitude":"45.64228000","longitude":"10.14846000"},{"name":"Briosco","latitude":"45.71008000","longitude":"9.24064000"},{"name":"Brissago-Valtravaglia","latitude":"45.94921000","longitude":"8.74590000"},{"name":"Brivio","latitude":"45.73725000","longitude":"9.44249000"},{"name":"Brongio","latitude":"45.76535000","longitude":"9.31251000"},{"name":"Broni","latitude":"45.06394000","longitude":"9.25993000"},{"name":"Brozzo","latitude":"45.72019000","longitude":"10.23092000"},{"name":"Brugherio","latitude":"45.55301000","longitude":"9.29907000"},{"name":"Brumano","latitude":"45.85463000","longitude":"9.50064000"},{"name":"Brunate","latitude":"45.82096000","longitude":"9.09869000"},{"name":"Brunello","latitude":"45.76497000","longitude":"8.79533000"},{"name":"Brusaporto","latitude":"45.67140000","longitude":"9.76041000"},{"name":"Brusimpiano","latitude":"45.94468000","longitude":"8.88953000"},{"name":"Bubbiano","latitude":"45.32727000","longitude":"9.01455000"},{"name":"Buccinasco","latitude":"45.40703000","longitude":"9.10830000"},{"name":"Buffalora-Bettole","latitude":"45.49681000","longitude":"10.27518000"},{"name":"Buglio in Monte","latitude":"46.18336000","longitude":"9.67542000"},{"name":"Buguggiate","latitude":"45.78227000","longitude":"8.81063000"},{"name":"Bulciago","latitude":"45.75058000","longitude":"9.28534000"},{"name":"Bulgarograsso","latitude":"45.74708000","longitude":"9.00644000"},{"name":"Bulgorello","latitude":"45.72433000","longitude":"9.05524000"},{"name":"Burago di Molgora","latitude":"45.59648000","longitude":"9.38165000"},{"name":"Buscate","latitude":"45.54353000","longitude":"8.81297000"},{"name":"Buscoldo","latitude":"45.09430000","longitude":"10.69581000"},{"name":"Busnago","latitude":"45.61648000","longitude":"9.46375000"},{"name":"Bussero","latitude":"45.53407000","longitude":"9.37205000"},{"name":"Busto Arsizio","latitude":"45.61128000","longitude":"8.84914000"},{"name":"Busto Garolfo","latitude":"45.54809000","longitude":"8.88298000"},{"name":"Ca' d'Andrea","latitude":"45.11957000","longitude":"10.27748000"},{"name":"Cabiate","latitude":"45.67418000","longitude":"9.17374000"},{"name":"Cadegliano-Viconago","latitude":"45.95948000","longitude":"8.84343000"},{"name":"Cadenabbia","latitude":"45.98861000","longitude":"9.23615000"},{"name":"Cadorago-Caslino al Piano","latitude":"45.72728000","longitude":"9.03784000"},{"name":"Cadrezzate","latitude":"45.79927000","longitude":"8.64333000"},{"name":"Caglio","latitude":"45.87146000","longitude":"9.23719000"},{"name":"Cagno","latitude":"45.81108000","longitude":"8.91733000"},{"name":"Caino","latitude":"45.60939000","longitude":"10.31317000"},{"name":"Caiolo","latitude":"46.14999000","longitude":"9.81455000"},{"name":"Cairate","latitude":"45.68750000","longitude":"8.86807000"},{"name":"Calchera-Frontale","latitude":"45.83415000","longitude":"9.51155000"},{"name":"Calcinate","latitude":"45.61975000","longitude":"9.79843000"},{"name":"Calcinato","latitude":"45.45739000","longitude":"10.40949000"},{"name":"Calcio","latitude":"45.50826000","longitude":"9.84902000"},{"name":"Calco","latitude":"45.72418000","longitude":"9.41255000"},{"name":"Caleppio","latitude":"45.43436000","longitude":"9.38250000"},{"name":"Calolziocorte","latitude":"45.79538000","longitude":"9.43765000"},{"name":"Calozzo","latitude":"46.10055000","longitude":"9.27531000"},{"name":"Calusco d'Adda","latitude":"45.68841000","longitude":"9.47109000"},{"name":"Calvagese della Riviera","latitude":"45.53922000","longitude":"10.44605000"},{"name":"Calvatone","latitude":"45.12697000","longitude":"10.44057000"},{"name":"Calvenzano","latitude":"45.49621000","longitude":"9.59953000"},{"name":"Calvignano","latitude":"44.98306000","longitude":"9.16876000"},{"name":"Calvignasco","latitude":"45.32597000","longitude":"9.02775000"},{"name":"Calvisano","latitude":"45.34529000","longitude":"10.34266000"},{"name":"Calò","latitude":"45.67908000","longitude":"9.26309000"},{"name":"Camairago","latitude":"45.20527000","longitude":"9.72746000"},{"name":"Cambiago","latitude":"45.58035000","longitude":"9.43528000"},{"name":"Camerata Cornello","latitude":"45.89956000","longitude":"9.65569000"},{"name":"Camisano","latitude":"45.44484000","longitude":"9.74526000"},{"name":"Camnago-Boscone","latitude":"45.80472000","longitude":"8.97934000"},{"name":"Camoneone","latitude":"45.78547000","longitude":"9.56910000"},{"name":"Campagnola Cremasca","latitude":"45.39847000","longitude":"9.66946000"},{"name":"Camparada","latitude":"45.65489000","longitude":"9.32328000"},{"name":"Campione","latitude":"45.96818000","longitude":"8.97181000"},{"name":"Campitello","latitude":"45.08750000","longitude":"10.60632000"},{"name":"Campodolcino","latitude":"46.40290000","longitude":"9.35185000"},{"name":"Campofiorenzo-California","latitude":"45.66768000","longitude":"9.31708000"},{"name":"Campospinoso","latitude":"45.09403000","longitude":"9.24585000"},{"name":"Candia Lomellina","latitude":"45.17670000","longitude":"8.59550000"},{"name":"Canegrate","latitude":"45.56825000","longitude":"8.92689000"},{"name":"Canneto","latitude":"45.05116000","longitude":"9.28101000"},{"name":"Canneto Pavese","latitude":"45.05046000","longitude":"9.27876000"},{"name":"Canneto sull'Oglio","latitude":"45.15163000","longitude":"10.38282000"},{"name":"Canonica","latitude":"45.65587000","longitude":"9.28749000"},{"name":"Canonica d'Adda","latitude":"45.57568000","longitude":"9.54165000"},{"name":"Canova-San Zeno","latitude":"45.72116000","longitude":"9.40030000"},{"name":"Cantalupo","latitude":"45.57813000","longitude":"8.98261000"},{"name":"Cantello","latitude":"45.82248000","longitude":"8.89593000"},{"name":"Cantù","latitude":"45.74096000","longitude":"9.13084000"},{"name":"Canzo","latitude":"45.84867000","longitude":"9.27063000"},{"name":"Capergnanica","latitude":"45.33869000","longitude":"9.64475000"},{"name":"Capiago-Intimiano-Olmeda","latitude":"45.76898000","longitude":"9.12764000"},{"name":"Capo di Ponte","latitude":"46.03000000","longitude":"10.34283000"},{"name":"Caponago","latitude":"45.56647000","longitude":"9.37585000"},{"name":"Capovalle","latitude":"45.75339000","longitude":"10.54447000"},{"name":"Cappella Cantone","latitude":"45.24657000","longitude":"9.83826000"},{"name":"Cappella de' Picenardi","latitude":"45.15857000","longitude":"10.22998000"},{"name":"Cappelletta","latitude":"45.10514000","longitude":"10.77847000"},{"name":"Capralba","latitude":"45.44352000","longitude":"9.64417000"},{"name":"Capriano","latitude":"45.72298000","longitude":"9.25526000"},{"name":"Capriano del Colle","latitude":"45.47478000","longitude":"10.13227000"},{"name":"Capriate San Gervasio","latitude":"45.61281000","longitude":"9.52974000"},{"name":"Caprino","latitude":"45.74903000","longitude":"9.49235000"},{"name":"Capriolo","latitude":"45.63333000","longitude":"9.93189000"},{"name":"Carate Brianza","latitude":"45.67574000","longitude":"9.23723000"},{"name":"Carate Urio","latitude":"45.87178000","longitude":"9.12214000"},{"name":"Caravaggio","latitude":"45.49627000","longitude":"9.64165000"},{"name":"Caravate","latitude":"45.87862000","longitude":"8.65431000"},{"name":"Carbonara al Ticino","latitude":"45.16374000","longitude":"9.06490000"},{"name":"Carbonara di Po","latitude":"45.03537000","longitude":"11.22923000"},{"name":"Carbonate","latitude":"45.68507000","longitude":"8.93814000"},{"name":"Cardano al Campo","latitude":"45.64887000","longitude":"8.76933000"},{"name":"Carenno","latitude":"45.80155000","longitude":"9.46301000"},{"name":"Carimate","latitude":"45.70659000","longitude":"9.10751000"},{"name":"Carlazzo","latitude":"46.04222000","longitude":"9.16498000"},{"name":"Carnago","latitude":"45.72207000","longitude":"8.83423000"},{"name":"Carnate","latitude":"45.64843000","longitude":"9.37813000"},{"name":"Carobbio","latitude":"45.66424000","longitude":"9.83027000"},{"name":"Carobbio degli Angeli","latitude":"45.66518000","longitude":"9.82916000"},{"name":"Carona","latitude":"46.02149000","longitude":"9.78494000"},{"name":"Caronno Pertusella","latitude":"45.59777000","longitude":"9.04634000"},{"name":"Caronno Varesino","latitude":"45.73577000","longitude":"8.83173000"},{"name":"Carpenedolo","latitude":"45.36169000","longitude":"10.43124000"},{"name":"Carpiano","latitude":"45.34027000","longitude":"9.27401000"},{"name":"Carugate","latitude":"45.54983000","longitude":"9.34044000"},{"name":"Carugo","latitude":"45.70848000","longitude":"9.19684000"},{"name":"Carvico","latitude":"45.70193000","longitude":"9.48580000"},{"name":"Carzago Riviera","latitude":"45.52440000","longitude":"10.46052000"},{"name":"Casa Ponte","latitude":"44.87777000","longitude":"9.16509000"},{"name":"Casalbuttano","latitude":"45.25187000","longitude":"9.96167000"},{"name":"Casale Cremasco","latitude":"45.43187000","longitude":"9.71416000"},{"name":"Casale Litta","latitude":"45.76787000","longitude":"8.74133000"},{"name":"Casaletto Ceredano","latitude":"45.31831000","longitude":"9.61701000"},{"name":"Casaletto Lodigiano","latitude":"45.29337000","longitude":"9.36194000"},{"name":"Casaletto Vaprio","latitude":"45.40817000","longitude":"9.62876000"},{"name":"Casaletto di Sopra","latitude":"45.41918000","longitude":"9.78256000"},{"name":"Casalmaggiore","latitude":"44.98981000","longitude":"10.42055000"},{"name":"Casalmaiocco","latitude":"45.35238000","longitude":"9.37088000"},{"name":"Casalmorano","latitude":"45.28766000","longitude":"9.89860000"},{"name":"Casalmoro","latitude":"45.26115000","longitude":"10.41118000"},{"name":"Casaloldo","latitude":"45.25436000","longitude":"10.47691000"},{"name":"Casalpusterlengo","latitude":"45.17921000","longitude":"9.64834000"},{"name":"Casalromano","latitude":"45.19808000","longitude":"10.36640000"},{"name":"Casalzuigno","latitude":"45.90508000","longitude":"8.70883000"},{"name":"Casanova Lonati","latitude":"45.09446000","longitude":"9.21345000"},{"name":"Casargo","latitude":"46.03950000","longitude":"9.38717000"},{"name":"Casarile","latitude":"45.31683000","longitude":"9.10383000"},{"name":"Casasco Intelvi","latitude":"45.94368000","longitude":"9.07574000"},{"name":"Casate","latitude":"45.49203000","longitude":"8.82776000"},{"name":"Casatenovo","latitude":"45.69514000","longitude":"9.31338000"},{"name":"Casatisma","latitude":"45.04569000","longitude":"9.13099000"},{"name":"Casazza","latitude":"45.74855000","longitude":"9.90627000"},{"name":"Casciago","latitude":"45.83248000","longitude":"8.78333000"},{"name":"Cascina Elisa","latitude":"45.60425000","longitude":"8.79978000"},{"name":"Casco","latitude":"45.71078000","longitude":"9.82483000"},{"name":"Case Nuove","latitude":"45.60998000","longitude":"10.39416000"},{"name":"Casei","latitude":"45.00756000","longitude":"8.92675000"},{"name":"Caselle Landi","latitude":"45.10257000","longitude":"9.79557000"},{"name":"Caselle Lurani","latitude":"45.28044000","longitude":"9.36016000"},{"name":"Caseo","latitude":"44.94369000","longitude":"9.27504000"},{"name":"Casirate d'Adda","latitude":"45.49535000","longitude":"9.56932000"},{"name":"Caslino d'Erba","latitude":"45.83899000","longitude":"9.22554000"},{"name":"Casnate Con Bernate","latitude":"45.75628000","longitude":"9.07264000"},{"name":"Casnigo","latitude":"45.81307000","longitude":"9.86878000"},{"name":"Casone","latitude":"45.49818000","longitude":"8.87635000"},{"name":"Casorate Primo","latitude":"45.31142000","longitude":"9.01703000"},{"name":"Casorate Sempione","latitude":"45.67079000","longitude":"8.74513000"},{"name":"Casorezzo","latitude":"45.52265000","longitude":"8.90186000"},{"name":"Caspoggio","latitude":"46.26424000","longitude":"9.86165000"},{"name":"Cassago Brianza","latitude":"45.73808000","longitude":"9.29344000"},{"name":"Cassano Magnago","latitude":"45.67206000","longitude":"8.82691000"},{"name":"Cassano Valcuvia","latitude":"45.93238000","longitude":"8.76843000"},{"name":"Cassano d'Adda","latitude":"45.52637000","longitude":"9.51528000"},{"name":"Cassiglio","latitude":"45.96679000","longitude":"9.61215000"},{"name":"Cassina Rizzardi","latitude":"45.75228000","longitude":"9.02454000"},{"name":"Cassina Valsassina","latitude":"45.93209000","longitude":"9.47894000"},{"name":"Cassina de' Pecchi","latitude":"45.51637000","longitude":"9.35975000"},{"name":"Cassinetta di Lugagnano","latitude":"45.42247000","longitude":"8.90604000"},{"name":"Cassino d'Alberi","latitude":"45.39208000","longitude":"9.39090000"},{"name":"Cassolnovo","latitude":"45.36106000","longitude":"8.81230000"},{"name":"Castana","latitude":"45.02676000","longitude":"9.27246000"},{"name":"Castano Primo","latitude":"45.55175000","longitude":"8.77562000"},{"name":"Casteggio","latitude":"45.01396000","longitude":"9.12528000"},{"name":"Castegnato","latitude":"45.56129000","longitude":"10.11449000"},{"name":"Castel Gabbiano","latitude":"45.46847000","longitude":"9.71765000"},{"name":"Castel Goffredo","latitude":"45.29403000","longitude":"10.47300000"},{"name":"Castel Mella","latitude":"45.49913000","longitude":"10.14553000"},{"name":"Castel Rozzone","latitude":"45.55228000","longitude":"9.61985000"},{"name":"Castel d'Ario","latitude":"45.18798000","longitude":"10.97449000"},{"name":"Castelbelforte","latitude":"45.21208000","longitude":"10.89249000"},{"name":"Castelcovati","latitude":"45.50198000","longitude":"9.94596000"},{"name":"Casteldidone","latitude":"45.07068000","longitude":"10.40581000"},{"name":"Castellanza","latitude":"45.61079000","longitude":"8.89616000"},{"name":"Castelleone","latitude":"45.29579000","longitude":"9.76091000"},{"name":"Castelletto","latitude":"45.33150000","longitude":"10.23335000"},{"name":"Castelletto Po","latitude":"45.06903000","longitude":"9.10056000"},{"name":"Castelletto di Branduzzo","latitude":"45.06936000","longitude":"9.09845000"},{"name":"Castelli Calepio","latitude":"45.61316000","longitude":"9.88540000"},{"name":"Castello","latitude":"45.56954000","longitude":"10.50861000"},{"name":"Castello Cabiaglio","latitude":"45.89358000","longitude":"8.75763000"},{"name":"Castello d'Agogna","latitude":"45.23456000","longitude":"8.68714000"},{"name":"Castello dell'Acqua","latitude":"46.14549000","longitude":"10.01582000"},{"name":"Castello di Brianza","latitude":"45.75928000","longitude":"9.34535000"},{"name":"Castellucchio","latitude":"45.15038000","longitude":"10.64875000"},{"name":"Castelmarte","latitude":"45.83238000","longitude":"9.23304000"},{"name":"Castelnovetto","latitude":"45.25438000","longitude":"8.61142000"},{"name":"Castelnuovo Bocca d'Adda","latitude":"45.11147000","longitude":"9.86359000"},{"name":"Castelnuovo Bozzente","latitude":"45.76458000","longitude":"8.94354000"},{"name":"Castelseprio","latitude":"45.71372000","longitude":"8.86161000"},{"name":"Castelveccana","latitude":"45.94798000","longitude":"8.66633000"},{"name":"Castelverde","latitude":"45.18753000","longitude":"9.99693000"},{"name":"Castelvisconti","latitude":"45.30537000","longitude":"9.94107000"},{"name":"Castenedolo","latitude":"45.47430000","longitude":"10.29131000"},{"name":"Castiglione Olona","latitude":"45.75256000","longitude":"8.87278000"},{"name":"Castiglione d'Adda","latitude":"45.21702000","longitude":"9.69279000"},{"name":"Castiglione d'Intelvi","latitude":"45.95751000","longitude":"9.08987000"},{"name":"Castiglione delle Stiviere","latitude":"45.39020000","longitude":"10.48619000"},{"name":"Castione","latitude":"46.17287000","longitude":"9.80032000"},{"name":"Castione Andevenno","latitude":"46.17279000","longitude":"9.80025000"},{"name":"Castione della Presolana","latitude":"45.91471000","longitude":"10.05540000"},{"name":"Castiraga Vidardo","latitude":"45.25727000","longitude":"9.40456000"},{"name":"Casto","latitude":"45.69489000","longitude":"10.32117000"},{"name":"Castrezzato","latitude":"45.51128000","longitude":"9.98086000"},{"name":"Castro","latitude":"45.80378000","longitude":"10.06590000"},{"name":"Castronno","latitude":"45.74793000","longitude":"8.81442000"},{"name":"Cataeggio","latitude":"46.21447000","longitude":"9.63781000"},{"name":"Cava Manara","latitude":"45.14014000","longitude":"9.10774000"},{"name":"Cavacurta","latitude":"45.18977000","longitude":"9.74186000"},{"name":"Cavallasca","latitude":"45.80958000","longitude":"9.03284000"},{"name":"Cavargna","latitude":"46.09068000","longitude":"9.11205000"},{"name":"Cavaria Con Premezzo","latitude":"45.69247000","longitude":"8.80299000"},{"name":"Cavenago d'Adda","latitude":"45.28253000","longitude":"9.59872000"},{"name":"Cavenago di Brianza","latitude":"45.58297000","longitude":"9.41261000"},{"name":"Cavernago","latitude":"45.62528000","longitude":"9.76556000"},{"name":"Cavriana","latitude":"45.34766000","longitude":"10.59598000"},{"name":"Cazzago Brabbia","latitude":"45.79588000","longitude":"8.73483000"},{"name":"Cazzago San Martino-Calino","latitude":"45.58434000","longitude":"10.02328000"},{"name":"Cazzano Sant'Andrea","latitude":"45.81118000","longitude":"9.88493000"},{"name":"Cecima","latitude":"44.85066000","longitude":"9.08036000"},{"name":"Cedegolo","latitude":"46.07398000","longitude":"10.35141000"},{"name":"Cedessano","latitude":"45.68858000","longitude":"10.43395000"},{"name":"Cedrasco","latitude":"46.14932000","longitude":"9.76803000"},{"name":"Cella Dati","latitude":"45.09527000","longitude":"10.22148000"},{"name":"Cellatica","latitude":"45.58198000","longitude":"10.18017000"},{"name":"Cenate Sopra","latitude":"45.71298000","longitude":"9.82216000"},{"name":"Cenate di Sotto","latitude":"45.69898000","longitude":"9.82636000"},{"name":"Cene","latitude":"45.78062000","longitude":"9.82657000"},{"name":"Cepina","latitude":"46.43609000","longitude":"10.35713000"},{"name":"Cerano d'Intelvi","latitude":"45.94447000","longitude":"9.08767000"},{"name":"Ceranova","latitude":"45.26027000","longitude":"9.24315000"},{"name":"Cercino","latitude":"46.15809000","longitude":"9.50814000"},{"name":"Cerello-Battuello","latitude":"45.44716000","longitude":"8.93105000"},{"name":"Ceresara","latitude":"45.26228000","longitude":"10.56958000"},{"name":"Cerese","latitude":"45.11814000","longitude":"10.78877000"},{"name":"Cerete Alto","latitude":"45.86729000","longitude":"9.99466000"},{"name":"Ceretto Lomellina","latitude":"45.24496000","longitude":"8.67244000"},{"name":"Cergnago","latitude":"45.19826000","longitude":"8.77164000"},{"name":"Ceriano Laghetto","latitude":"45.62928000","longitude":"9.08017000"},{"name":"Cerlongo","latitude":"45.27862000","longitude":"10.64985000"},{"name":"Cermenate","latitude":"45.70198000","longitude":"9.08361000"},{"name":"Cernobbio","latitude":"45.84307000","longitude":"9.07194000"},{"name":"Cernusco Lombardone","latitude":"45.69088000","longitude":"9.39925000"},{"name":"Cernusco sul Naviglio","latitude":"45.52526000","longitude":"9.33297000"},{"name":"Cerro Maggiore","latitude":"45.59366000","longitude":"8.95428000"},{"name":"Cerro al Lambro","latitude":"45.32997000","longitude":"9.33905000"},{"name":"Certosa di Pavia","latitude":"45.25420000","longitude":"9.13290000"},{"name":"Cerveno","latitude":"46.00176000","longitude":"10.32830000"},{"name":"Cervesina","latitude":"45.06054000","longitude":"9.01676000"},{"name":"Cervignano d'Adda","latitude":"45.37387000","longitude":"9.42405000"},{"name":"Cesana Brianza","latitude":"45.81678000","longitude":"9.29954000"},{"name":"Cesano Boscone","latitude":"45.44207000","longitude":"9.09445000"},{"name":"Cesano Maderno","latitude":"45.62915000","longitude":"9.15189000"},{"name":"Cesate","latitude":"45.59587000","longitude":"9.07574000"},{"name":"Ceto","latitude":"46.00259000","longitude":"10.35196000"},{"name":"Cevo","latitude":"46.08089000","longitude":"10.36952000"},{"name":"Chiaravalle","latitude":"45.41731000","longitude":"9.23985000"},{"name":"Chiari","latitude":"45.53763000","longitude":"9.92699000"},{"name":"Chiavenna","latitude":"46.32063000","longitude":"9.39816000"},{"name":"Chiesa","latitude":"45.69011000","longitude":"9.91282000"},{"name":"Chiesa in Valmalenco","latitude":"46.26715000","longitude":"9.84905000"},{"name":"Chieve","latitude":"45.34047000","longitude":"9.61646000"},{"name":"Chignolo Po","latitude":"45.14817000","longitude":"9.48156000"},{"name":"Chignolo d'Isola","latitude":"45.66758000","longitude":"9.52765000"},{"name":"Chiuduno","latitude":"45.65068000","longitude":"9.84946000"},{"name":"Chiuro","latitude":"46.16722000","longitude":"9.98584000"},{"name":"Cicognolo","latitude":"45.16762000","longitude":"10.19407000"},{"name":"Cigognola","latitude":"45.03276000","longitude":"9.24486000"},{"name":"Cigole","latitude":"45.30760000","longitude":"10.18977000"},{"name":"Cilavegna","latitude":"45.31067000","longitude":"8.74469000"},{"name":"Cimbergo","latitude":"46.02410000","longitude":"10.36566000"},{"name":"Cimbro","latitude":"45.73570000","longitude":"8.72050000"},{"name":"Cingia de' Botti","latitude":"45.08507000","longitude":"10.27548000"},{"name":"Cinisello Balsamo","latitude":"45.55823000","longitude":"9.21495000"},{"name":"Cino","latitude":"46.15843000","longitude":"9.48534000"},{"name":"Cirimido","latitude":"45.69978000","longitude":"9.01254000"},{"name":"Cisano Bergamasco","latitude":"45.74200000","longitude":"9.47146000"},{"name":"Ciserano","latitude":"45.58792000","longitude":"9.60115000"},{"name":"Cislago","latitude":"45.65928000","longitude":"8.97272000"},{"name":"Cisliano","latitude":"45.44371000","longitude":"8.98695000"},{"name":"Cittiglio","latitude":"45.89587000","longitude":"8.66551000"},{"name":"Città metropolitana di Milano","latitude":"45.45186000","longitude":"9.14586000"},{"name":"Civate","latitude":"45.82808000","longitude":"9.34294000"},{"name":"Civesio","latitude":"45.39556000","longitude":"9.26680000"},{"name":"Cividate Camuno","latitude":"45.94087000","longitude":"10.26610000"},{"name":"Cividate al Piano","latitude":"45.55465000","longitude":"9.83024000"},{"name":"Cizzago-Comezzano","latitude":"45.46880000","longitude":"9.95816000"},{"name":"Clivio","latitude":"45.86278000","longitude":"8.93083000"},{"name":"Clusane","latitude":"45.66247000","longitude":"10.00005000"},{"name":"Clusone","latitude":"45.88663000","longitude":"9.94646000"},{"name":"Coccaglio","latitude":"45.56399000","longitude":"9.97224000"},{"name":"Cocquio","latitude":"45.86288000","longitude":"8.68823000"},{"name":"Codevilla","latitude":"44.96353000","longitude":"9.05773000"},{"name":"Codogna-Cardano","latitude":"46.02769000","longitude":"9.20992000"},{"name":"Codogno","latitude":"45.16187000","longitude":"9.70216000"},{"name":"Cogliate","latitude":"45.64597000","longitude":"9.07884000"},{"name":"Colere","latitude":"45.97522000","longitude":"10.08356000"},{"name":"Colico Piano","latitude":"46.13205000","longitude":"9.37714000"},{"name":"Colla-Muggiasca","latitude":"45.98343000","longitude":"9.62277000"},{"name":"Colle Brianza","latitude":"45.76238000","longitude":"9.36435000"},{"name":"Collebeato","latitude":"45.58118000","longitude":"10.21017000"},{"name":"Collio","latitude":"45.81088000","longitude":"10.33511000"},{"name":"Cologna-Caraverio","latitude":"45.75611000","longitude":"9.34579000"},{"name":"Cologne","latitude":"45.57862000","longitude":"9.94180000"},{"name":"Cologno Monzese","latitude":"45.53004000","longitude":"9.27795000"},{"name":"Cologno al Serio","latitude":"45.57604000","longitude":"9.70892000"},{"name":"Colombaro-Timoline","latitude":"45.64405000","longitude":"9.99413000"},{"name":"Colonno","latitude":"45.95768000","longitude":"9.15294000"},{"name":"Colorina","latitude":"46.15369000","longitude":"9.72935000"},{"name":"Colturano","latitude":"45.38151000","longitude":"9.33443000"},{"name":"Colzate","latitude":"45.81719000","longitude":"9.85615000"},{"name":"Comabbio","latitude":"45.77359000","longitude":"8.67833000"},{"name":"Comazzo","latitude":"45.44190000","longitude":"9.46278000"},{"name":"Comerio","latitude":"45.84191000","longitude":"8.74207000"},{"name":"Commessaggio","latitude":"45.03754000","longitude":"10.54535000"},{"name":"Como","latitude":"45.80819000","longitude":"9.08320000"},{"name":"Comun Nuovo","latitude":"45.62291000","longitude":"9.66200000"},{"name":"Concesio","latitude":"45.60518000","longitude":"10.21697000"},{"name":"Concorezzo","latitude":"45.58854000","longitude":"9.33393000"},{"name":"Confienza","latitude":"45.33148000","longitude":"8.55886000"},{"name":"Consiglio di Rumo","latitude":"46.14299000","longitude":"9.29334000"},{"name":"Copiano","latitude":"45.19750000","longitude":"9.32462000"},{"name":"Corana","latitude":"45.06289000","longitude":"8.96952000"},{"name":"Corbetta","latitude":"45.46723000","longitude":"8.91867000"},{"name":"Corgeno","latitude":"45.74588000","longitude":"8.68797000"},{"name":"Cormano","latitude":"45.54917000","longitude":"9.15964000"},{"name":"Corna Imagna","latitude":"45.83068000","longitude":"9.54485000"},{"name":"Cornalba","latitude":"45.84927000","longitude":"9.74593000"},{"name":"Cornale","latitude":"45.04344000","longitude":"8.91096000"},{"name":"Cornaredo","latitude":"45.50128000","longitude":"9.02681000"},{"name":"Cornate d'Adda","latitude":"45.62811000","longitude":"9.47378000"},{"name":"Corneno-Galliano-Carella Mariaga","latitude":"45.81667000","longitude":"9.26667000"},{"name":"Corno Giovine","latitude":"45.13415000","longitude":"9.75766000"},{"name":"Cornovecchio","latitude":"45.13667000","longitude":"9.79937000"},{"name":"Correzzana","latitude":"45.66658000","longitude":"9.30755000"},{"name":"Corrido","latitude":"46.04758000","longitude":"9.13554000"},{"name":"Corsico","latitude":"45.43099000","longitude":"9.11093000"},{"name":"Corte Franca","latitude":"45.62998000","longitude":"9.98846000"},{"name":"Corte de' Cortesi","latitude":"45.27265000","longitude":"10.00738000"},{"name":"Corte de' Cortesi con Cignone","latitude":"45.27317000","longitude":"10.00787000"},{"name":"Corte de' Frati","latitude":"45.21847000","longitude":"10.10187000"},{"name":"Corteno Golgi","latitude":"46.16620000","longitude":"10.24346000"},{"name":"Cortenova","latitude":"46.00029000","longitude":"9.38454000"},{"name":"Cortenuova","latitude":"45.53898000","longitude":"9.78786000"},{"name":"Corteolona","latitude":"45.15787000","longitude":"9.37215000"},{"name":"Corvino San Quirico","latitude":"45.01086000","longitude":"9.16245000"},{"name":"Corzano","latitude":"45.44378000","longitude":"10.00737000"},{"name":"Cosio Valtellino","latitude":"46.13509000","longitude":"9.55164000"},{"name":"Costa Lambro","latitude":"45.68531000","longitude":"9.24728000"},{"name":"Costa Masnaga","latitude":"45.76963000","longitude":"9.27632000"},{"name":"Costa Sant'Abramo","latitude":"45.16667000","longitude":"9.96667000"},{"name":"Costa Valle Imagna","latitude":"45.80280000","longitude":"9.50413000"},{"name":"Costa Volpino","latitude":"45.82768000","longitude":"10.10076000"},{"name":"Costa de' Nobili","latitude":"45.13217000","longitude":"9.37886000"},{"name":"Costa di Mezzate","latitude":"45.66278000","longitude":"9.79556000"},{"name":"Costa di Serina","latitude":"45.83268000","longitude":"9.74165000"},{"name":"Costa-Barco","latitude":"45.58337000","longitude":"10.03907000"},{"name":"Covo","latitude":"45.49906000","longitude":"9.77068000"},{"name":"Cozzo","latitude":"45.19213000","longitude":"8.61112000"},{"name":"Crandola Valsassina","latitude":"46.02329000","longitude":"9.37914000"},{"name":"Credaro","latitude":"45.66058000","longitude":"9.93106000"},{"name":"Credera","latitude":"45.30301000","longitude":"9.65498000"},{"name":"Crema","latitude":"45.36264000","longitude":"9.68176000"},{"name":"Cremella","latitude":"45.73858000","longitude":"9.30064000"},{"name":"Cremenaga","latitude":"45.98938000","longitude":"8.80333000"},{"name":"Cremeno","latitude":"45.93492000","longitude":"9.47099000"},{"name":"Cremia","latitude":"46.08649000","longitude":"9.27114000"},{"name":"Cremona","latitude":"45.13325000","longitude":"10.02129000"},{"name":"Cremosano","latitude":"45.39467000","longitude":"9.63826000"},{"name":"Crespiatica","latitude":"45.35136000","longitude":"9.57659000"},{"name":"Crone","latitude":"45.73741000","longitude":"10.47503000"},{"name":"Crosio della Valle","latitude":"45.75997000","longitude":"8.77043000"},{"name":"Crotta d'Adda","latitude":"45.15888000","longitude":"9.85684000"},{"name":"Crugnola","latitude":"45.72955000","longitude":"8.74525000"},{"name":"Cuasso al Monte","latitude":"45.91478000","longitude":"8.87923000"},{"name":"Cuasso al Piano","latitude":"45.89454000","longitude":"8.87951000"},{"name":"Cucciago","latitude":"45.73928000","longitude":"9.09294000"},{"name":"Cuggiono","latitude":"45.50683000","longitude":"8.81550000"},{"name":"Cugliate-Fabiasco","latitude":"45.94568000","longitude":"8.81863000"},{"name":"Cumignano sul Naviglio","latitude":"45.35459000","longitude":"9.83621000"},{"name":"Cunardo","latitude":"45.93428000","longitude":"8.80773000"},{"name":"Cunettone-Villa","latitude":"45.58789000","longitude":"10.51756000"},{"name":"Cura Carpignano","latitude":"45.21247000","longitude":"9.25565000"},{"name":"Curiglia","latitude":"46.06065000","longitude":"8.80484000"},{"name":"Curno","latitude":"45.68876000","longitude":"9.60872000"},{"name":"Cusago","latitude":"45.44997000","longitude":"9.03744000"},{"name":"Cusano","latitude":"45.55187000","longitude":"9.18373000"},{"name":"Cusino","latitude":"46.07489000","longitude":"9.15264000"},{"name":"Cusio","latitude":"45.99089000","longitude":"9.60175000"},{"name":"Cuveglio","latitude":"45.90608000","longitude":"8.73333000"},{"name":"Cuvio","latitude":"45.89618000","longitude":"8.73413000"},{"name":"Dairago","latitude":"45.56580000","longitude":"8.86265000"},{"name":"Dalmine","latitude":"45.64933000","longitude":"9.60617000"},{"name":"Darfo Boario Terme","latitude":"45.89150000","longitude":"10.18879000"},{"name":"Daverio","latitude":"45.77797000","longitude":"8.77343000"},{"name":"Dazio","latitude":"46.16129000","longitude":"9.60064000"},{"name":"Delebio","latitude":"46.13648000","longitude":"9.46157000"},{"name":"Dello","latitude":"45.41916000","longitude":"10.07621000"},{"name":"Derovere","latitude":"45.10997000","longitude":"10.24798000"},{"name":"Dervio","latitude":"46.07696000","longitude":"9.30659000"},{"name":"Desenzano del Garda","latitude":"45.47127000","longitude":"10.53559000"},{"name":"Desio","latitude":"45.61831000","longitude":"9.20249000"},{"name":"Dizzasco-Biazzeno","latitude":"45.94378000","longitude":"9.09974000"},{"name":"Dolzago","latitude":"45.76698000","longitude":"9.33934000"},{"name":"Domaso","latitude":"46.15284000","longitude":"9.33150000"},{"name":"Dongo","latitude":"46.12999000","longitude":"9.28169000"},{"name":"Dorio","latitude":"46.10020000","longitude":"9.31883000"},{"name":"Dorno","latitude":"45.15352000","longitude":"8.95076000"},{"name":"Dosimo","latitude":"45.18469000","longitude":"10.10362000"},{"name":"Dosolo","latitude":"44.95259000","longitude":"10.63550000"},{"name":"Dossena","latitude":"45.88029000","longitude":"9.69675000"},{"name":"Dosso del Liro","latitude":"46.16399000","longitude":"9.27294000"},{"name":"Dosso-Ville","latitude":"45.75251000","longitude":"10.27397000"},{"name":"Dovera","latitude":"45.36428000","longitude":"9.54445000"},{"name":"Dresano","latitude":"45.37297000","longitude":"9.35785000"},{"name":"Drizzona","latitude":"45.14217000","longitude":"10.35028000"},{"name":"Dubino","latitude":"46.16705000","longitude":"9.43049000"},{"name":"Dumenza","latitude":"46.02088000","longitude":"8.78674000"},{"name":"Duno","latitude":"45.91398000","longitude":"8.73763000"},{"name":"Duomo","latitude":"45.53240000","longitude":"10.02118000"},{"name":"Edolo","latitude":"46.17799000","longitude":"10.33322000"},{"name":"Ello","latitude":"45.78568000","longitude":"9.36534000"},{"name":"Endine","latitude":"45.78980000","longitude":"9.97561000"},{"name":"Entratico","latitude":"45.70778000","longitude":"9.87316000"},{"name":"Era","latitude":"46.24422000","longitude":"9.39515000"},{"name":"Erba","latitude":"45.80880000","longitude":"9.22609000"},{"name":"Erbusco","latitude":"45.59868000","longitude":"9.97186000"},{"name":"Eremo","latitude":"45.13119000","longitude":"10.74271000"},{"name":"Erve","latitude":"45.82158000","longitude":"9.45285000"},{"name":"Esine","latitude":"45.92515000","longitude":"10.25102000"},{"name":"Esino Lario","latitude":"45.99437000","longitude":"9.33399000"},{"name":"Faedo Valtellino","latitude":"46.15299000","longitude":"9.90605000"},{"name":"Faggeto Lario","latitude":"45.85878000","longitude":"9.15894000"},{"name":"Fagnano Olona-Bergoro","latitude":"45.66977000","longitude":"8.85994000"},{"name":"Faloppio","latitude":"45.80968000","longitude":"8.96434000"},{"name":"Fantasina","latitude":"45.57325000","longitude":"10.17790000"},{"name":"Fara Gera d'Adda","latitude":"45.55656000","longitude":"9.53656000"},{"name":"Fara Olivana","latitude":"45.49508000","longitude":"9.74906000"},{"name":"Felonica","latitude":"44.97898000","longitude":"11.35370000"},{"name":"Fenegrò","latitude":"45.70157000","longitude":"8.99964000"},{"name":"Ferno","latitude":"45.61496000","longitude":"8.75695000"},{"name":"Ferrera Erbognone","latitude":"45.11456000","longitude":"8.86454000"},{"name":"Ferrera di Varese","latitude":"45.93278000","longitude":"8.78913000"},{"name":"Fiesco","latitude":"45.33737000","longitude":"9.77786000"},{"name":"Fiesse","latitude":"45.23207000","longitude":"10.32417000"},{"name":"Figino","latitude":"45.49261000","longitude":"9.07779000"},{"name":"Figino Serenza","latitude":"45.71048000","longitude":"9.13114000"},{"name":"Figliaro","latitude":"45.77992000","longitude":"8.94466000"},{"name":"Filago","latitude":"45.63758000","longitude":"9.55635000"},{"name":"Filighera","latitude":"45.17496000","longitude":"9.31646000"},{"name":"Fino Mornasco","latitude":"45.74290000","longitude":"9.04996000"},{"name":"Fino del Monte","latitude":"45.89269000","longitude":"9.99406000"},{"name":"Fiorano al Serio","latitude":"45.80018000","longitude":"9.84276000"},{"name":"Fizzonasco","latitude":"45.37241000","longitude":"9.19066000"},{"name":"Flero","latitude":"45.48254000","longitude":"10.17694000"},{"name":"Folzano","latitude":"45.49587000","longitude":"10.20650000"},{"name":"Fombio","latitude":"45.14126000","longitude":"9.68043000"},{"name":"Fontane-Zurane-Gresine","latitude":"45.63336000","longitude":"10.04720000"},{"name":"Fontanella","latitude":"45.46903000","longitude":"9.80248000"},{"name":"Fonteno","latitude":"45.75859000","longitude":"10.01856000"},{"name":"Foppolo","latitude":"46.04297000","longitude":"9.75775000"},{"name":"Forcola","latitude":"46.15859000","longitude":"9.66034000"},{"name":"Foresto Sparso","latitude":"45.69088000","longitude":"9.92006000"},{"name":"Formigara","latitude":"45.22307000","longitude":"9.77076000"},{"name":"Fornaci","latitude":"45.19872000","longitude":"9.67794000"},{"name":"Fornovo San Giovanni","latitude":"45.49742000","longitude":"9.67739000"},{"name":"Fortunago","latitude":"44.92160000","longitude":"9.18471000"},{"name":"Frascarolo","latitude":"45.04666000","longitude":"8.68204000"},{"name":"Fuipiano Valle Imagna","latitude":"45.85428000","longitude":"9.52845000"},{"name":"Furato","latitude":"45.51468000","longitude":"8.88063000"},{"name":"Fusine","latitude":"46.14949000","longitude":"9.74975000"},{"name":"Gabbioneta","latitude":"45.21627000","longitude":"10.22027000"},{"name":"Gadesco-Pieve Delmona","latitude":"45.15767000","longitude":"10.11567000"},{"name":"Gaggiano","latitude":"45.40484000","longitude":"9.03488000"},{"name":"Gaggino","latitude":"45.80787000","longitude":"8.96427000"},{"name":"Galbiate","latitude":"45.81635000","longitude":"9.37902000"},{"name":"Galgagnano","latitude":"45.35797000","longitude":"9.44535000"},{"name":"Gallarate","latitude":"45.66019000","longitude":"8.79164000"},{"name":"Galliate Lombardo","latitude":"45.78487000","longitude":"8.77043000"},{"name":"Galliavola","latitude":"45.09756000","longitude":"8.81885000"},