[{"name":"Bambanglipuro","latitude":"-7.95000000","longitude":"110.28333000"},{"name":"Bantul","latitude":"-7.88806000","longitude":"110.32889000"},{"name":"Depok","latitude":"-7.76250000","longitude":"110.43167000"},{"name":"Gamping Lor","latitude":"-7.79556000","longitude":"110.32639000"},{"name":"Godean","latitude":"-7.76972000","longitude":"110.29389000"},{"name":"Kabupaten Bantul","latitude":"-7.90000000","longitude":"110.36667000"},{"name":"Kabupaten Gunung Kidul","latitude":"-7.98333000","longitude":"110.61667000"},{"name":"Kabupaten Kulon Progo","latitude":"-7.64500000","longitude":"110.02694000"},{"name":"Kabupaten Sleman","latitude":"-7.68167000","longitude":"110.32333000"},{"name":"Kasihan","latitude":"-7.82694000","longitude":"110.32917000"},{"name":"Kota Yogyakarta","latitude":"-7.80000000","longitude":"110.37500000"},{"name":"Melati","latitude":"-7.73333000","longitude":"110.36667000"},{"name":"Pandak","latitude":"-7.91306000","longitude":"110.29361000"},{"name":"Pundong","latitude":"-7.95222000","longitude":"110.34861000"},{"name":"Sewon","latitude":"-7.87639000","longitude":"110.35889000"},{"name":"Sleman","latitude":"-7.71556000","longitude":"110.35556000"},{"name":"Srandakan","latitude":"-7.93861000","longitude":"110.25056000"},{"name":"Yogyakarta","latitude":"-7.80139000","longitude":"110.36472000"}]