[{"name":"Abinsk","latitude":"44.86803000","longitude":"38.15728000"},{"name":"Abinskiy Rayon","latitude":"44.83402000","longitude":"38.27891000"},{"name":"Abrau-Dyurso","latitude":"44.69973000","longitude":"37.60098000"},{"name":"Adler","latitude":"43.42896000","longitude":"39.92391000"},{"name":"Afipskiy","latitude":"44.90005000","longitude":"38.84265000"},{"name":"Agoy","latitude":"44.14660000","longitude":"39.03730000"},{"name":"Agronom","latitude":"45.14021000","longitude":"39.19484000"},{"name":"Akhtanizovskaya","latitude":"45.32128000","longitude":"37.10071000"},{"name":"Akhtyrskiy","latitude":"44.85460000","longitude":"38.30310000"},{"name":"Alekseyevskaya","latitude":"45.77167000","longitude":"40.15528000"},{"name":"Anapa","latitude":"44.89084000","longitude":"37.32390000"},{"name":"Anapskaya","latitude":"44.89671000","longitude":"37.38600000"},{"name":"Anastasiyevskaya","latitude":"45.21576000","longitude":"37.89258000"},{"name":"Apsheronsk","latitude":"44.46472000","longitude":"39.73417000"},{"name":"Arkhipo-Osipovka","latitude":"44.37194000","longitude":"38.52972000"},{"name":"Armavir","latitude":"44.98920000","longitude":"41.12340000"},{"name":"Atamanskaya","latitude":"46.17730000","longitude":"39.63580000"},{"name":"Azovskaya","latitude":"44.79083000","longitude":"38.62639000"},{"name":"Baturinskaya","latitude":"45.79267000","longitude":"39.37065000"},{"name":"Belaya Glina","latitude":"46.07802000","longitude":"40.86651000"},{"name":"Belorechensk","latitude":"44.77127000","longitude":"39.87879000"},{"name":"Belorechenskiy Rayon","latitude":"44.79923000","longitude":"39.72061000"},{"name":"Belozërnyy","latitude":"45.06433000","longitude":"38.67901000"},{"name":"Berezanskaya","latitude":"45.70562000","longitude":"39.59324000"},{"name":"Besleneyevskaya","latitude":"44.23100000","longitude":"40.72500000"},{"name":"Besskorbnaya","latitude":"44.64470000","longitude":"41.31100000"},{"name":"Blagovetschenskaya","latitude":"45.05530000","longitude":"37.13276000"},{"name":"Bryukhovetskaya","latitude":"45.80603000","longitude":"38.99959000"},{"name":"Chamlykskaya","latitude":"44.71583000","longitude":"40.87861000"},{"name":"Chelbasskaya","latitude":"45.97924000","longitude":"39.37186000"},{"name":"Chernomorskiy","latitude":"44.85056000","longitude":"38.49361000"},{"name":"Chernoyerkovskaya","latitude":"45.43306000","longitude":"37.76861000"},{"name":"Dagomys","latitude":"43.66974000","longitude":"39.66863000"},{"name":"Dinskaya","latitude":"45.21516000","longitude":"39.22650000"},{"name":"Divnomorskoye","latitude":"44.50170000","longitude":"38.13420000"},{"name":"Dmitriyevskaya","latitude":"45.65639000","longitude":"40.76528000"},{"name":"Dneprovskaya","latitude":"45.62359000","longitude":"38.80807000"},{"name":"Dolzhanskaya","latitude":"46.63369000","longitude":"37.80246000"},{"name":"Dvubratskiy","latitude":"45.23888000","longitude":"39.80499000"},{"name":"Dzhiginka","latitude":"45.13300000","longitude":"37.33825000"},{"name":"Dzhubga","latitude":"44.32110000","longitude":"38.70730000"},{"name":"Fastovetskaya","latitude":"45.91889000","longitude":"40.15889000"},{"name":"Gayduk","latitude":"44.78489000","longitude":"37.70050000"},{"name":"Gelendzhik","latitude":"44.56220000","longitude":"38.08480000"},{"name":"Girey","latitude":"45.40120000","longitude":"40.65870000"},{"name":"Glafirovka","latitude":"46.76378000","longitude":"38.40785000"},{"name":"Glubokiy","latitude":"44.94673000","longitude":"41.01845000"},{"name":"Golubitskaya","latitude":"45.32566000","longitude":"37.27020000"},{"name":"Gornoye Loo","latitude":"43.71294000","longitude":"39.60492000"},{"name":"Goryachiy Klyuch","latitude":"44.63083000","longitude":"39.13000000"},{"name":"Gostagayevskaya","latitude":"45.02284000","longitude":"37.50511000"},{"name":"Grivenskaya","latitude":"45.64730000","longitude":"38.17597000"},{"name":"Gubskaya","latitude":"44.31639000","longitude":"40.63583000"},{"name":"Gul’kevichi","latitude":"45.35383000","longitude":"40.69465000"},{"name":"Il’ich","latitude":"45.42488000","longitude":"36.77402000"},{"name":"Il’skiy","latitude":"44.84222000","longitude":"38.56686000"},{"name":"Irkliyevskaya","latitude":"45.85635000","longitude":"39.65381000"},{"name":"Kabardinka","latitude":"44.65139000","longitude":"37.94278000"},{"name":"Kalininskaya","latitude":"45.48440000","longitude":"38.66221000"},{"name":"Kalnibolotskaya","latitude":"46.00583000","longitude":"40.45682000"},{"name":"Kamyshevatskaya","latitude":"46.41316000","longitude":"37.95632000"},{"name":"Kanelovskaya","latitude":"46.58960000","longitude":"39.19440000"},{"name":"Kanevskaya","latitude":"46.08490000","longitude":"38.95960000"},{"name":"Kavkazskaya","latitude":"45.44530000","longitude":"40.67650000"},{"name":"Kazanskaya","latitude":"45.41060000","longitude":"40.43610000"},{"name":"Khadyzhensk","latitude":"44.42580000","longitude":"39.53620000"},{"name":"Kholmskiy","latitude":"44.84694000","longitude":"38.38500000"},{"name":"Khosta","latitude":"43.51484000","longitude":"39.86825000"},{"name":"Kislyakovskaya","latitude":"46.44170000","longitude":"39.67500000"},{"name":"Kiyevskoye","latitude":"45.03829000","longitude":"37.88829000"},{"name":"Konokovo","latitude":"44.86160000","longitude":"41.32660000"},{"name":"Konstantinovskaya","latitude":"44.83528000","longitude":"40.72694000"},{"name":"Kontenko","latitude":"45.35806000","longitude":"36.83222000"},{"name":"Kopanskaya","latitude":"46.27785000","longitude":"38.47955000"},{"name":"Korenovsk","latitude":"45.46899000","longitude":"39.45136000"},{"name":"Korzhevskiy","latitude":"45.19414000","longitude":"37.71949000"},{"name":"Kovalevskoye","latitude":"45.19417000","longitude":"40.97611000"},{"name":"Krasnaya Polyana","latitude":"43.67952000","longitude":"40.20403000"},{"name":"Krasnoarmeyskaya","latitude":"45.36614000","longitude":"38.21171000"},{"name":"Krasnodar","latitude":"45.04484000","longitude":"38.97603000"},{"name":"Krasnoye","latitude":"46.73730000","longitude":"39.56450000"},{"name":"Kropotkin","latitude":"45.43750000","longitude":"40.57556000"},{"name":"Krylovskaya","latitude":"46.31944000","longitude":"39.97111000"},{"name":"Krylovskiy Rayon","latitude":"46.33333000","longitude":"39.96667000"},{"name":"Krymsk","latitude":"44.92934000","longitude":"37.99117000"},{"name":"Krymskiy Rayon","latitude":"44.90532000","longitude":"37.80526000"},{"name":"Kubanskiy","latitude":"45.92917000","longitude":"40.58056000"},{"name":"Kuchugury","latitude":"45.40702000","longitude":"36.95586000"},{"name":"Kudepsta","latitude":"43.49547000","longitude":"39.89294000"},{"name":"Kurganinsk","latitude":"44.88000000","longitude":"40.59861000"},{"name":"Kushchëvskaya","latitude":"46.55990000","longitude":"39.63210000"},{"name":"Labinsk","latitude":"44.63417000","longitude":"40.73556000"},{"name":"Ladozhskaya","latitude":"45.30902000","longitude":"39.93803000"},{"name":"Lazarevskoye","latitude":"43.90886000","longitude":"39.33137000"},{"name":"Lenina","latitude":"46.06667000","longitude":"39.78333000"},{"name":"Leningradskaya","latitude":"46.32140000","longitude":"39.38770000"},{"name":"Lermontovo","latitude":"44.30380000","longitude":"38.75720000"},{"name":"Lovlinskaya","latitude":"45.51611000","longitude":"40.24000000"},{"name":"Maykopskoye","latitude":"45.39361000","longitude":"40.76583000"},{"name":"Medvedovskaya","latitude":"45.45151000","longitude":"39.02485000"},{"name":"Mikhaylovskaya","latitude":"44.99472000","longitude":"40.59639000"},{"name":"Mirskoy","latitude":"45.54390000","longitude":"40.39980000"},{"name":"Mostovskiy Rayon","latitude":"44.27503000","longitude":"40.64588000"},{"name":"Mostovskoy","latitude":"44.41222000","longitude":"40.79361000"},{"name":"Myskhako","latitude":"44.65917000","longitude":"37.76611000"},{"name":"Nebug","latitude":"44.17170000","longitude":"39.00260000"},{"name":"Neftegorsk","latitude":"44.36580000","longitude":"39.70780000"},{"name":"Nekrasovskaya","latitude":"45.14468000","longitude":"39.74868000"},{"name":"Novoalekseyevskaya","latitude":"44.81889000","longitude":"40.93389000"},{"name":"Novobeysugskaya","latitude":"45.47195000","longitude":"39.88614000"},{"name":"Novoderevyankovskaya","latitude":"46.32312000","longitude":"38.74724000"},{"name":"Novodmitriyevskaya","latitude":"44.83276000","longitude":"38.87847000"},{"name":"Novodzhereliyevskaya","latitude":"45.77373000","longitude":"38.67227000"},{"name":"Novokorsunskaya","latitude":"45.64080000","longitude":"39.14641000"},{"name":"Novokubansk","latitude":"45.11700000","longitude":"41.02670000"},{"name":"Novokubanskiy Rayon","latitude":"45.08798000","longitude":"41.04466000"},{"name":"Novolabinskaya","latitude":"45.10956000","longitude":"39.89399000"},{"name":"Novoleushkovskaya","latitude":"45.99560000","longitude":"39.99210000"},{"name":"Novomalorossiyskaya","latitude":"45.63483000","longitude":"39.89481000"},{"name":"Novomikhaylovskiy","latitude":"44.26260000","longitude":"38.85850000"},{"name":"Novominskaya","latitude":"46.31630000","longitude":"38.95860000"},{"name":"Novomyshastovskaya","latitude":"45.19909000","longitude":"38.58272000"},{"name":"Novoplatnirovskaya","latitude":"46.10650000","longitude":"39.41910000"},{"name":"Novopokrovskaya","latitude":"45.95139000","longitude":"40.70056000"},{"name":"Novorossiysk","latitude":"44.72439000","longitude":"37.76752000"},{"name":"Novorozhdestvenskaya","latitude":"45.86057000","longitude":"39.94968000"},{"name":"Novoshcherbinovskaya","latitude":"46.47669000","longitude":"38.64757000"},{"name":"Novotitarovskaya","latitude":"45.23756000","longitude":"38.98059000"},{"name":"Novoukrainskiy","latitude":"44.89420000","longitude":"38.04886000"},{"name":"Novoukrainskoye","latitude":"45.37833000","longitude":"40.52972000"},{"name":"Novovelichkovskaya","latitude":"45.27638000","longitude":"38.84165000"},{"name":"Ol’ginka","latitude":"44.20750000","longitude":"38.89111000"},{"name":"Ol’ginskaya","latitude":"45.94610000","longitude":"38.54864000"},{"name":"Orël-Izumrud","latitude":"43.46005000","longitude":"39.92377000"},{"name":"Otradnaya","latitude":"44.39333000","longitude":"41.52056000"},{"name":"Otrado-Kubanskoye","latitude":"45.24417000","longitude":"40.84083000"},{"name":"Parkovyy","latitude":"45.83306000","longitude":"40.14556000"},{"name":"Pashkovskiy","latitude":"45.02366000","longitude":"39.10436000"},{"name":"Pavlovskaya","latitude":"46.13770000","longitude":"39.78320000"},{"name":"Pavlovskiy Rayon","latitude":"46.08978000","longitude":"39.73150000"},{"name":"Peredovaya","latitude":"44.11722000","longitude":"41.47556000"},{"name":"Perepravnaya","latitude":"44.33660000","longitude":"40.78490000"},{"name":"Pereyaslovskaya","latitude":"45.84121000","longitude":"39.02379000"},{"name":"Petropavlovskaya","latitude":"45.08189000","longitude":"40.45125000"},{"name":"Petrovskaya","latitude":"45.43139000","longitude":"37.95500000"},{"name":"Plastunovskaya","latitude":"45.29432000","longitude":"39.26505000"},{"name":"Platnirovskaya","latitude":"45.39531000","longitude":"39.38420000"},{"name":"Poputnaya","latitude":"44.51250000","longitude":"41.43920000"},{"name":"Prikubanskiy","latitude":"45.00150000","longitude":"41.17950000"},{"name":"Primorsko-Akhtarsk","latitude":"46.04970000","longitude":"38.17470000"},{"name":"Prochnookopskaya","latitude":"45.06660000","longitude":"41.11750000"},{"name":"Psebay","latitude":"44.12340000","longitude":"40.81070000"},{"name":"Pshada","latitude":"44.47000000","longitude":"38.39960000"},{"name":"Pshekhskaya","latitude":"44.69597000","longitude":"39.79665000"},{"name":"Rayevskaya","latitude":"44.83571000","longitude":"37.55577000"},{"name":"Rodnikovskaya","latitude":"44.76444000","longitude":"40.66556000"},{"name":"Rogovskaya","latitude":"45.73117000","longitude":"38.73960000"},{"name":"Ryazanskaya","latitude":"44.95528000","longitude":"39.58894000"},{"name":"Saratovskaya","latitude":"44.70752000","longitude":"39.22156000"},{"name":"Severskaya","latitude":"44.85407000","longitude":"38.67686000"},{"name":"Shabel’skoye","latitude":"46.85275000","longitude":"38.47278000"},{"name":"Shedok","latitude":"44.21790000","longitude":"40.84870000"},{"name":"Shepsi","latitude":"44.03550000","longitude":"39.14740000"},{"name":"Shirochanka","latitude":"46.64968000","longitude":"38.39782000"},{"name":"Shkurinskaya","latitude":"46.58580000","longitude":"39.35990000"},{"name":"Slavyansk-na-Kubani","latitude":"45.25580000","longitude":"38.12560000"},{"name":"Slavyansky rayon","latitude":"45.41667000","longitude":"37.75000000"},{"name":"Smolenskaya","latitude":"44.78636000","longitude":"38.80333000"},{"name":"Sochi","latitude":"43.59917000","longitude":"39.72569000"},{"name":"Sokolovskoye","latitude":"45.25833000","longitude":"40.67972000"},{"name":"Sovetskaya","latitude":"44.77694000","longitude":"41.17222000"},{"name":"Sovkhoznyy","latitude":"45.29462000","longitude":"38.11384000"},{"name":"Spokoynaya","latitude":"44.24680000","longitude":"41.40150000"},{"name":"Staraya Stanitsa","latitude":"45.00980000","longitude":"41.15120000"},{"name":"Staroderevyankovskaya","latitude":"46.12760000","longitude":"38.96740000"},{"name":"Starodzhereliyevskaya","latitude":"45.47599000","longitude":"38.29680000"},{"name":"Starokorsunskaya","latitude":"45.05727000","longitude":"39.31611000"},{"name":"Staroleushkovskaya","latitude":"45.98666000","longitude":"39.75987000"},{"name":"Starominskaya","latitude":"46.53000000","longitude":"39.04972000"},{"name":"Staromyshastovskaya","latitude":"45.34329000","longitude":"39.07608000"},{"name":"Staronizhestebliyevskaya","latitude":"45.38315000","longitude":"38.44304000"},{"name":"Staroshcherbinovskaya","latitude":"46.63110000","longitude":"38.67420000"},{"name":"Starotitarovskaya","latitude":"45.21938000","longitude":"37.15476000"},{"name":"Starovelichkovskaya","latitude":"45.42884000","longitude":"38.73261000"},{"name":"Strelka","latitude":"45.20633000","longitude":"37.28650000"},{"name":"Sukko","latitude":"44.79945000","longitude":"37.42145000"},{"name":"Taman’","latitude":"45.21170000","longitude":"36.71609000"},{"name":"Tbilisskaya","latitude":"45.36333000","longitude":"40.19000000"},{"name":"Temirgoyevskaya","latitude":"45.11414000","longitude":"40.28027000"},{"name":"Temizhbekskaya","latitude":"45.44556000","longitude":"40.84500000"},{"name":"Temruksky rayon","latitude":"45.25000000","longitude":"37.25000000"},{"name":"Temryuk","latitude":"45.27055000","longitude":"37.38716000"},{"name":"Ternevskaya","latitude":"45.85130000","longitude":"40.41250000"},{"name":"Tikhoretsk","latitude":"45.85472000","longitude":"40.12528000"},{"name":"Tikhoretskiy Rayon","latitude":"45.73846000","longitude":"40.27549000"},{"name":"Timashëvsk","latitude":"45.61694000","longitude":"38.94528000"},{"name":"Troitskaya","latitude":"45.13493000","longitude":"38.12544000"},{"name":"Trudobelikovskiy","latitude":"45.26853000","longitude":"38.15376000"},{"name":"Tsibanobalka","latitude":"44.98034000","longitude":"37.34384000"},{"name":"Tuapse","latitude":"44.10530000","longitude":"39.08020000"},{"name":"Tuapsinskiy Rayon","latitude":"44.25000000","longitude":"39.08333000"},{"name":"Udobnaya","latitude":"44.19320000","longitude":"41.55290000"},{"name":"Upornaya","latitude":"44.39140000","longitude":"41.01960000"},{"name":"Uspenskaya","latitude":"45.76448000","longitude":"41.06696000"},{"name":"Uspenskoye","latitude":"44.83110000","longitude":"41.39270000"},{"name":"Ust’-Labinsk","latitude":"45.21077000","longitude":"39.68914000"},{"name":"Vardane","latitude":"43.73179000","longitude":"39.55428000"},{"name":"Varenikovskaya","latitude":"45.12085000","longitude":"37.64171000"},{"name":"Vasyurinskaya","latitude":"45.11809000","longitude":"39.42399000"},{"name":"Velikovechnoye","latitude":"44.93402000","longitude":"39.75499000"},{"name":"Ventsy","latitude":"45.37639000","longitude":"40.83583000"},{"name":"Verkhnebakanskiy","latitude":"44.84917000","longitude":"37.65722000"},{"name":"Vinogradnyy","latitude":"45.05610000","longitude":"37.32125000"},{"name":"Vityazevo","latitude":"45.00130000","longitude":"37.28211000"},{"name":"Vladimirskaya","latitude":"44.54550000","longitude":"40.79330000"},{"name":"Vorontsovka","latitude":"46.65290000","longitude":"38.07870000"},{"name":"Voznesenskaya","latitude":"44.55270000","longitude":"41.03180000"},{"name":"Vyselki","latitude":"45.58128000","longitude":"39.66409000"},{"name":"Vyselkovskiy Rayon","latitude":"45.66667000","longitude":"39.75000000"},{"name":"Vyshestebliyevskaya","latitude":"45.19611000","longitude":"37.01806000"},{"name":"Vysokoye","latitude":"43.46304000","longitude":"39.96701000"},{"name":"Yaroslavskaya","latitude":"44.61056000","longitude":"40.46417000"},{"name":"Yasenskaya","latitude":"46.35920000","longitude":"38.26900000"},{"name":"Yelizavetinskaya","latitude":"45.04616000","longitude":"38.79491000"},{"name":"Yeysk","latitude":"46.70550000","longitude":"38.27390000"},{"name":"Yeyskoye Ukrepleniye","latitude":"46.70630000","longitude":"38.61210000"},{"name":"Yurovka","latitude":"45.11470000","longitude":"37.41882000"},{"name":"Yuzhnyy","latitude":"45.00250000","longitude":"40.47472000"},{"name":"Zavetnyy","latitude":"44.93160000","longitude":"41.13730000"}]