[{"name":"Altayskiy","latitude":"50.24593000","longitude":"82.36252000"},{"name":"Aqtoghay","latitude":"46.95000000","longitude":"79.66667000"},{"name":"Asūbulaq","latitude":"49.55688000","longitude":"83.06355000"},{"name":"Auezov","latitude":"49.71003000","longitude":"81.58018000"},{"name":"Ayagoz","latitude":"47.96447000","longitude":"80.43437000"},{"name":"Belogorskīy","latitude":"49.47698000","longitude":"83.14803000"},{"name":"Belousovka","latitude":"50.13287000","longitude":"82.52481000"},{"name":"Borodulikha","latitude":"50.71841000","longitude":"80.92950000"},{"name":"Georgīevka","latitude":"49.32671000","longitude":"81.57373000"},{"name":"Glubokoye","latitude":"50.13887000","longitude":"82.31114000"},{"name":"Kurchatov","latitude":"50.75617000","longitude":"78.54188000"},{"name":"Kurchum","latitude":"48.56603000","longitude":"83.66146000"},{"name":"Maleyevsk","latitude":"49.81441000","longitude":"84.29102000"},{"name":"Ognevka","latitude":"49.68351000","longitude":"83.01674000"},{"name":"Priisk Boko","latitude":"49.06028000","longitude":"81.64528000"},{"name":"Qaraūyl","latitude":"48.94509000","longitude":"79.25502000"},{"name":"Ridder","latitude":"50.34413000","longitude":"83.51287000"},{"name":"Semey","latitude":"50.42675000","longitude":"80.26669000"},{"name":"Shar","latitude":"49.58720000","longitude":"81.04883000"},{"name":"Shemonaīkha","latitude":"50.62811000","longitude":"81.91213000"},{"name":"Suykbulak","latitude":"49.70837000","longitude":"81.04854000"},{"name":"Tūghyl","latitude":"47.72521000","longitude":"84.20629000"},{"name":"Urzhar","latitude":"47.09302000","longitude":"81.62939000"},{"name":"Ust-Kamenogorsk","latitude":"49.97143000","longitude":"82.60586000"},{"name":"Zaysan","latitude":"47.46657000","longitude":"84.87144000"},{"name":"Zhalghyztobe","latitude":"49.21094000","longitude":"81.21596000"},{"name":"Zhanga Buqtyrma","latitude":"49.62950000","longitude":"83.52475000"},{"name":"Zhezkent","latitude":"50.93112000","longitude":"81.36150000"},{"name":"Zyryanovsk","latitude":"49.72654000","longitude":"84.27318000"},{"name":"Ūst’-Talovka","latitude":"50.54927000","longitude":"81.84997000"}]