[{"name":"Bandar Lampung","latitude":"-5.42917000","longitude":"105.26111000"},{"name":"Kabupaten Lampung Barat","latitude":"-5.14904000","longitude":"104.19309000"},{"name":"Kabupaten Lampung Selatan","latitude":"-5.45310000","longitude":"104.98770000"},{"name":"Kabupaten Lampung Tengah","latitude":"-4.86667000","longitude":"105.26667000"},{"name":"Kabupaten Lampung Timur","latitude":"-5.10273000","longitude":"105.68003000"},{"name":"Kabupaten Lampung Utara","latitude":"-4.81667000","longitude":"104.80000000"},{"name":"Kabupaten Mesuji","latitude":"-4.04390000","longitude":"105.40130000"},{"name":"Kabupaten Pesawaran","latitude":"-5.42980000","longitude":"105.17899000"},{"name":"Kabupaten Pesisir Barat","latitude":"-5.19323000","longitude":"103.93976000"},{"name":"Kabupaten Pringsewu","latitude":"-5.42211000","longitude":"104.93454000"},{"name":"Kabupaten Tanggamus","latitude":"-5.38508000","longitude":"104.62349000"},{"name":"Kabupaten Tulangbawang","latitude":"-4.20604000","longitude":"105.57999000"},{"name":"Kabupaten Way Kanan","latitude":"-4.44705000","longitude":"104.52753000"},{"name":"Kota Bandar Lampung","latitude":"-5.41667000","longitude":"105.25000000"},{"name":"Kota Metro","latitude":"-5.11856000","longitude":"105.29949000"},{"name":"Kotabumi","latitude":"-4.82505000","longitude":"104.88170000"},{"name":"Metro","latitude":"-5.11306000","longitude":"105.30667000"},{"name":"Terbanggi Besar","latitude":"-4.87898000","longitude":"105.21818000"}]