[{"name":"Ergene","latitude":"40.85953000","longitude":"27.27081000"},{"name":"Hayrabolu","latitude":"41.21311000","longitude":"27.10688000"},{"name":"Kapaklı","latitude":"41.32912000","longitude":"27.98064000"},{"name":"Kumbağ","latitude":"40.88236000","longitude":"27.45919000"},{"name":"Malkara","latitude":"40.89000000","longitude":"26.90111000"},{"name":"Marmara Ereğlisi","latitude":"40.97003000","longitude":"27.95528000"},{"name":"Marmaracık","latitude":"41.20667000","longitude":"27.75444000"},{"name":"Muratlı İlçesi","latitude":"41.18345000","longitude":"27.51454000"},{"name":"Saray","latitude":"41.44431000","longitude":"27.92194000"},{"name":"Sultanköy","latitude":"41.02139000","longitude":"27.98861000"},{"name":"Süleymanpaşa","latitude":"40.97990000","longitude":"27.30377000"},{"name":"Tekirdağ","latitude":"40.97810000","longitude":"27.51101000"},{"name":"Velimeşe","latitude":"41.25361000","longitude":"27.87833000"},{"name":"Çerkezköy","latitude":"41.28616000","longitude":"27.99969000"},{"name":"Çorlu","latitude":"41.15917000","longitude":"27.80000000"},{"name":"Şarköy İlçesi","latitude":"40.62513000","longitude":"27.10069000"}]