[{"name":"Departamento de Capital","latitude":"-32.88469000","longitude":"-68.85826000"},{"name":"Departamento de General Alvear","latitude":"-35.16667000","longitude":"-67.33333000"},{"name":"Departamento de Godoy Cruz","latitude":"-32.93333000","longitude":"-68.86667000"},{"name":"Departamento de Guaymallén","latitude":"-32.88333000","longitude":"-68.70000000"},{"name":"Departamento de La Paz","latitude":"-33.66667000","longitude":"-67.25000000"},{"name":"Departamento de Las Heras","latitude":"-32.50000000","longitude":"-69.50000000"},{"name":"Departamento de Lavalle","latitude":"-32.50000000","longitude":"-68.00000000"},{"name":"Departamento de Luján","latitude":"-33.00000000","longitude":"-69.33333000"},{"name":"Departamento de Maipú","latitude":"-33.00000000","longitude":"-68.58333000"},{"name":"Departamento de Malargüe","latitude":"-36.25000000","longitude":"-69.25000000"},{"name":"Departamento de Rivadavia","latitude":"-33.18000000","longitude":"-68.46600000"},{"name":"Departamento de San Carlos","latitude":"-34.00000000","longitude":"-69.00000000"},{"name":"Departamento de San Martín","latitude":"-32.83730000","longitude":"-68.24922000"},{"name":"Departamento de San Rafael","latitude":"-35.00000000","longitude":"-68.83333000"},{"name":"Departamento de Santa Rosa","latitude":"-33.50000000","longitude":"-68.00000000"},{"name":"Departamento de Tunuyán","latitude":"-33.66667000","longitude":"-69.50000000"},{"name":"Departamento de Tupungato","latitude":"-33.25000000","longitude":"-69.25000000"},{"name":"Godoy Cruz","latitude":"-32.92863000","longitude":"-68.83510000"},{"name":"Las Heras","latitude":"-32.85273000","longitude":"-68.82837000"},{"name":"Mendoza","latitude":"-32.89084000","longitude":"-68.82717000"},{"name":"San Martín","latitude":"-33.08103000","longitude":"-68.46814000"},{"name":"San Rafael","latitude":"-34.61772000","longitude":"-68.33007000"}]