[{"name":"Kabupaten Banggai","latitude":"-0.91141000","longitude":"122.71836000"},{"name":"Kabupaten Banggai Kepulauan","latitude":"-1.30236000","longitude":"123.03726000"},{"name":"Kabupaten Banggai Laut","latitude":"-1.61841000","longitude":"123.49388000"},{"name":"Kabupaten Buol","latitude":"1.04656000","longitude":"121.36867000"},{"name":"Kabupaten Donggala","latitude":"-0.58333000","longitude":"119.85000000"},{"name":"Kabupaten Morowali Utara","latitude":"-1.72070000","longitude":"121.24649000"},{"name":"Kabupaten Parigi Moutong","latitude":"0.33680000","longitude":"120.17841000"},{"name":"Kabupaten Poso","latitude":"-1.65000000","longitude":"120.50000000"},{"name":"Kabupaten Sigi","latitude":"-1.38500000","longitude":"119.96694000"},{"name":"Kabupaten Toli-Toli","latitude":"1.30862000","longitude":"120.88643000"},{"name":"Kota Palu","latitude":"-0.86972000","longitude":"119.90000000"},{"name":"Luwuk","latitude":"-0.95160000","longitude":"122.78750000"},{"name":"Morowali Regency","latitude":"-2.76062000","longitude":"121.95267000"},{"name":"Palu","latitude":"-0.90833000","longitude":"119.87083000"},{"name":"Poso","latitude":"-1.39590000","longitude":"120.75240000"},{"name":"Tojo Una-Una Regency","latitude":"-1.20360000","longitude":"121.48201000"}]