[{"name":"Antananarivo Province","countryCode":"MG","fipsCode":"05","iso":"T","latitude":"-18.70514740","longitude":"46.82528380"},{"name":"Antsiranana Province","countryCode":"MG","fipsCode":"31","iso":"D","latitude":"-13.77153900","longitude":"49.52799960"},{"name":"Fianarantsoa Province","countryCode":"MG","fipsCode":"02","iso":"F","latitude":"-22.35362400","longitude":"46.82528380"},{"name":"Mahajanga Province","countryCode":"MG","fipsCode":"03","iso":"M","latitude":"-16.52388300","longitude":"46.51626200"},{"name":"Toamasina Province","countryCode":"MG","fipsCode":"04","iso":"A","latitude":"-18.14428110","longitude":"49.39578360"},{"name":"Toliara Province","countryCode":"MG","fipsCode":"06","iso":"U","latitude":"-23.35161910","longitude":"43.68549360"}]