[{"name":"Aban","latitude":"56.67870000","longitude":"96.06580000"},{"name":"Abanskiy Rayon","latitude":"56.83333000","longitude":"96.00000000"},{"name":"Achinsk","latitude":"56.26940000","longitude":"90.49930000"},{"name":"Achinskiy Rayon","latitude":"56.25000000","longitude":"90.50000000"},{"name":"Aginskoye","latitude":"55.25860000","longitude":"94.90790000"},{"name":"Balakhta","latitude":"55.38425000","longitude":"91.61872000"},{"name":"Balakhtinskiy Rayon","latitude":"55.50000000","longitude":"91.50000000"},{"name":"Baykit","latitude":"61.67694000","longitude":"96.37917000"},{"name":"Berezovskiy rayon","latitude":"56.03446000","longitude":"93.13866000"},{"name":"Berëzovka","latitude":"56.03044000","longitude":"93.11164000"},{"name":"Birilyusskiy Rayon","latitude":"57.25000000","longitude":"90.75000000"},{"name":"Bogotol","latitude":"56.20778000","longitude":"89.53417000"},{"name":"Bogotol’skiy Rayon","latitude":"56.25000000","longitude":"89.75000000"},{"name":"Boguchanskiy Rayon","latitude":"58.50000000","longitude":"97.50000000"},{"name":"Boguchany","latitude":"58.38139000","longitude":"97.45306000"},{"name":"Bol’shemurtinskiy Rayon","latitude":"57.00000000","longitude":"93.00000000"},{"name":"Bol’sheuluyskiy Rayon","latitude":"56.66667000","longitude":"90.75000000"},{"name":"Bor","latitude":"61.60111000","longitude":"90.01806000"},{"name":"Borodino","latitude":"55.90610000","longitude":"94.90790000"},{"name":"Chunoyar","latitude":"57.44830000","longitude":"97.32860000"},{"name":"Dikson","latitude":"73.50819000","longitude":"80.52918000"},{"name":"Divnogorsk","latitude":"55.95810000","longitude":"92.37260000"},{"name":"Dubinino","latitude":"55.61917000","longitude":"89.09111000"},{"name":"Dudinka","latitude":"69.40583000","longitude":"86.17778000"},{"name":"Dzerzhinskoye","latitude":"56.83444000","longitude":"95.22833000"},{"name":"Evenkiyskiy District","latitude":"65.00000000","longitude":"98.00000000"},{"name":"Filimonovo","latitude":"56.20111000","longitude":"95.46111000"},{"name":"Idrinskiy Rayon","latitude":"54.50000000","longitude":"92.50000000"},{"name":"Idrinskoye","latitude":"54.37083000","longitude":"92.13583000"},{"name":"Igarka","latitude":"67.46550000","longitude":"86.60270000"},{"name":"Ilanskiy","latitude":"56.23250000","longitude":"96.06520000"},{"name":"Ilanskiy Rayon","latitude":"56.00000000","longitude":"96.08333000"},{"name":"Il’ichevo","latitude":"53.27889000","longitude":"91.84028000"},{"name":"Irbeyskiy Rayon","latitude":"55.41667000","longitude":"96.00000000"},{"name":"Irbeyskoye","latitude":"55.63960000","longitude":"95.45150000"},{"name":"Irsha","latitude":"55.92730000","longitude":"94.79990000"},{"name":"Kansk","latitude":"56.20167000","longitude":"95.71750000"},{"name":"Kanskiy Rayon","latitude":"56.25000000","longitude":"95.25000000"},{"name":"Karatuzskoye","latitude":"53.60722000","longitude":"92.86667000"},{"name":"Kayyerkan","latitude":"69.37861000","longitude":"87.74389000"},{"name":"Kazachinskiy Rayon","latitude":"57.66667000","longitude":"93.41667000"},{"name":"Kazachinskoye","latitude":"57.70040000","longitude":"93.28090000"},{"name":"Kedrovyy","latitude":"56.28232000","longitude":"91.53760000"},{"name":"Khatanga","latitude":"71.98002000","longitude":"102.47111000"},{"name":"Kodinsk","latitude":"58.60629000","longitude":"99.17398000"},{"name":"Koshurnikovo","latitude":"54.16667000","longitude":"93.30000000"},{"name":"Krasnokamensk","latitude":"54.33389000","longitude":"93.25944000"},{"name":"Krasnoturansk","latitude":"54.31861000","longitude":"91.56389000"},{"name":"Krasnoyarsk","latitude":"56.01839000","longitude":"92.86717000"},{"name":"Kuragino","latitude":"53.88785000","longitude":"92.68152000"},{"name":"Lesosibirsk","latitude":"58.23583000","longitude":"92.48278000"},{"name":"Manskiy Rayon","latitude":"55.41667000","longitude":"93.66667000"},{"name":"Manzya","latitude":"58.49222000","longitude":"96.26167000"},{"name":"Minusinsk","latitude":"53.71028000","longitude":"91.68750000"},{"name":"Minusinskiy Rayon","latitude":"53.75000000","longitude":"92.00000000"},{"name":"Motygino","latitude":"58.18401000","longitude":"94.69339000"},{"name":"Nazarovo","latitude":"56.01040000","longitude":"90.40110000"},{"name":"Nazarovskiy Rayon","latitude":"56.00000000","longitude":"90.62500000"},{"name":"Nizhneingashskiy Rayon","latitude":"56.25000000","longitude":"97.00000000"},{"name":"Nizhniy Ingash","latitude":"56.20030000","longitude":"96.53730000"},{"name":"Nizhnyaya Poyma","latitude":"56.16430000","longitude":"97.20650000"},{"name":"Norilsk","latitude":"69.35350000","longitude":"88.20270000"},{"name":"Novobirilyussy","latitude":"56.95260000","longitude":"90.68070000"},{"name":"Novochernorechenskiy","latitude":"56.26658000","longitude":"91.09234000"},{"name":"Ovsyanka","latitude":"55.95830000","longitude":"92.57200000"},{"name":"Partizanskiy Rayon","latitude":"55.00000000","longitude":"94.16667000"},{"name":"Partizanskoye","latitude":"55.49720000","longitude":"94.39220000"},{"name":"Pirovskoye","latitude":"57.63012000","longitude":"92.26373000"},{"name":"Predivinsk","latitude":"57.06310000","longitude":"93.43740000"},{"name":"Rassvet","latitude":"56.99900000","longitude":"91.47240000"},{"name":"Razdolinsk","latitude":"58.42111000","longitude":"94.66583000"},{"name":"Sayansk","latitude":"54.15000000","longitude":"91.88500000"},{"name":"Sayanskiy Rayon","latitude":"54.75000000","longitude":"95.00000000"},{"name":"Severo-Yeniseyskiy","latitude":"60.37552000","longitude":"93.03017000"},{"name":"Severo-Yeniseyskiy Rayon","latitude":"60.00000000","longitude":"93.25000000"},{"name":"Shalinskoye","latitude":"55.71940000","longitude":"93.75890000"},{"name":"Sharypovo","latitude":"55.54028000","longitude":"89.20083000"},{"name":"Sharypovskiy Rayon","latitude":"55.50000000","longitude":"89.25000000"},{"name":"Shushenskiy Rayon","latitude":"53.41667000","longitude":"91.50000000"},{"name":"Shushenskoye","latitude":"53.32500000","longitude":"91.93556000"},{"name":"Snezhnogorsk","latitude":"68.09306000","longitude":"87.74000000"},{"name":"Solnechnyy","latitude":"56.11583000","longitude":"92.92528000"},{"name":"Sosnovoborsk","latitude":"56.12170000","longitude":"93.33850000"},{"name":"Strelka","latitude":"58.07278000","longitude":"93.03444000"},{"name":"Sukhobuzimskoye","latitude":"56.50000000","longitude":"93.27278000"},{"name":"Svetlogorsk","latitude":"66.93762000","longitude":"88.35265000"},{"name":"Talnakh","latitude":"69.48650000","longitude":"88.39720000"},{"name":"Tanzybey","latitude":"53.13265000","longitude":"92.94335000"},{"name":"Taseyevo","latitude":"57.21457000","longitude":"94.89393000"},{"name":"Taymyrsky Dolgano-Nenetsky District","latitude":"72.00000000","longitude":"95.00000000"},{"name":"Teya","latitude":"60.37202000","longitude":"92.62956000"},{"name":"Tinskoy","latitude":"56.15130000","longitude":"96.91730000"},{"name":"Tura","latitude":"64.27769000","longitude":"100.21849000"},{"name":"Turukhansk","latitude":"65.79479000","longitude":"87.95006000"},{"name":"Tyukhtet","latitude":"56.53939000","longitude":"89.31221000"},{"name":"Ural","latitude":"55.90520000","longitude":"94.75370000"},{"name":"Uyar","latitude":"55.81180000","longitude":"94.32470000"},{"name":"Uyarskiy Rayon","latitude":"55.83333000","longitude":"94.25000000"},{"name":"Uzhur","latitude":"55.31246000","longitude":"89.83301000"},{"name":"Vanavara","latitude":"60.34679000","longitude":"102.28434000"},{"name":"Yemel’yanovo","latitude":"56.16776000","longitude":"92.67539000"},{"name":"Yemel’yanovskiy Rayon","latitude":"56.41667000","longitude":"92.75000000"},{"name":"Yeniseysk","latitude":"58.44937000","longitude":"92.17968000"},{"name":"Yeniseyskiy Rayon","latitude":"60.00000000","longitude":"89.00000000"},{"name":"Yermakovskoye","latitude":"53.27545000","longitude":"92.40021000"},{"name":"Zelenogorsk","latitude":"56.11240000","longitude":"94.59850000"},{"name":"Zelënyy Bor","latitude":"53.62178000","longitude":"91.61528000"},{"name":"Zheleznogorsk","latitude":"56.25111000","longitude":"93.53194000"},{"name":"Zykovo","latitude":"55.95503000","longitude":"93.16093000"}]