[{"name":"Amphoe Ban Tak","latitude":"17.09163000","longitude":"99.06648000"},{"name":"Amphoe Mae Ramat","latitude":"17.11180000","longitude":"98.58635000"},{"name":"Amphoe Mae Sot","latitude":"16.72154000","longitude":"98.71074000"},{"name":"Amphoe Mueang Tak","latitude":"16.87650000","longitude":"99.16617000"},{"name":"Amphoe Phop Phra","latitude":"16.47215000","longitude":"98.83501000"},{"name":"Amphoe Tha Song Yang","latitude":"17.47481000","longitude":"98.12079000"},{"name":"Amphoe Umphang","latitude":"15.79496000","longitude":"98.87787000"},{"name":"Amphoe Wang Chao","latitude":"16.63311000","longitude":"99.14826000"},{"name":"Ban Tak","latitude":"17.04325000","longitude":"99.08128000"},{"name":"Mae Ramat","latitude":"16.98403000","longitude":"98.51665000"},{"name":"Mae Sot","latitude":"16.71667000","longitude":"98.56667000"},{"name":"Tak","latitude":"16.86968000","longitude":"99.12898000"}]