[{"name":"Acosta","latitude":"9.80000000","longitude":"-84.20000000"},{"name":"Alajuelita","latitude":"9.90000000","longitude":"-84.10000000"},{"name":"Aserrí","latitude":"9.86667000","longitude":"-84.10000000"},{"name":"Calle Blancos","latitude":"9.95000000","longitude":"-84.06667000"},{"name":"Colima","latitude":"9.95091000","longitude":"-84.08503000"},{"name":"Colón","latitude":"9.91491000","longitude":"-84.24170000"},{"name":"Curridabat","latitude":"9.91667000","longitude":"-84.03333000"},{"name":"Daniel Flores","latitude":"9.33554000","longitude":"-83.66940000"},{"name":"Desamparados","latitude":"9.90000000","longitude":"-84.06667000"},{"name":"Dota","latitude":"9.65000000","longitude":"-83.95000000"},{"name":"Escazú","latitude":"9.93333000","longitude":"-84.13333000"},{"name":"Goicoechea","latitude":"9.94848000","longitude":"-84.06365000"},{"name":"Granadilla","latitude":"9.93491000","longitude":"-84.01688000"},{"name":"Guadalupe","latitude":"9.94805000","longitude":"-84.05665000"},{"name":"Ipís","latitude":"9.96745000","longitude":"-84.01326000"},{"name":"León Cortés","latitude":"9.68300000","longitude":"-84.04781000"},{"name":"Mercedes","latitude":"9.26270000","longitude":"-83.58202000"},{"name":"Montes de Oca","latitude":"9.93960000","longitude":"-84.03013000"},{"name":"Mora","latitude":"9.91667000","longitude":"-84.25000000"},{"name":"Moravia","latitude":"10.04000000","longitude":"-84.00000000"},{"name":"Palmichal","latitude":"9.83778000","longitude":"-84.20478000"},{"name":"Patarrá","latitude":"9.88071000","longitude":"-84.03501000"},{"name":"Puriscal","latitude":"9.75000000","longitude":"-84.41667000"},{"name":"Purral","latitude":"9.95808000","longitude":"-84.03050000"},{"name":"Pérez Zeledón","latitude":"9.35473000","longitude":"-83.63484000"},{"name":"Sabanilla","latitude":"9.94522000","longitude":"-84.03927000"},{"name":"Salitral","latitude":"9.91163000","longitude":"-84.17835000"},{"name":"Salitrillos","latitude":"9.85259000","longitude":"-84.09062000"},{"name":"San Felipe","latitude":"9.90488000","longitude":"-84.10551000"},{"name":"San Ignacio","latitude":"9.79853000","longitude":"-84.16173000"},{"name":"San Isidro","latitude":"9.36740000","longitude":"-83.69713000"},{"name":"San José","latitude":"9.93333000","longitude":"-84.08333000"},{"name":"San Juan","latitude":"9.95974000","longitude":"-84.08165000"},{"name":"San Juan de Dios","latitude":"9.87730000","longitude":"-84.08470000"},{"name":"San Marcos","latitude":"9.66010000","longitude":"-84.02026000"},{"name":"San Miguel","latitude":"9.87121000","longitude":"-84.06084000"},{"name":"San Pedro","latitude":"9.92829000","longitude":"-84.05074000"},{"name":"San Rafael","latitude":"9.92787000","longitude":"-84.13722000"},{"name":"San Rafael Abajo","latitude":"9.83100000","longitude":"-84.29008000"},{"name":"San Rafael Arriba","latitude":"9.87556000","longitude":"-84.07661000"},{"name":"San Vicente","latitude":"9.96016000","longitude":"-84.04762000"},{"name":"San Vicente de Moravia","latitude":"9.96164000","longitude":"-84.04880000"},{"name":"Santa Ana","latitude":"9.93260000","longitude":"-84.18255000"},{"name":"Santiago","latitude":"9.84636000","longitude":"-84.31428000"},{"name":"Tarrazú","latitude":"9.65965000","longitude":"-84.02138000"},{"name":"Tejar","latitude":"9.74622000","longitude":"-84.23368000"},{"name":"Tibás","latitude":"9.96667000","longitude":"-84.08333000"},{"name":"Turrubares","latitude":"9.75000000","longitude":"-84.50000000"},{"name":"Vázquez de Coronado","latitude":"10.06000000","longitude":"-84.00000000"}]