[{"name":"Atlántida Department","countryCode":"HN","fipsCode":"01","iso":"AT","latitude":"15.66962830","longitude":"-87.14228950"},{"name":"Bay Islands Department","countryCode":"HN","fipsCode":"11","iso":"IB","latitude":"16.48266140","longitude":"-85.87932520"},{"name":"Choluteca Department","countryCode":"HN","fipsCode":"02","iso":"CH","latitude":"13.25043250","longitude":"-87.14228950"},{"name":"Colón Department","countryCode":"HN","fipsCode":"03","iso":"CL","latitude":"15.64259650","longitude":"-85.52002400"},{"name":"Comayagua Department","countryCode":"HN","fipsCode":"04","iso":"CM","latitude":"14.55348280","longitude":"-87.61863790"},{"name":"Copán Department","countryCode":"HN","fipsCode":"05","iso":"CP","latitude":"14.93608380","longitude":"-88.86469800"},{"name":"Cortés Department","countryCode":"HN","fipsCode":"06","iso":"CR","latitude":"15.49235080","longitude":"-88.09007620"},{"name":"El Paraíso Department","countryCode":"HN","fipsCode":"07","iso":"EP","latitude":"13.98212940","longitude":"-86.49965460"},{"name":"Francisco Morazán Department","countryCode":"HN","fipsCode":"08","iso":"FM","latitude":"14.45411000","longitude":"-87.06242610"},{"name":"Gracias a Dios Department","countryCode":"HN","fipsCode":"09","iso":"GD","latitude":"15.34180600","longitude":"-84.60604490"},{"name":"Intibucá Department","countryCode":"HN","fipsCode":"10","iso":"IN","latitude":"14.37273400","longitude":"-88.24611830"},{"name":"La Paz Department","countryCode":"HN","fipsCode":"12","iso":"LP","latitude":"-15.08924160","longitude":"-68.52471490"},{"name":"Lempira Department","countryCode":"HN","fipsCode":"13","iso":"LE","latitude":"14.18876980","longitude":"-88.55653100"},{"name":"Ocotepeque Department","countryCode":"HN","fipsCode":"14","iso":"OC","latitude":"14.51703470","longitude":"-89.05615320"},{"name":"Olancho Department","countryCode":"HN","fipsCode":"15","iso":"OL","latitude":"14.80674060","longitude":"-85.76666450"},{"name":"Santa Bárbara Department","countryCode":"HN","fipsCode":"16","iso":"SB","latitude":"15.12027950","longitude":"-88.40160410"},{"name":"Valle Department","countryCode":"HN","fipsCode":"17","iso":"VA","latitude":"13.57829360","longitude":"-87.57912870"},{"name":"Yoro Department","countryCode":"HN","fipsCode":"18","iso":"YO","latitude":"15.29496790","longitude":"-87.14228950"}]