[{"name":"Bogo","latitude":"10.73360000","longitude":"14.60928000"},{"name":"Kaélé","latitude":"10.10917000","longitude":"14.45083000"},{"name":"Kousséri","latitude":"12.07689000","longitude":"15.03063000"},{"name":"Koza","latitude":"10.86846000","longitude":"13.88205000"},{"name":"Makary","latitude":"12.57535000","longitude":"14.45483000"},{"name":"Maroua","latitude":"10.59095000","longitude":"14.31593000"},{"name":"Mayo-Sava","latitude":"11.10682000","longitude":"14.20560000"},{"name":"Mayo-Tsanaga","latitude":"10.58221000","longitude":"13.79351000"},{"name":"Mindif","latitude":"10.39757000","longitude":"14.43626000"},{"name":"Mokolo","latitude":"10.74244000","longitude":"13.80227000"},{"name":"Mora","latitude":"11.04611000","longitude":"14.14011000"},{"name":"Yagoua","latitude":"10.34107000","longitude":"15.23288000"}]