[{"name":"Albshausen","latitude":"50.54431000","longitude":"8.43784000"},{"name":"Alheim","latitude":"51.03333000","longitude":"9.66667000"},{"name":"Allendorf","latitude":"51.02995000","longitude":"8.67232000"},{"name":"Allendorf an der Lahn","latitude":"50.55109000","longitude":"8.62008000"},{"name":"Alsbach-Hähnlein","latitude":"49.73861000","longitude":"8.59583000"},{"name":"Alsfeld","latitude":"50.75185000","longitude":"9.27082000"},{"name":"Alten Buseck","latitude":"50.62218000","longitude":"8.75322000"},{"name":"Altenstadt","latitude":"50.28747000","longitude":"8.94373000"},{"name":"Amöneburg","latitude":"50.79595000","longitude":"8.92330000"},{"name":"Aßlar","latitude":"50.59163000","longitude":"8.46273000"},{"name":"Babenhausen","latitude":"49.96519000","longitude":"8.95129000"},{"name":"Bad Arolsen","latitude":"51.37982000","longitude":"9.01445000"},{"name":"Bad Camberg","latitude":"50.29695000","longitude":"8.26896000"},{"name":"Bad Endbach","latitude":"50.75000000","longitude":"8.50000000"},{"name":"Bad Hersfeld","latitude":"50.87197000","longitude":"9.70891000"},{"name":"Bad Homburg vor der Höhe","latitude":"50.22683000","longitude":"8.61816000"},{"name":"Bad Karlshafen","latitude":"51.64263000","longitude":"9.45477000"},{"name":"Bad König","latitude":"49.74320000","longitude":"9.00750000"},{"name":"Bad Nauheim","latitude":"50.36463000","longitude":"8.73859000"},{"name":"Bad Orb","latitude":"50.22788000","longitude":"9.34782000"},{"name":"Bad Salzschlirf","latitude":"50.62388000","longitude":"9.50815000"},{"name":"Bad Schwalbach","latitude":"50.14196000","longitude":"8.06964000"},{"name":"Bad Soden am Taunus","latitude":"50.14080000","longitude":"8.50449000"},{"name":"Bad Soden-Salmünster","latitude":"50.27574000","longitude":"9.36705000"},{"name":"Bad Sooden-Allendorf","latitude":"51.27092000","longitude":"9.97483000"},{"name":"Bad Vilbel","latitude":"50.17866000","longitude":"8.73756000"},{"name":"Bad Wildungen","latitude":"51.11963000","longitude":"9.12475000"},{"name":"Battenberg","latitude":"51.01391000","longitude":"8.64603000"},{"name":"Baunatal","latitude":"51.25182000","longitude":"9.40747000"},{"name":"Bebra","latitude":"50.97445000","longitude":"9.79562000"},{"name":"Beerfelden","latitude":"49.56858000","longitude":"8.97444000"},{"name":"Bensheim","latitude":"49.68369000","longitude":"8.61839000"},{"name":"Berstadt","latitude":"50.42606000","longitude":"8.86621000"},{"name":"Beuern","latitude":"50.62745000","longitude":"8.82108000"},{"name":"Biblis","latitude":"49.69167000","longitude":"8.45861000"},{"name":"Bickenbach","latitude":"49.75917000","longitude":"8.61750000"},{"name":"Biebesheim","latitude":"49.78088000","longitude":"8.46696000"},{"name":"Biedenkopf","latitude":"50.91125000","longitude":"8.53016000"},{"name":"Birkenau","latitude":"49.56250000","longitude":"8.70694000"},{"name":"Birstein","latitude":"50.35000000","longitude":"9.30000000"},{"name":"Bischoffen","latitude":"50.70000000","longitude":"8.45000000"},{"name":"Bischofsheim","latitude":"49.99389000","longitude":"8.36722000"},{"name":"Borken","latitude":"51.04501000","longitude":"9.28440000"},{"name":"Braunfels","latitude":"50.51545000","longitude":"8.38918000"},{"name":"Breidenbach","latitude":"50.88734000","longitude":"8.45748000"},{"name":"Breitenbach","latitude":"50.95655000","longitude":"9.78285000"},{"name":"Breitscheid","latitude":"50.68507000","longitude":"8.19120000"},{"name":"Brensbach","latitude":"49.77389000","longitude":"8.88444000"},{"name":"Breuna","latitude":"51.41575000","longitude":"9.18500000"},{"name":"Bromskirchen","latitude":"51.09363000","longitude":"8.62640000"},{"name":"Bruchköbel","latitude":"50.17853000","longitude":"8.92315000"},{"name":"Burghaun","latitude":"50.69684000","longitude":"9.72453000"},{"name":"Burgsolms","latitude":"50.54191000","longitude":"8.40411000"},{"name":"Butzbach","latitude":"50.43395000","longitude":"8.67122000"},{"name":"Büdingen","latitude":"50.29013000","longitude":"9.11140000"},{"name":"Bürstadt","latitude":"49.64266000","longitude":"8.45936000"},{"name":"Büttelborn","latitude":"49.90333000","longitude":"8.52333000"},{"name":"Calden","latitude":"51.40943000","longitude":"9.40189000"},{"name":"Cornberg","latitude":"51.04160000","longitude":"9.86051000"},{"name":"Cölbe","latitude":"50.85098000","longitude":"8.78092000"},{"name":"Darmstadt","latitude":"49.87167000","longitude":"8.65027000"},{"name":"Dehrn","latitude":"50.42049000","longitude":"8.09846000"},{"name":"Dieburg","latitude":"49.89738000","longitude":"8.84613000"},{"name":"Dietzenbach","latitude":"50.00976000","longitude":"8.77783000"},{"name":"Dillenburg","latitude":"50.74114000","longitude":"8.28699000"},{"name":"Dipperz","latitude":"50.54333000","longitude":"9.79586000"},{"name":"Dreieich","latitude":"50.01997000","longitude":"8.69611000"},{"name":"Driedorf","latitude":"50.63333000","longitude":"8.18333000"},{"name":"Echzell","latitude":"50.38888000","longitude":"8.88605000"},{"name":"Egelsbach","latitude":"49.96792000","longitude":"8.66341000"},{"name":"Ehringshausen","latitude":"50.60000000","longitude":"8.38333000"},{"name":"Eichenzell","latitude":"50.49536000","longitude":"9.69672000"},{"name":"Einhausen","latitude":"49.67667000","longitude":"8.54833000"},{"name":"Eiterfeld","latitude":"50.76667000","longitude":"9.80000000"},{"name":"Eltville","latitude":"50.02858000","longitude":"8.11754000"},{"name":"Elz","latitude":"50.41667000","longitude":"8.03333000"},{"name":"Eppertshausen","latitude":"49.95056000","longitude":"8.85389000"},{"name":"Eppstein","latitude":"50.14277000","longitude":"8.39231000"},{"name":"Erbach","latitude":"49.66148000","longitude":"8.99402000"},{"name":"Erlensee","latitude":"50.16304000","longitude":"8.97823000"},{"name":"Erzhausen","latitude":"49.95528000","longitude":"8.64750000"},{"name":"Eschborn","latitude":"50.14328000","longitude":"8.57111000"},{"name":"Eschwege","latitude":"51.18386000","longitude":"10.05329000"},{"name":"Espenau","latitude":"51.39664000","longitude":"9.47021000"},{"name":"Felsberg","latitude":"51.13763000","longitude":"9.42139000"},{"name":"Flieden","latitude":"50.42389000","longitude":"9.56660000"},{"name":"Florstadt","latitude":"50.31667000","longitude":"8.86667000"},{"name":"Flörsheim","latitude":"50.01311000","longitude":"8.42779000"},{"name":"Frankenau","latitude":"51.09269000","longitude":"8.93447000"},{"name":"Frankenberg","latitude":"51.05890000","longitude":"8.80077000"},{"name":"Frankfurt am Main","latitude":"50.11552000","longitude":"8.68417000"},{"name":"Freiensteinau","latitude":"50.42509000","longitude":"9.40267000"},{"name":"Friedberg","latitude":"50.33739000","longitude":"8.75591000"},{"name":"Friedewald","latitude":"50.88333000","longitude":"9.86667000"},{"name":"Friedrichsdorf","latitude":"50.24962000","longitude":"8.64281000"},{"name":"Frielendorf","latitude":"50.97073000","longitude":"9.32269000"},{"name":"Fritzlar","latitude":"51.13181000","longitude":"9.27557000"},{"name":"Fronhausen","latitude":"50.70000000","longitude":"8.70000000"},{"name":"Fränkisch-Crumbach","latitude":"49.74611000","longitude":"8.85861000"},{"name":"Fulda","latitude":"50.55162000","longitude":"9.67518000"},{"name":"Fuldatal","latitude":"51.38333000","longitude":"9.56667000"},{"name":"Fürth","latitude":"49.65083000","longitude":"8.78472000"},{"name":"Gallus","latitude":"50.10038000","longitude":"8.62950000"},{"name":"Gedern","latitude":"50.42482000","longitude":"9.19840000"},{"name":"Geisenheim","latitude":"49.98470000","longitude":"7.96835000"},{"name":"Gelnhausen","latitude":"50.20164000","longitude":"9.18742000"},{"name":"Gemünden an der Wohra","latitude":"50.97401000","longitude":"8.96946000"},{"name":"Gernsheim","latitude":"49.75305000","longitude":"8.48859000"},{"name":"Gersfeld","latitude":"50.45138000","longitude":"9.91422000"},{"name":"Gießen","latitude":"50.58727000","longitude":"8.67554000"},{"name":"Gilserberg","latitude":"50.95000000","longitude":"9.06667000"},{"name":"Ginsheim-Gustavsburg","latitude":"49.97110000","longitude":"8.34532000"},{"name":"Gladenbach","latitude":"50.76847000","longitude":"8.58085000"},{"name":"Glashütten","latitude":"50.21667000","longitude":"8.40000000"},{"name":"Glauburg","latitude":"50.31667000","longitude":"9.00000000"},{"name":"Grebenau","latitude":"50.74242000","longitude":"9.47307000"},{"name":"Grebenhain","latitude":"50.48924000","longitude":"9.33855000"},{"name":"Grebenstein","latitude":"51.44648000","longitude":"9.41250000"},{"name":"Greifenstein","latitude":"50.61667000","longitude":"8.30000000"},{"name":"Griesheim","latitude":"49.86085000","longitude":"8.57250000"},{"name":"Groß-Bieberau","latitude":"49.80064000","longitude":"8.82430000"},{"name":"Groß-Gerau","latitude":"49.92139000","longitude":"8.48255000"},{"name":"Groß-Rohrheim","latitude":"49.72111000","longitude":"8.48278000"},{"name":"Groß-Umstadt","latitude":"49.86899000","longitude":"8.93210000"},{"name":"Groß-Zimmern","latitude":"49.87410000","longitude":"8.82898000"},{"name":"Großalmerode","latitude":"51.25858000","longitude":"9.78450000"},{"name":"Großenlüder","latitude":"50.59250000","longitude":"9.54231000"},{"name":"Großkrotzenburg","latitude":"50.08333000","longitude":"8.98333000"},{"name":"Grävenwiesbach","latitude":"50.39024000","longitude":"8.45690000"},{"name":"Grünberg","latitude":"50.59403000","longitude":"8.95866000"},{"name":"Gudensberg","latitude":"51.17706000","longitude":"9.36748000"},{"name":"Guxhagen","latitude":"51.20000000","longitude":"9.48333000"},{"name":"Hadamar","latitude":"50.44593000","longitude":"8.04253000"},{"name":"Haiger","latitude":"50.74162000","longitude":"8.20778000"},{"name":"Hain-Gründau","latitude":"50.24284000","longitude":"9.14287000"},{"name":"Haina","latitude":"51.02774000","longitude":"8.97441000"},{"name":"Hammersbach","latitude":"50.21667000","longitude":"8.98333000"},{"name":"Hanau am Main","latitude":"50.13423000","longitude":"8.91418000"},{"name":"Hattersheim","latitude":"50.07854000","longitude":"8.47552000"},{"name":"Hatzfeld","latitude":"50.99334000","longitude":"8.54570000"},{"name":"Helsa","latitude":"51.25981000","longitude":"9.68872000"},{"name":"Heppenheim an der Bergstrasse","latitude":"49.64145000","longitude":"8.63206000"},{"name":"Herborn","latitude":"50.68135000","longitude":"8.30369000"},{"name":"Herbstein","latitude":"50.56105000","longitude":"9.34592000"},{"name":"Heringen","latitude":"50.88798000","longitude":"10.00717000"},{"name":"Herleshausen","latitude":"51.00629000","longitude":"10.16731000"},{"name":"Hessisch Lichtenau","latitude":"51.19954000","longitude":"9.71857000"},{"name":"Heuchelheim","latitude":"50.58333000","longitude":"8.63333000"},{"name":"Heusenstamm","latitude":"50.05553000","longitude":"8.80076000"},{"name":"Hilders","latitude":"50.57190000","longitude":"10.00297000"},{"name":"Hirschhorn","latitude":"49.44566000","longitude":"8.89594000"},{"name":"Hirzenhain","latitude":"50.40000000","longitude":"9.13333000"},{"name":"Hochheim am Main","latitude":"50.01436000","longitude":"8.35218000"},{"name":"Hofbieber","latitude":"50.58629000","longitude":"9.83534000"},{"name":"Hofgeismar","latitude":"51.49607000","longitude":"9.38500000"},{"name":"Hofheim am Taunus","latitude":"50.09019000","longitude":"8.44930000"},{"name":"Homberg","latitude":"50.73108000","longitude":"8.99644000"},{"name":"Hosenfeld","latitude":"50.50502000","longitude":"9.47966000"},{"name":"Hungen","latitude":"50.47368000","longitude":"8.89326000"},{"name":"Höchst im Odenwald","latitude":"49.79972000","longitude":"8.99944000"},{"name":"Höingen","latitude":"50.71910000","longitude":"8.91961000"},{"name":"Hörnsheim","latitude":"50.51828000","longitude":"8.62976000"},{"name":"Hünfeld","latitude":"50.67966000","longitude":"9.76727000"},{"name":"Idstein","latitude":"50.21773000","longitude":"8.26679000"},{"name":"Immenhausen","latitude":"51.42763000","longitude":"9.48017000"},{"name":"Jesberg","latitude":"51.00000000","longitude":"9.15000000"},{"name":"Karben","latitude":"50.23019000","longitude":"8.77155000"},{"name":"Kassel","latitude":"51.31667000","longitude":"9.50000000"},{"name":"Kaufungen","latitude":"51.28111000","longitude":"9.61861000"},{"name":"Kefenrod","latitude":"50.34475000","longitude":"9.21141000"},{"name":"Kelkheim (Taunus)","latitude":"50.13703000","longitude":"8.45020000"},{"name":"Kelsterbach","latitude":"50.06135000","longitude":"8.52916000"},{"name":"Kiedrich","latitude":"50.03965000","longitude":"8.08531000"},{"name":"Kirchhain","latitude":"50.82720000","longitude":"8.92806000"},{"name":"Kirchheim","latitude":"50.83333000","longitude":"9.56667000"},{"name":"Kirtorf","latitude":"50.76942000","longitude":"9.10389000"},{"name":"Korbach","latitude":"51.27561000","longitude":"8.87300000"},{"name":"Kriftel","latitude":"50.08408000","longitude":"8.46977000"},{"name":"Kronberg","latitude":"50.18424000","longitude":"8.52320000"},{"name":"Kronberg Tal","latitude":"50.17929000","longitude":"8.50370000"},{"name":"Königstein im Taunus","latitude":"50.17943000","longitude":"8.47132000"},{"name":"Körle","latitude":"51.16667000","longitude":"9.51667000"},{"name":"Künzell","latitude":"50.54420000","longitude":"9.71792000"},{"name":"Lampertheim","latitude":"49.59786000","longitude":"8.47250000"},{"name":"Langen","latitude":"49.98955000","longitude":"8.66852000"},{"name":"Langenselbold","latitude":"50.17657000","longitude":"9.04003000"},{"name":"Langgöns","latitude":"50.50000000","longitude":"8.66667000"},{"name":"Laubach","latitude":"50.54196000","longitude":"8.99034000"},{"name":"Laufdorf","latitude":"50.51605000","longitude":"8.45982000"},{"name":"Lauterbach","latitude":"50.63558000","longitude":"9.39777000"},{"name":"Lautertal","latitude":"50.58333000","longitude":"9.28333000"},{"name":"Leun","latitude":"50.55129000","longitude":"8.35836000"},{"name":"Lich","latitude":"50.52085000","longitude":"8.81567000"},{"name":"Liebenau","latitude":"51.49699000","longitude":"9.28207000"},{"name":"Liederbach","latitude":"50.12221000","longitude":"8.49397000"},{"name":"Limburg an der Lahn","latitude":"50.38360000","longitude":"8.05030000"},{"name":"Lindenfels","latitude":"49.68369000","longitude":"8.78151000"},{"name":"Lohfelden","latitude":"51.26667000","longitude":"9.53333000"},{"name":"Lohra","latitude":"50.73333000","longitude":"8.63333000"},{"name":"Lollar","latitude":"50.64652000","longitude":"8.70495000"},{"name":"Lorsch","latitude":"49.65000000","longitude":"8.56667000"},{"name":"Löhnberg","latitude":"50.51299000","longitude":"8.27202000"},{"name":"Lützelbach","latitude":"49.74233000","longitude":"8.76687000"},{"name":"Maintal","latitude":"50.15000000","longitude":"8.83333000"},{"name":"Malsfeld","latitude":"51.09083000","longitude":"9.53889000"},{"name":"Marburg an der Lahn","latitude":"50.80904000","longitude":"8.77069000"},{"name":"Martinhagen","latitude":"51.28688000","longitude":"9.28611000"},{"name":"Melbach","latitude":"50.37908000","longitude":"8.80926000"},{"name":"Melsungen","latitude":"51.13029000","longitude":"9.55236000"},{"name":"Mengerskirchen","latitude":"50.56392000","longitude":"8.15555000"},{"name":"Merenberg","latitude":"50.50707000","longitude":"8.19194000"},{"name":"Merkenbach","latitude":"50.65626000","longitude":"8.29513000"},{"name":"Messel","latitude":"49.93833000","longitude":"8.74056000"},{"name":"Michelstadt","latitude":"49.67569000","longitude":"9.00373000"},{"name":"Mittenaar","latitude":"50.70000000","longitude":"8.38333000"},{"name":"Mörfelden-Walldorf","latitude":"49.99472000","longitude":"8.58361000"},{"name":"Mörlenbach","latitude":"49.59917000","longitude":"8.73472000"},{"name":"Mühlheim am Main","latitude":"50.11667000","longitude":"8.83333000"},{"name":"Münchhausen","latitude":"50.96081000","longitude":"8.71837000"},{"name":"Münster","latitude":"49.92278000","longitude":"8.86778000"},{"name":"Münzenberg","latitude":"50.45346000","longitude":"8.77430000"},{"name":"Naumburg","latitude":"51.24816000","longitude":"9.16569000"},{"name":"Neckarsteinach","latitude":"49.40735000","longitude":"8.84342000"},{"name":"Nentershausen","latitude":"51.01667000","longitude":"9.93333000"},{"name":"Neu Isenburg","latitude":"50.04832000","longitude":"8.69406000"},{"name":"Neu-Anspach","latitude":"50.31667000","longitude":"8.50000000"},{"name":"Neuental","latitude":"51.00000000","longitude":"9.21667000"},{"name":"Neuhof","latitude":"50.45313000","longitude":"9.61750000"},{"name":"Neukirchen","latitude":"50.86906000","longitude":"9.34655000"},{"name":"Neustadt (Hessen)","latitude":"50.85000000","longitude":"9.11667000"},{"name":"Nidda","latitude":"50.41330000","longitude":"9.00638000"},{"name":"Nidderau","latitude":"50.23805000","longitude":"8.86704000"},{"name":"Niedenstein","latitude":"51.23342000","longitude":"9.31029000"},{"name":"Nieder-Gründau","latitude":"50.21097000","longitude":"9.10801000"},{"name":"Niederaula","latitude":"50.80000000","longitude":"9.60000000"},{"name":"Niederbiel","latitude":"50.55505000","longitude":"8.39845000"},{"name":"Niederdorfelden","latitude":"50.19415000","longitude":"8.80005000"},{"name":"Niederklein","latitude":"50.79400000","longitude":"8.99694000"},{"name":"Niedernhausen","latitude":"50.16307000","longitude":"8.31338000"},{"name":"Niederrad","latitude":"50.08309000","longitude":"8.62852000"},{"name":"Ober-Mörlen","latitude":"50.37350000","longitude":"8.69087000"},{"name":"Ober-Ramstadt","latitude":"49.83078000","longitude":"8.74887000"},{"name":"Oberaula","latitude":"50.85000000","longitude":"9.46667000"},{"name":"Oberbiel","latitude":"50.55320000","longitude":"8.42797000"},{"name":"Obertshausen","latitude":"50.07139000","longitude":"8.85123000"},{"name":"Oberursel","latitude":"50.20731000","longitude":"8.57747000"},{"name":"Offenbach","latitude":"50.10061000","longitude":"8.76647000"},{"name":"Ortenberg","latitude":"50.35584000","longitude":"9.05602000"},{"name":"Ottrau","latitude":"50.80599000","longitude":"9.38575000"},{"name":"Pfungstadt","latitude":"49.80557000","longitude":"8.60307000"},{"name":"Philippsthal","latitude":"50.83948000","longitude":"10.00906000"},{"name":"Poppenhausen","latitude":"50.48793000","longitude":"9.86795000"},{"name":"Rabenau","latitude":"50.67753000","longitude":"8.86425000"},{"name":"Ranstadt","latitude":"50.35739000","longitude":"8.98375000"},{"name":"Rasdorf","latitude":"50.71667000","longitude":"9.90000000"},{"name":"Raunheim","latitude":"50.01320000","longitude":"8.45253000"},{"name":"Rauschenberg","latitude":"50.88329000","longitude":"8.91864000"},{"name":"Regierungsbezirk Darmstadt","latitude":"50.00000000","longitude":"8.75000000"},{"name":"Regierungsbezirk Gießen","latitude":"50.69806000","longitude":"8.76861000"},{"name":"Regierungsbezirk Kassel","latitude":"51.08333000","longitude":"9.40000000"},{"name":"Reichelsheim","latitude":"49.71211000","longitude":"8.83896000"},{"name":"Reinhardshausen","latitude":"51.11166000","longitude":"9.07514000"},{"name":"Reinheim","latitude":"49.82923000","longitude":"8.83572000"},{"name":"Reiskirchen","latitude":"50.60000000","longitude":"8.83333000"},{"name":"Riedstadt","latitude":"49.83411000","longitude":"8.49621000"},{"name":"Rimbach","latitude":"49.62500000","longitude":"8.76306000"},{"name":"Rockenberg","latitude":"50.43050000","longitude":"8.73688000"},{"name":"Rodenbach","latitude":"50.15000000","longitude":"9.03333000"},{"name":"Rodgau","latitude":"50.02627000","longitude":"8.88588000"},{"name":"Romrod","latitude":"50.71341000","longitude":"9.22010000"},{"name":"Ronshausen","latitude":"50.95000000","longitude":"9.85000000"},{"name":"Rosbach vor der Höhe","latitude":"50.30332000","longitude":"8.68976000"},{"name":"Rosenthal","latitude":"50.97439000","longitude":"8.86736000"},{"name":"Rotenburg an der Fulda","latitude":"50.99556000","longitude":"9.72838000"},{"name":"Rothenberg","latitude":"49.49917000","longitude":"8.91917000"},{"name":"Roßdorf","latitude":"49.85972000","longitude":"8.76167000"},{"name":"Runkel","latitude":"50.40574000","longitude":"8.15457000"},{"name":"Rüdesheim am Rhein","latitude":"49.97890000","longitude":"7.92442000"},{"name":"Rüsselsheim","latitude":"49.98955000","longitude":"8.42251000"},{"name":"Sachsenhausen","latitude":"51.24338000","longitude":"9.00973000"},{"name":"Schaafheim","latitude":"49.92417000","longitude":"9.00944000"},{"name":"Schenklengsfeld","latitude":"50.81667000","longitude":"9.85000000"},{"name":"Schlangenbad","latitude":"50.09322000","longitude":"8.10312000"},{"name":"Schlitz","latitude":"50.67416000","longitude":"9.56102000"},{"name":"Schlüchtern","latitude":"50.34891000","longitude":"9.52532000"},{"name":"Schmitten","latitude":"50.26667000","longitude":"8.45000000"},{"name":"Schotten","latitude":"50.50346000","longitude":"9.12516000"},{"name":"Schrecksbach","latitude":"50.83333000","longitude":"9.28333000"},{"name":"Schwalbach","latitude":"50.49672000","longitude":"8.46943000"},{"name":"Schwalbach am Taunus","latitude":"50.15000000","longitude":"8.53333000"},{"name":"Schwalmstadt","latitude":"50.93333000","longitude":"9.21667000"},{"name":"Schwalmtal","latitude":"50.68333000","longitude":"9.21667000"},{"name":"Schwarzenborn","latitude":"50.90977000","longitude":"9.44658000"},{"name":"Schöffengrund","latitude":"50.49345000","longitude":"8.47183000"},{"name":"Seeheim-Jugenheim","latitude":"49.76500000","longitude":"8.65194000"},{"name":"Seligenstadt","latitude":"50.04320000","longitude":"8.97394000"},{"name":"Selters","latitude":"50.51681000","longitude":"8.28953000"},{"name":"Sinn","latitude":"50.65000000","longitude":"8.33333000"},{"name":"Solms","latitude":"50.53620000","longitude":"8.40704000"},{"name":"Sontra","latitude":"51.07171000","longitude":"9.93558000"},{"name":"Spangenberg","latitude":"51.11644000","longitude":"9.66270000"},{"name":"Stadtallendorf","latitude":"50.82261000","longitude":"9.01294000"},{"name":"Staufenberg","latitude":"50.66197000","longitude":"8.73158000"},{"name":"Steeden","latitude":"50.41539000","longitude":"8.12748000"},{"name":"Steinau an der Straße","latitude":"50.31401000","longitude":"9.46335000"},{"name":"Steinbach am Taunus","latitude":"50.16774000","longitude":"8.57278000"},{"name":"Stockstadt am Rhein","latitude":"49.80944000","longitude":"8.47278000"},{"name":"Sulzbach","latitude":"50.13396000","longitude":"8.52797000"},{"name":"Södel","latitude":"50.39382000","longitude":"8.80474000"},{"name":"Tann","latitude":"50.64284000","longitude":"10.02385000"},{"name":"Taunusstein","latitude":"50.14993000","longitude":"8.15206000"},{"name":"Trebur","latitude":"49.92639000","longitude":"8.40732000"},{"name":"Trendelburg","latitude":"51.57408000","longitude":"9.42095000"},{"name":"Udenhausen","latitude":"51.46385000","longitude":"9.46335000"},{"name":"Ulrichstein","latitude":"50.57550000","longitude":"9.19272000"},{"name":"Unter-Abtsteinach","latitude":"49.52711000","longitude":"8.78679000"},{"name":"Usingen","latitude":"50.33554000","longitude":"8.53688000"},{"name":"Vellmar","latitude":"51.35806000","longitude":"9.47974000"},{"name":"Viernheim","latitude":"49.54033000","longitude":"8.57820000"},{"name":"Villmar","latitude":"50.39287000","longitude":"8.19310000"},{"name":"Volkmarsen","latitude":"51.40895000","longitude":"9.11814000"},{"name":"Vöhl","latitude":"51.20565000","longitude":"8.94510000"},{"name":"Wabern","latitude":"51.10000000","longitude":"9.35000000"},{"name":"Wald-Michelbach","latitude":"49.57000000","longitude":"8.83167000"},{"name":"Waldbrunn","latitude":"50.51875000","longitude":"8.10812000"},{"name":"Waldeck","latitude":"51.20618000","longitude":"9.06286000"},{"name":"Waldems","latitude":"50.25000000","longitude":"8.33333000"},{"name":"Waldkappel","latitude":"51.14462000","longitude":"9.87695000"},{"name":"Walluf","latitude":"50.04003000","longitude":"8.15545000"},{"name":"Wanfried","latitude":"51.18207000","longitude":"10.17283000"},{"name":"Wehrheim","latitude":"50.30000000","longitude":"8.56667000"},{"name":"Weilburg","latitude":"50.48438000","longitude":"8.26249000"},{"name":"Weilmünster","latitude":"50.43143000","longitude":"8.37673000"},{"name":"Weinbach","latitude":"50.43843000","longitude":"8.29133000"},{"name":"Weiterstadt","latitude":"49.90390000","longitude":"8.58874000"},{"name":"Wetter","latitude":"50.90254000","longitude":"8.72366000"},{"name":"Wetzlar","latitude":"50.56109000","longitude":"8.50495000"},{"name":"Wiesbaden","latitude":"50.08258000","longitude":"8.24932000"},{"name":"Willingen","latitude":"51.29418000","longitude":"8.60910000"},{"name":"Willingshausen","latitude":"50.85000000","longitude":"9.20000000"},{"name":"Witzenhausen","latitude":"51.34103000","longitude":"9.85540000"},{"name":"Wohnbach","latitude":"50.42864000","longitude":"8.82923000"},{"name":"Wolfhagen","latitude":"51.32611000","longitude":"9.17015000"},{"name":"Wächtersbach","latitude":"50.25511000","longitude":"9.29564000"},{"name":"Wölfersheim","latitude":"50.40000000","longitude":"8.81667000"},{"name":"Zierenberg","latitude":"51.36948000","longitude":"9.30164000"},{"name":"Zwingenberg","latitude":"49.72389000","longitude":"8.61084000"}]