[{"name":"Algyő","latitude":"46.33472000","longitude":"20.20849000"},{"name":"Apátfalva","latitude":"46.16667000","longitude":"20.58333000"},{"name":"Baks","latitude":"46.54297000","longitude":"20.10213000"},{"name":"Balástya","latitude":"46.42277000","longitude":"20.00816000"},{"name":"Bordány","latitude":"46.31843000","longitude":"19.92306000"},{"name":"Csanytelek","latitude":"46.59501000","longitude":"20.12342000"},{"name":"Csanádpalota","latitude":"46.25000000","longitude":"20.73333000"},{"name":"Csengele","latitude":"46.54234000","longitude":"19.86358000"},{"name":"Csongrád","latitude":"46.71332000","longitude":"20.14241000"},{"name":"Csongrádi Járás","latitude":"46.66146000","longitude":"20.08792000"},{"name":"Deszk","latitude":"46.21802000","longitude":"20.24322000"},{"name":"Domaszék","latitude":"46.24917000","longitude":"20.01111000"},{"name":"Forráskút","latitude":"46.36528000","longitude":"19.90973000"},{"name":"Fábiánsebestyén","latitude":"46.68333000","longitude":"20.46667000"},{"name":"Földeák","latitude":"46.31667000","longitude":"20.50000000"},{"name":"Hódmezővásárhely","latitude":"46.41667000","longitude":"20.33333000"},{"name":"Hódmezővásárhelyi Járás","latitude":"46.43301000","longitude":"20.37598000"},{"name":"Kistelek","latitude":"46.47250000","longitude":"19.97972000"},{"name":"Kisteleki Járás","latitude":"46.48835000","longitude":"19.99568000"},{"name":"Kiszombor","latitude":"46.18333000","longitude":"20.43333000"},{"name":"Makó","latitude":"46.21667000","longitude":"20.48333000"},{"name":"Makói Járás","latitude":"46.26698000","longitude":"20.54200000"},{"name":"Maroslele","latitude":"46.26667000","longitude":"20.35000000"},{"name":"Mindszent","latitude":"46.52362000","longitude":"20.19038000"},{"name":"Mórahalmi Járás","latitude":"46.26840000","longitude":"19.82256000"},{"name":"Mórahalom","latitude":"46.21806000","longitude":"19.88510000"},{"name":"Pusztaszer","latitude":"46.55083000","longitude":"19.98823000"},{"name":"Ruzsa","latitude":"46.28806000","longitude":"19.74714000"},{"name":"Röszke","latitude":"46.18796000","longitude":"20.03372000"},{"name":"Szatymaz","latitude":"46.34306000","longitude":"20.04020000"},{"name":"Szeged","latitude":"46.25300000","longitude":"20.14824000"},{"name":"Szegedi Járás","latitude":"46.29536000","longitude":"20.13758000"},{"name":"Szegvár","latitude":"46.58740000","longitude":"20.22408000"},{"name":"Szentes","latitude":"46.65834000","longitude":"20.26080000"},{"name":"Szentesi Járás","latitude":"46.66005000","longitude":"20.37314000"},{"name":"Székkutas","latitude":"46.50000000","longitude":"20.53333000"},{"name":"Sándorfalva","latitude":"46.36087000","longitude":"20.09889000"},{"name":"Tömörkény","latitude":"46.61716000","longitude":"20.04357000"},{"name":"Zsombó","latitude":"46.32566000","longitude":"19.97464000"},{"name":"Zákányszék","latitude":"46.27453000","longitude":"19.88975000"},{"name":"Ásotthalom","latitude":"46.19875000","longitude":"19.78334000"},{"name":"Ópusztaszer","latitude":"46.48592000","longitude":"20.08722000"},{"name":"Üllés","latitude":"46.33611000","longitude":"19.84454000"}]