[{"name":"Absdorf","latitude":"48.40021000","longitude":"15.97874000"},{"name":"Achau","latitude":"48.08026000","longitude":"16.38611000"},{"name":"Aderklaa","latitude":"48.28333000","longitude":"16.53333000"},{"name":"Aggsbach","latitude":"48.29404000","longitude":"15.40382000"},{"name":"Alland","latitude":"48.05829000","longitude":"16.07901000"},{"name":"Allentsteig","latitude":"48.69725000","longitude":"15.32756000"},{"name":"Allhartsberg","latitude":"48.02633000","longitude":"14.79009000"},{"name":"Altenburg","latitude":"48.64765000","longitude":"15.59295000"},{"name":"Altendorf","latitude":"47.65000000","longitude":"16.01667000"},{"name":"Altenmarkt an der Triesting","latitude":"48.01553000","longitude":"15.99661000"},{"name":"Altlengbach","latitude":"48.15355000","longitude":"15.92606000"},{"name":"Altlichtenwarth","latitude":"48.64442000","longitude":"16.79664000"},{"name":"Altmelon","latitude":"48.46222000","longitude":"14.96552000"},{"name":"Amstetten","latitude":"48.12290000","longitude":"14.87206000"},{"name":"Andlersdorf","latitude":"48.18333000","longitude":"16.66667000"},{"name":"Angern an der March","latitude":"48.37778000","longitude":"16.82806000"},{"name":"Arbesbach","latitude":"48.49337000","longitude":"14.95308000"},{"name":"Ardagger Stift","latitude":"48.15000000","longitude":"14.83333000"},{"name":"Aschbach Markt","latitude":"48.07234000","longitude":"14.75395000"},{"name":"Aspang Markt","latitude":"47.55000000","longitude":"16.08333000"},{"name":"Asparn an der Zaya","latitude":"48.58333000","longitude":"16.50000000"},{"name":"Asperhofen","latitude":"48.24583000","longitude":"15.92606000"},{"name":"Atzenbrugg","latitude":"48.29119000","longitude":"15.90614000"},{"name":"Au am Leithaberge","latitude":"47.92296000","longitude":"16.55794000"},{"name":"Auersthal","latitude":"48.37373000","longitude":"16.63596000"},{"name":"Bad Deutsch-Altenburg","latitude":"48.13425000","longitude":"16.90624000"},{"name":"Bad Erlach","latitude":"47.72722000","longitude":"16.21444000"},{"name":"Bad Fischau","latitude":"47.83137000","longitude":"16.16707000"},{"name":"Bad Pirawarth","latitude":"48.45194000","longitude":"16.59833000"},{"name":"Bad Schönau","latitude":"47.49473000","longitude":"16.23410000"},{"name":"Bad Traunstein","latitude":"48.43850000","longitude":"15.11712000"},{"name":"Bad Vöslau","latitude":"47.96533000","longitude":"16.21359000"},{"name":"Baden","latitude":"48.00543000","longitude":"16.23264000"},{"name":"Behamberg","latitude":"48.01667000","longitude":"14.48333000"},{"name":"Berg","latitude":"48.10147000","longitude":"17.03842000"},{"name":"Bergland","latitude":"48.15595000","longitude":"15.18553000"},{"name":"Berndorf","latitude":"47.94567000","longitude":"16.10973000"},{"name":"Bernhardsthal","latitude":"48.69158000","longitude":"16.86951000"},{"name":"Biberbach","latitude":"48.03006000","longitude":"14.70795000"},{"name":"Biedermannsdorf","latitude":"48.08393000","longitude":"16.34542000"},{"name":"Bisamberg","latitude":"48.33333000","longitude":"16.35000000"},{"name":"Bischofstetten","latitude":"48.12222000","longitude":"15.46909000"},{"name":"Blindenmarkt","latitude":"48.12749000","longitude":"14.98647000"},{"name":"Bockfließ","latitude":"48.36000000","longitude":"16.60389000"},{"name":"Breitenau","latitude":"47.73355000","longitude":"16.14338000"},{"name":"Breitenfurt bei Wien","latitude":"48.13333000","longitude":"16.15000000"},{"name":"Bromberg","latitude":"47.66539000","longitude":"16.20990000"},{"name":"Bruck an der Leitha","latitude":"48.01667000","longitude":"16.76667000"},{"name":"Brunn am Gebirge","latitude":"48.10697000","longitude":"16.28466000"},{"name":"Brunn an der Schneebergbahn","latitude":"47.82376000","longitude":"16.15934000"},{"name":"Brunn an der Wild","latitude":"48.69425000","longitude":"15.52008000"},{"name":"Buchbach","latitude":"47.69648000","longitude":"15.98425000"},{"name":"Bärnkopf","latitude":"48.39046000","longitude":"15.00479000"},{"name":"Böheimkirchen","latitude":"48.19779000","longitude":"15.76178000"},{"name":"Deutsch-Wagram","latitude":"48.29972000","longitude":"16.56667000"},{"name":"Dobersberg","latitude":"48.91510000","longitude":"15.32188000"},{"name":"Dorfstetten","latitude":"48.32573000","longitude":"14.98218000"},{"name":"Drasenhofen","latitude":"48.75000000","longitude":"16.65000000"},{"name":"Droß","latitude":"48.46393000","longitude":"15.57561000"},{"name":"Drösing","latitude":"48.53900000","longitude":"16.90264000"},{"name":"Dürnkrut","latitude":"48.47315000","longitude":"16.85062000"},{"name":"Dürnstein","latitude":"48.39582000","longitude":"15.51973000"},{"name":"Ebenfurth","latitude":"47.87738000","longitude":"16.36731000"},{"name":"Ebenthal","latitude":"48.43333000","longitude":"16.78333000"},{"name":"Ebergassing","latitude":"48.04567000","longitude":"16.51709000"},{"name":"Ebreichsdorf","latitude":"47.95579000","longitude":"16.40705000"},{"name":"Echsenbach","latitude":"48.71667000","longitude":"15.21667000"},{"name":"Eckartsau","latitude":"48.14507000","longitude":"16.79737000"},{"name":"Edlitz","latitude":"47.59797000","longitude":"16.14052000"},{"name":"Eggenburg","latitude":"48.63892000","longitude":"15.81903000"},{"name":"Eggendorf","latitude":"47.85809000","longitude":"16.32182000"},{"name":"Eggern","latitude":"48.90829000","longitude":"15.14877000"},{"name":"Eichgraben","latitude":"48.17204000","longitude":"15.98391000"},{"name":"Eisgarn","latitude":"48.91675000","longitude":"15.10320000"},{"name":"Emmersdorf an der Donau","latitude":"48.24140000","longitude":"15.33721000"},{"name":"Engelhartstetten","latitude":"48.18160000","longitude":"16.88367000"},{"name":"Ennsdorf","latitude":"48.21181000","longitude":"14.50290000"},{"name":"Enzenreith","latitude":"47.66839000","longitude":"15.95249000"},{"name":"Enzersdorf an der Fischa","latitude":"48.08502000","longitude":"16.60832000"},{"name":"Enzersfeld","latitude":"48.36338000","longitude":"16.42387000"},{"name":"Erlauf","latitude":"48.18333000","longitude":"15.18333000"},{"name":"Ernstbrunn","latitude":"48.53333000","longitude":"16.35000000"},{"name":"Ernsthofen","latitude":"48.12915000","longitude":"14.48058000"},{"name":"Erpersdorf","latitude":"48.34210000","longitude":"15.91747000"},{"name":"Ertl","latitude":"47.97704000","longitude":"14.63134000"},{"name":"Eschenau","latitude":"48.04825000","longitude":"15.56694000"},{"name":"Euratsfeld","latitude":"48.08181000","longitude":"14.93154000"},{"name":"Falkenstein","latitude":"48.71667000","longitude":"16.58333000"},{"name":"Fallbach","latitude":"48.65000000","longitude":"16.41667000"},{"name":"Feistritz am Wechsel","latitude":"47.60000000","longitude":"16.05000000"},{"name":"Felixdorf","latitude":"47.88159000","longitude":"16.24208000"},{"name":"Fels am Wagram","latitude":"48.43333000","longitude":"15.81667000"},{"name":"Ferschnitz","latitude":"48.09419000","longitude":"14.98454000"},{"name":"Fischamend-Markt","latitude":"48.11667000","longitude":"16.60000000"},{"name":"Frankenfels","latitude":"47.98234000","longitude":"15.32593000"},{"name":"Frohsdorf","latitude":"47.73333000","longitude":"16.25000000"},{"name":"Furth an der Triesting","latitude":"47.97326000","longitude":"15.97326000"},{"name":"Furth bei Göttweig","latitude":"48.37385000","longitude":"15.61408000"},{"name":"Gaaden","latitude":"48.05364000","longitude":"16.20003000"},{"name":"Gablitz","latitude":"48.22856000","longitude":"16.15437000"},{"name":"Gainfarn","latitude":"47.96280000","longitude":"16.19368000"},{"name":"Gaming","latitude":"47.92900000","longitude":"15.08818000"},{"name":"Gars am Kamp","latitude":"48.58899000","longitude":"15.65363000"},{"name":"Gastern","latitude":"48.89446000","longitude":"15.22027000"},{"name":"Gaubitsch","latitude":"48.65000000","longitude":"16.38333000"},{"name":"Gaweinstal","latitude":"48.48003000","longitude":"16.58790000"},{"name":"Gedersdorf","latitude":"48.43319000","longitude":"15.68865000"},{"name":"Geras","latitude":"48.79725000","longitude":"15.67268000"},{"name":"Gerasdorf bei Wien","latitude":"48.29447000","longitude":"16.46765000"},{"name":"Gerersdorf","latitude":"48.20088000","longitude":"15.55613000"},{"name":"Gerolding","latitude":"48.25000000","longitude":"15.41667000"},{"name":"Gföhl","latitude":"48.51667000","longitude":"15.48333000"},{"name":"Gießhübl","latitude":"48.09780000","longitude":"16.23479000"},{"name":"Glinzendorf","latitude":"48.24605000","longitude":"16.64060000"},{"name":"Gloggnitz","latitude":"47.67487000","longitude":"15.93893000"},{"name":"Gmünd","latitude":"48.76830000","longitude":"14.98080000"},{"name":"Gnadendorf","latitude":"48.61667000","longitude":"16.40000000"},{"name":"Gneixendorf","latitude":"48.43751000","longitude":"15.61810000"},{"name":"Grafenegg","latitude":"48.43040000","longitude":"15.74907000"},{"name":"Grafenschlag","latitude":"48.50000000","longitude":"15.16667000"},{"name":"Grafenwörth","latitude":"48.40790000","longitude":"15.77826000"},{"name":"Gramatneusiedl","latitude":"48.03040000","longitude":"16.48936000"},{"name":"Greinsfurth","latitude":"48.10846000","longitude":"14.84390000"},{"name":"Gresten","latitude":"47.98521000","longitude":"15.02552000"},{"name":"Grimmenstein","latitude":"47.61635000","longitude":"16.12724000"},{"name":"Groß-Engersdorf","latitude":"48.35873000","longitude":"16.56610000"},{"name":"Groß-Enzersdorf","latitude":"48.20278000","longitude":"16.55083000"},{"name":"Groß-Gerungs","latitude":"48.57422000","longitude":"14.95789000"},{"name":"Groß-Schweinbarth","latitude":"48.41472000","longitude":"16.63194000"},{"name":"Groß-Siegharts","latitude":"48.79180000","longitude":"15.40429000"},{"name":"Großebersdorf","latitude":"48.36405000","longitude":"16.47076000"},{"name":"Großharras","latitude":"48.66389000","longitude":"16.24556000"},{"name":"Großhofen","latitude":"48.25834000","longitude":"16.61940000"},{"name":"Großkrut","latitude":"48.64389000","longitude":"16.72361000"},{"name":"Großmugl","latitude":"48.49917000","longitude":"16.23056000"},{"name":"Großriedenthal","latitude":"48.48333000","longitude":"15.86667000"},{"name":"Großrußbach","latitude":"48.47412000","longitude":"16.41649000"},{"name":"Großweikersdorf","latitude":"48.47123000","longitude":"15.98251000"},{"name":"Grünbach am Schneeberg","latitude":"47.79747000","longitude":"15.98785000"},{"name":"Gugging","latitude":"48.31385000","longitude":"16.24852000"},{"name":"Gumpoldskirchen","latitude":"48.04538000","longitude":"16.27710000"},{"name":"Guntersdorf","latitude":"48.65000000","longitude":"16.05000000"},{"name":"Guntramsdorf","latitude":"48.04687000","longitude":"16.31384000"},{"name":"Gutenbrunn","latitude":"48.36520000","longitude":"15.11899000"},{"name":"Gutenstein","latitude":"47.87600000","longitude":"15.88881000"},{"name":"Gänserndorf","latitude":"48.33925000","longitude":"16.72016000"},{"name":"Göllersdorf","latitude":"48.49357000","longitude":"16.11943000"},{"name":"Göpfritz an der Wild","latitude":"48.72497000","longitude":"15.40236000"},{"name":"Göstling an der Ybbs","latitude":"47.80664000","longitude":"14.93797000"},{"name":"Götzendorf an der Leitha","latitude":"48.01667000","longitude":"16.58333000"},{"name":"Günselsdorf","latitude":"47.94395000","longitude":"16.26062000"},{"name":"Haag","latitude":"48.11362000","longitude":"14.56753000"},{"name":"Hadersdorf am Kamp","latitude":"48.45000000","longitude":"15.71667000"},{"name":"Hadres","latitude":"48.70965000","longitude":"16.13038000"},{"name":"Hafnerbach","latitude":"48.21667000","longitude":"15.48333000"},{"name":"Hagenbrunn","latitude":"48.33333000","longitude":"16.40000000"},{"name":"Haidershofen","latitude":"48.07579000","longitude":"14.46131000"},{"name":"Hainburg an der Donau","latitude":"48.14627000","longitude":"16.94504000"},{"name":"Hainfeld","latitude":"48.03390000","longitude":"15.77414000"},{"name":"Hardegg","latitude":"48.85000000","longitude":"15.85000000"},{"name":"Haringsee","latitude":"48.19270000","longitude":"16.78741000"},{"name":"Harland","latitude":"48.16162000","longitude":"15.63835000"},{"name":"Harmannsdorf","latitude":"48.39724000","longitude":"16.37220000"},{"name":"Hart","latitude":"48.15320000","longitude":"15.61569000"},{"name":"Haugschlag","latitude":"48.98333000","longitude":"15.05000000"},{"name":"Haugsdorf","latitude":"48.70762000","longitude":"16.07656000"},{"name":"Haunoldstein","latitude":"48.20000000","longitude":"15.45000000"},{"name":"Hausbrunn","latitude":"48.62602000","longitude":"16.82844000"},{"name":"Hauskirchen","latitude":"48.60000000","longitude":"16.76667000"},{"name":"Hausleiten","latitude":"48.38333000","longitude":"16.10000000"},{"name":"Hausmening","latitude":"48.07074000","longitude":"14.81438000"},{"name":"Heidenreichstein","latitude":"48.86667000","longitude":"15.11667000"},{"name":"Heiligeneich","latitude":"48.29964000","longitude":"15.89413000"},{"name":"Heiligenkreuz","latitude":"48.05559000","longitude":"16.12493000"},{"name":"Hennersdorf","latitude":"48.11173000","longitude":"16.36311000"},{"name":"Hernstein","latitude":"47.89465000","longitude":"16.10561000"},{"name":"Herrnbaumgarten","latitude":"48.69606000","longitude":"16.68283000"},{"name":"Herzogenburg","latitude":"48.28137000","longitude":"15.69431000"},{"name":"Himberg","latitude":"48.08333000","longitude":"16.43333000"},{"name":"Hinterbrühl","latitude":"48.08611000","longitude":"16.24809000"},{"name":"Hinterleiten","latitude":"48.16513000","longitude":"15.96654000"},{"name":"Hirschbach","latitude":"48.74329000","longitude":"15.12521000"},{"name":"Hirtenberg","latitude":"47.93095000","longitude":"16.17908000"},{"name":"Hochleithen","latitude":"48.45317000","longitude":"16.53090000"},{"name":"Hochwolkersdorf","latitude":"47.66127000","longitude":"16.28072000"},{"name":"Hof am Leithaberge","latitude":"47.95000000","longitude":"16.58333000"},{"name":"Hofamt Priel","latitude":"48.19581000","longitude":"15.07746000"},{"name":"Hofstetten","latitude":"48.09711000","longitude":"15.51149000"},{"name":"Hohenau","latitude":"48.60420000","longitude":"16.90470000"},{"name":"Hohenberg","latitude":"47.90679000","longitude":"15.61998000"},{"name":"Hoheneich","latitude":"48.77195000","longitude":"15.02857000"},{"name":"Hohenruppersdorf","latitude":"48.46439000","longitude":"16.65244000"},{"name":"Hollabrunn","latitude":"48.55000000","longitude":"16.08333000"},{"name":"Hollenstein an der Ybbs","latitude":"47.80305000","longitude":"14.77312000"},{"name":"Hollenthon","latitude":"47.58938000","longitude":"16.26131000"},{"name":"Horn","latitude":"48.66274000","longitude":"15.65663000"},{"name":"Hundsheim","latitude":"48.11749000","longitude":"16.93581000"},{"name":"Hutten","latitude":"48.17856000","longitude":"15.98579000"},{"name":"Höflein","latitude":"48.06667000","longitude":"16.78333000"},{"name":"Höfling","latitude":"48.05444000","longitude":"15.03672000"},{"name":"Hürm","latitude":"48.15601000","longitude":"15.41262000"},{"name":"Jaidhof","latitude":"48.53333000","longitude":"15.48333000"},{"name":"Japons","latitude":"48.79250000","longitude":"15.56831000"},{"name":"Jedenspeigen","latitude":"48.49807000","longitude":"16.87225000"},{"name":"Kaltenleutgeben","latitude":"48.11646000","longitude":"16.19956000"},{"name":"Kapelln","latitude":"48.25817000","longitude":"15.75731000"},{"name":"Karlstetten","latitude":"48.25920000","longitude":"15.56544000"},{"name":"Kasten bei Böheimkirchen","latitude":"48.15320000","longitude":"15.77946000"},{"name":"Katzelsdorf","latitude":"47.78055000","longitude":"16.26985000"},{"name":"Kaumberg","latitude":"48.02415000","longitude":"15.89842000"},{"name":"Kautzen","latitude":"48.93000000","longitude":"15.23932000"},{"name":"Kematen an der Ybbs","latitude":"48.02541000","longitude":"14.76468000"},{"name":"Kierling","latitude":"48.30997000","longitude":"16.27616000"},{"name":"Kilb","latitude":"48.10101000","longitude":"15.40850000"},{"name":"Kirchberg am Wagram","latitude":"48.43182000","longitude":"15.89692000"},{"name":"Kirchberg am Walde","latitude":"48.72477000","longitude":"15.08826000"},{"name":"Kirchberg am Wechsel","latitude":"47.60738000","longitude":"15.99103000"},{"name":"Kirchberg an der Pielach","latitude":"48.02690000","longitude":"15.42875000"},{"name":"Kirchschlag","latitude":"48.39345000","longitude":"15.22285000"},{"name":"Kirchschlag in der Buckligen Welt","latitude":"47.50000000","longitude":"16.28333000"},{"name":"Kirchstetten","latitude":"48.18333000","longitude":"15.81667000"},{"name":"Kirnberg an der Mank","latitude":"48.07246000","longitude":"15.32232000"},{"name":"Klausen-Leopoldsdorf","latitude":"48.08771000","longitude":"16.01686000"},{"name":"Klein-Neusiedl","latitude":"48.09379000","longitude":"16.60661000"},{"name":"Klein-Pöchlarn","latitude":"48.21667000","longitude":"15.21667000"},{"name":"Kleinzell","latitude":"47.97993000","longitude":"15.73620000"},{"name":"Klosterneuburg","latitude":"48.30521000","longitude":"16.32522000"},{"name":"Korneuburg","latitude":"48.35000000","longitude":"16.33333000"},{"name":"Kottingbrunn","latitude":"47.95096000","longitude":"16.22715000"},{"name":"Krems an der Donau","latitude":"48.40921000","longitude":"15.61415000"},{"name":"Krems an der Donau Stadt","latitude":"48.41040000","longitude":"15.60574000"},{"name":"Kritzendorf","latitude":"48.32932000","longitude":"16.30011000"},{"name":"Krumau am Kamp","latitude":"48.58879000","longitude":"15.44914000"},{"name":"Krumbach Markt","latitude":"47.51667000","longitude":"16.18333000"},{"name":"Krumnussbaum","latitude":"48.20877000","longitude":"15.16212000"},{"name":"Königstetten","latitude":"48.30198000","longitude":"16.14492000"},{"name":"Laa an der Thaya","latitude":"48.71667000","longitude":"16.38333000"},{"name":"Laab im Walde","latitude":"48.15486000","longitude":"16.17359000"},{"name":"Ladendorf","latitude":"48.53333000","longitude":"16.48333000"},{"name":"Landegg","latitude":"47.90000000","longitude":"16.40000000"},{"name":"Langau","latitude":"48.83207000","longitude":"15.71560000"},{"name":"Langenlebarn-Oberaigen","latitude":"48.33023000","longitude":"16.11059000"},{"name":"Langenlois","latitude":"48.46667000","longitude":"15.66667000"},{"name":"Langenrohr","latitude":"48.30489000","longitude":"16.01034000"},{"name":"Langenzersdorf","latitude":"48.30432000","longitude":"16.36143000"},{"name":"Langschlag","latitude":"48.57448000","longitude":"14.88459000"},{"name":"Lanzendorf","latitude":"48.11056000","longitude":"16.44500000"},{"name":"Lanzenkirchen","latitude":"47.73621000","longitude":"16.21985000"},{"name":"Lassee","latitude":"48.22479000","longitude":"16.82230000"},{"name":"Laxenburg","latitude":"48.06833000","longitude":"16.35607000"},{"name":"Leiben","latitude":"48.24628000","longitude":"15.27460000"},{"name":"Leitzersdorf","latitude":"48.41918000","longitude":"16.24513000"},{"name":"Lengenfeld","latitude":"48.47187000","longitude":"15.59870000"},{"name":"Leobendorf","latitude":"48.38333000","longitude":"16.31667000"},{"name":"Leobersdorf","latitude":"47.92796000","longitude":"16.21651000"},{"name":"Leopoldsdorf","latitude":"48.11557000","longitude":"16.39126000"},{"name":"Leopoldsdorf im Marchfelde","latitude":"48.22261000","longitude":"16.68858000"},{"name":"Lerchenfeld","latitude":"48.41234000","longitude":"15.63183000"},{"name":"Lichtenegg","latitude":"47.60000000","longitude":"16.20000000"},{"name":"Lichtenwörth","latitude":"47.82756000","longitude":"16.29873000"},{"name":"Lilienfeld","latitude":"48.01312000","longitude":"15.59664000"},{"name":"Litschau","latitude":"48.94409000","longitude":"15.04483000"},{"name":"Loich","latitude":"47.99578000","longitude":"15.40163000"},{"name":"Loosdorf","latitude":"48.20000000","longitude":"15.40000000"},{"name":"Lunz am See","latitude":"47.86120000","longitude":"15.02998000"},{"name":"Mailberg","latitude":"48.67379000","longitude":"16.18132000"},{"name":"Maissau","latitude":"48.57300000","longitude":"15.83005000"},{"name":"Mank","latitude":"48.11024000","longitude":"15.33915000"},{"name":"Mannersdorf am Leithagebirge","latitude":"47.96667000","longitude":"16.60000000"},{"name":"Mannsdorf an der Donau","latitude":"48.15200000","longitude":"16.66506000"},{"name":"Mannswörth","latitude":"48.14547000","longitude":"16.51374000"},{"name":"Marbach an der Donau","latitude":"48.21667000","longitude":"15.15000000"},{"name":"Marchegg","latitude":"48.26217000","longitude":"16.91045000"},{"name":"Margarethen am Moos","latitude":"48.03333000","longitude":"16.60000000"},{"name":"Maria Ellend","latitude":"48.10000000","longitude":"16.68333000"},{"name":"Maria Enzersdorf","latitude":"48.10000000","longitude":"16.28333000"},{"name":"Maria Laach am Jauerling","latitude":"48.30412000","longitude":"15.34472000"},{"name":"Maria Lanzendorf","latitude":"48.09923000","longitude":"16.41984000"},{"name":"Maria Taferl","latitude":"48.22702000","longitude":"15.15954000"},{"name":"Maria-Anzbach","latitude":"48.19012000","longitude":"15.93155000"},{"name":"Markersdorf an der Pielach","latitude":"48.18333000","longitude":"15.50000000"},{"name":"Markgrafneusiedl","latitude":"48.26667000","longitude":"16.63333000"},{"name":"Markt Piesting","latitude":"47.87358000","longitude":"16.12510000"},{"name":"Martinsberg","latitude":"48.37549000","longitude":"15.14997000"},{"name":"Matzen","latitude":"48.40000000","longitude":"16.70000000"},{"name":"Matzendorf","latitude":"47.89137000","longitude":"16.21393000"},{"name":"Mauer bei Amstetten","latitude":"48.09643000","longitude":"14.80060000"},{"name":"Mauerbach","latitude":"48.24514000","longitude":"16.16793000"},{"name":"Mautern","latitude":"48.39319000","longitude":"15.57793000"},{"name":"Melk","latitude":"48.22737000","longitude":"15.33186000"},{"name":"Michelhausen","latitude":"48.29085000","longitude":"15.93893000"},{"name":"Miesenbach","latitude":"47.84035000","longitude":"15.98236000"},{"name":"Mistelbach","latitude":"48.57000000","longitude":"16.57667000"},{"name":"Mitterbach am Erlaufsee","latitude":"47.81396000","longitude":"15.29537000"},{"name":"Mitterndorf an der Fischa","latitude":"47.99739000","longitude":"16.47357000"},{"name":"Moosbrunn","latitude":"48.01667000","longitude":"16.45000000"},{"name":"Muckendorf an der Donau","latitude":"48.33183000","longitude":"16.15540000"},{"name":"Muggendorf","latitude":"47.91059000","longitude":"15.93533000"},{"name":"Mödling","latitude":"48.08605000","longitude":"16.28921000"},{"name":"Möllersdorf","latitude":"48.02575000","longitude":"16.30508000"},{"name":"Mönichkirchen","latitude":"47.51062000","longitude":"16.03425000"},{"name":"Mühldorf","latitude":"48.37432000","longitude":"15.34672000"},{"name":"Münchendorf","latitude":"48.03333000","longitude":"16.38333000"},{"name":"Neidling","latitude":"48.24005000","longitude":"15.55591000"},{"name":"Neu-Guntramsdorf","latitude":"48.06420000","longitude":"16.31573000"},{"name":"Neudorf bei Staatz","latitude":"48.72083000","longitude":"16.49139000"},{"name":"Neufurth","latitude":"48.07894000","longitude":"14.81180000"},{"name":"Neuhofen an der Ybbs","latitude":"48.05795000","longitude":"14.85489000"},{"name":"Neulengbach","latitude":"48.19745000","longitude":"15.90219000"},{"name":"Neumarkt an der Ybbs","latitude":"48.14103000","longitude":"15.05758000"},{"name":"Neunkirchen","latitude":"47.72096000","longitude":"16.08107000"},{"name":"Neusiedl","latitude":"47.88769000","longitude":"15.96313000"},{"name":"Neusiedl an der Zaya","latitude":"48.59920000","longitude":"16.77990000"},{"name":"Niederhollabrunn","latitude":"48.43333000","longitude":"16.30000000"},{"name":"Niederleis","latitude":"48.55000000","longitude":"16.40000000"},{"name":"Nöchling","latitude":"48.22433000","longitude":"14.98123000"},{"name":"Ober-Grafendorf","latitude":"48.15040000","longitude":"15.54531000"},{"name":"Oberhausen","latitude":"48.17690000","longitude":"16.58506000"},{"name":"Oberndorf an der Melk","latitude":"48.06386000","longitude":"15.22430000"},{"name":"Oberndorf in der Ebene","latitude":"48.27040000","longitude":"15.68985000"},{"name":"Obersdorf","latitude":"48.36667000","longitude":"16.51667000"},{"name":"Obersiebenbrunn","latitude":"48.26537000","longitude":"16.71076000"},{"name":"Oberwagram","latitude":"48.20157000","longitude":"15.64917000"},{"name":"Oberwaltersdorf","latitude":"47.97567000","longitude":"16.32191000"},{"name":"Oberwölbling","latitude":"48.31719000","longitude":"15.59166000"},{"name":"Oehling","latitude":"48.10000000","longitude":"14.80000000"},{"name":"Oeynhausen","latitude":"47.98533000","longitude":"16.29187000"},{"name":"Opponitz","latitude":"47.87776000","longitude":"14.82283000"},{"name":"Orth an der Donau","latitude":"48.14524000","longitude":"16.70089000"},{"name":"Ottenschlag","latitude":"48.42393000","longitude":"15.21924000"},{"name":"Ottenthal","latitude":"48.76100000","longitude":"16.57914000"},{"name":"Otterthal","latitude":"47.61667000","longitude":"15.93333000"},{"name":"Parbasdorf","latitude":"48.28333000","longitude":"16.60000000"},{"name":"Paudorf","latitude":"48.35416000","longitude":"15.61853000"},{"name":"Payerbach","latitude":"47.69209000","longitude":"15.86340000"},{"name":"Penz","latitude":"48.03333000","longitude":"14.48333000"},{"name":"Perchtoldsdorf","latitude":"48.11935000","longitude":"16.26607000"},{"name":"Pernegg","latitude":"48.73333000","longitude":"15.61667000"},{"name":"Pernersdorf","latitude":"48.70000000","longitude":"16.01667000"},{"name":"Pernitz","latitude":"47.89759000","longitude":"15.96022000"},{"name":"Persenbeug","latitude":"48.18733000","longitude":"15.08809000"},{"name":"Petronell-Carnuntum","latitude":"48.11296000","longitude":"16.86582000"},{"name":"Petzenkirchen","latitude":"48.14693000","longitude":"15.15465000"},{"name":"Pfaffstätten","latitude":"48.01737000","longitude":"16.26354000"},{"name":"Pillichsdorf","latitude":"48.35000000","longitude":"16.53333000"},{"name":"Pitten","latitude":"47.71667000","longitude":"16.18333000"},{"name":"Politischer Bezirk Amstetten","latitude":"48.00000000","longitude":"14.76667000"},{"name":"Politischer Bezirk Baden","latitude":"47.97729000","longitude":"16.19845000"},{"name":"Politischer Bezirk Bruck an der Leitha","latitude":"48.06781000","longitude":"16.77284000"},{"name":"Politischer Bezirk Gmünd","latitude":"48.74732000","longitude":"14.98166000"},{"name":"Politischer Bezirk Gänserndorf","latitude":"48.39340000","longitude":"16.73892000"},{"name":"Politischer Bezirk Hollabrunn","latitude":"48.65286000","longitude":"15.99701000"},{"name":"Politischer Bezirk Horn","latitude":"48.71341000","longitude":"15.68712000"},{"name":"Politischer Bezirk Korneuburg","latitude":"48.44343000","longitude":"16.24120000"},{"name":"Politischer Bezirk Krems","latitude":"48.46582000","longitude":"15.52093000"},{"name":"Politischer Bezirk Lilienfeld","latitude":"47.91667000","longitude":"15.60000000"},{"name":"Politischer Bezirk Melk","latitude":"48.21314000","longitude":"15.24282000"},{"name":"Politischer Bezirk Mistelbach","latitude":"48.59436000","longitude":"16.54730000"},{"name":"Politischer Bezirk Mödling","latitude":"48.08517000","longitude":"16.24118000"},{"name":"Politischer Bezirk Neunkirchen","latitude":"47.69424000","longitude":"15.93783000"},{"name":"Politischer Bezirk Sankt Pölten","latitude":"48.16905000","longitude":"15.66508000"},{"name":"Politischer Bezirk Scheibbs","latitude":"47.92316000","longitude":"15.10376000"},{"name":"Politischer Bezirk Tulln","latitude":"48.30000000","longitude":"16.00000000"},{"name":"Politischer Bezirk Waidhofen an der Thaya","latitude":"48.85925000","longitude":"15.35814000"},{"name":"Politischer Bezirk Wiener Neustadt","latitude":"47.83203000","longitude":"16.14291000"},{"name":"Politischer Bezirk Zwettl","latitude":"48.57435000","longitude":"15.17159000"},{"name":"Pottenbrunn","latitude":"48.23333000","longitude":"15.70000000"},{"name":"Pottendorf","latitude":"47.90000000","longitude":"16.38333000"},{"name":"Pottenstein","latitude":"47.95820000","longitude":"16.09480000"},{"name":"Pottschach","latitude":"47.69856000","longitude":"16.00725000"},{"name":"Poysdorf","latitude":"48.66667000","longitude":"16.63333000"},{"name":"Prellenkirchen","latitude":"48.07401000","longitude":"16.95233000"},{"name":"Pressbaum","latitude":"48.18333000","longitude":"16.08333000"},{"name":"Prigglitz","latitude":"47.70318000","longitude":"15.92794000"},{"name":"Prinzersdorf","latitude":"48.20000000","longitude":"15.51667000"},{"name":"Prottes","latitude":"48.38680000","longitude":"16.73890000"},{"name":"Puchberg am Schneeberg","latitude":"47.78709000","longitude":"15.91352000"},{"name":"Puchenstuben","latitude":"47.92819000","longitude":"15.28748000"},{"name":"Pulkau","latitude":"48.70484000","longitude":"15.86031000"},{"name":"Purgstall","latitude":"48.05841000","longitude":"15.13478000"},{"name":"Purkersdorf","latitude":"48.20769000","longitude":"16.17539000"},{"name":"Pyhra","latitude":"48.15910000","longitude":"15.68624000"},{"name":"Pöchlarn","latitude":"48.20000000","longitude":"15.20000000"},{"name":"Pöggstall","latitude":"48.31734000","longitude":"15.20405000"},{"name":"Raabs an der Thaya","latitude":"48.85000000","longitude":"15.50000000"},{"name":"Raach am Hochgebirge","latitude":"47.63333000","longitude":"15.93333000"},{"name":"Raasdorf","latitude":"48.24657000","longitude":"16.56532000"},{"name":"Rabensburg","latitude":"48.65000000","longitude":"16.90000000"},{"name":"Rabenstein an der Pielach","latitude":"48.06535000","longitude":"15.46772000"},{"name":"Ramsau","latitude":"48.00313000","longitude":"15.80332000"},{"name":"Randegg","latitude":"48.01198000","longitude":"14.97334000"},{"name":"Rannersdorf","latitude":"48.12772000","longitude":"16.46379000"},{"name":"Rappottenstein","latitude":"48.52161000","longitude":"15.07925000"},{"name":"Rastenfeld","latitude":"48.57348000","longitude":"15.33176000"},{"name":"Ratzersdorf an der Traisen","latitude":"48.22639000","longitude":"15.66629000"},{"name":"Rauchenwarth","latitude":"48.08330000","longitude":"16.52794000"},{"name":"Ravelsbach","latitude":"48.55000000","longitude":"15.85000000"},{"name":"Raxendorf","latitude":"48.34108000","longitude":"15.27666000"},{"name":"Rehberg","latitude":"48.43114000","longitude":"15.58702000"},{"name":"Reichenau an der Rax","latitude":"47.69509000","longitude":"15.84572000"},{"name":"Reingers","latitude":"48.96667000","longitude":"15.13333000"},{"name":"Reinsberg","latitude":"47.98567000","longitude":"15.07067000"},{"name":"Reisenberg","latitude":"47.99406000","longitude":"16.52018000"},{"name":"Retz","latitude":"48.75712000","longitude":"15.95485000"},{"name":"Rohr im Gebirge","latitude":"47.89471000","longitude":"15.73603000"},{"name":"Rohrau","latitude":"48.06667000","longitude":"16.85000000"},{"name":"Rohrbach an der Gölsen","latitude":"48.04699000","longitude":"15.74169000"},{"name":"Rohrendorf bei Krems","latitude":"48.41935000","longitude":"15.65772000"},{"name":"Rosenau am Sonntagberg","latitude":"48.00778000","longitude":"14.73927000"},{"name":"Ruprechtshofen","latitude":"48.13648000","longitude":"15.27675000"},{"name":"Röhrenbach","latitude":"48.65000000","longitude":"15.50000000"},{"name":"Röschitz","latitude":"48.64312000","longitude":"15.81774000"},{"name":"Sallingberg","latitude":"48.46667000","longitude":"15.23333000"},{"name":"Sankt Aegyd am Neuwalde","latitude":"47.85383000","longitude":"15.56969000"},{"name":"Sankt Andrä vor dem Hagenthale","latitude":"48.32202000","longitude":"16.20724000"},{"name":"Sankt Corona am Wechsel","latitude":"47.58333000","longitude":"16.00000000"},{"name":"Sankt Georgen am Ybbsfelde","latitude":"48.12892000","longitude":"14.95364000"},{"name":"Sankt Georgen an der Leys","latitude":"48.03149000","longitude":"15.22722000"},{"name":"Sankt Leonhard am Forst","latitude":"48.14232000","longitude":"15.28464000"},{"name":"Sankt Leonhard am Hornerwald","latitude":"48.60000000","longitude":"15.53333000"},{"name":"Sankt Margarethen an der Sierning","latitude":"48.15910000","longitude":"15.49055000"},{"name":"Sankt Martin am Ybbsfelde","latitude":"48.16425000","longitude":"15.02076000"},{"name":"Sankt Pantaleon","latitude":"48.21058000","longitude":"14.56804000"},{"name":"Sankt Peter in der Au Markt","latitude":"48.04400000","longitude":"14.62182000"},{"name":"Sankt Pölten","latitude":"48.20000000","longitude":"15.63333000"},{"name":"Sankt Pölten Stadt","latitude":"48.20000000","longitude":"15.61667000"},{"name":"Sankt Valentin","latitude":"48.16667000","longitude":"14.51667000"},{"name":"Sankt Veit an der Gölsen","latitude":"48.04320000","longitude":"15.66942000"},{"name":"Scharndorf","latitude":"48.09399000","longitude":"16.79883000"},{"name":"Scheibbs","latitude":"48.00474000","longitude":"15.16817000"},{"name":"Schleinbach","latitude":"48.41667000","longitude":"16.46667000"},{"name":"Schottwien","latitude":"47.65683000","longitude":"15.87250000"},{"name":"Schrattenbach","latitude":"47.77902000","longitude":"15.99060000"},{"name":"Schrattenberg","latitude":"48.72359000","longitude":"16.72201000"},{"name":"Schrattenthal","latitude":"48.70000000","longitude":"15.90000000"},{"name":"Schrems","latitude":"48.78333000","longitude":"15.06667000"},{"name":"Schwadorf","latitude":"48.06936000","longitude":"16.57957000"},{"name":"Schwarzau am Steinfeld","latitude":"47.73183000","longitude":"16.17094000"},{"name":"Schwarzau im Gebirge","latitude":"47.81223000","longitude":"15.70581000"},{"name":"Schwarzenau","latitude":"48.74436000","longitude":"15.25838000"},{"name":"Schwarzenbach","latitude":"47.63547000","longitude":"16.35109000"},{"name":"Schwarzenbach an der Pielach","latitude":"47.93333000","longitude":"15.38333000"},{"name":"Schwechat","latitude":"48.13333000","longitude":"16.46667000"},{"name":"Schweiggers","latitude":"48.66667000","longitude":"15.06667000"},{"name":"Schönau an der Triesting","latitude":"47.93452000","longitude":"16.25376000"},{"name":"Schönbach","latitude":"48.45000000","longitude":"15.03333000"},{"name":"Schönkirchen-Reyersdorf","latitude":"48.35477000","longitude":"16.69115000"},{"name":"Seebenstein","latitude":"47.69936000","longitude":"16.14484000"},{"name":"Seibersdorf","latitude":"47.95858000","longitude":"16.51842000"},{"name":"Seitenstetten Markt","latitude":"48.03333000","longitude":"14.65000000"},{"name":"Semmering","latitude":"47.63347000","longitude":"15.82993000"},{"name":"Senftenberg","latitude":"48.43333000","longitude":"15.55000000"},{"name":"Seyring","latitude":"48.33333000","longitude":"16.48333000"},{"name":"Sieghartskirchen","latitude":"48.25531000","longitude":"16.01223000"},{"name":"Sierndorf","latitude":"48.43024000","longitude":"16.16658000"},{"name":"Sigmundsherberg","latitude":"48.68333000","longitude":"15.75000000"},{"name":"Sitzendorf an der Schmida","latitude":"48.59841000","longitude":"15.94254000"},{"name":"Sollenau","latitude":"47.89834000","longitude":"16.24833000"},{"name":"Sommerein","latitude":"47.98333000","longitude":"16.65000000"},{"name":"Sonntagberg","latitude":"47.99561000","longitude":"14.76065000"},{"name":"Sooss","latitude":"47.98464000","longitude":"16.21737000"},{"name":"Spannberg","latitude":"48.46393000","longitude":"16.73647000"},{"name":"Spillern","latitude":"48.38333000","longitude":"16.25000000"},{"name":"Spitz","latitude":"48.36560000","longitude":"15.41416000"},{"name":"Spratzern","latitude":"48.17044000","longitude":"15.61844000"},{"name":"Staatz","latitude":"48.67617000","longitude":"16.48726000"},{"name":"Stattersdorf","latitude":"48.18333000","longitude":"15.63333000"},{"name":"Statzendorf","latitude":"48.30752000","longitude":"15.64127000"},{"name":"Stein an der Donau","latitude":"48.40163000","longitude":"15.58102000"},{"name":"Steinabrückl","latitude":"47.87053000","longitude":"16.20277000"},{"name":"Steinakirchen am Forst","latitude":"48.06965000","longitude":"15.04801000"},{"name":"Stephanshart","latitude":"48.15000000","longitude":"14.81667000"},{"name":"Stetteldorf am Wagram","latitude":"48.40815000","longitude":"16.01862000"},{"name":"Stetten","latitude":"48.36667000","longitude":"16.38333000"},{"name":"Stockerau","latitude":"48.38333000","longitude":"16.21667000"},{"name":"Stollhofen","latitude":"48.35226000","longitude":"15.75963000"},{"name":"Strass","latitude":"48.46667000","longitude":"15.73333000"},{"name":"Strasshof an der Nordbahn","latitude":"48.31667000","longitude":"16.66667000"},{"name":"Stratzing","latitude":"48.45000000","longitude":"15.60000000"},{"name":"Strengberg","latitude":"48.14685000","longitude":"14.65147000"},{"name":"Stronsdorf","latitude":"48.65157000","longitude":"16.29890000"},{"name":"Stössing","latitude":"48.12267000","longitude":"15.81379000"},{"name":"Tattendorf","latitude":"47.95000000","longitude":"16.30000000"},{"name":"Teesdorf","latitude":"47.95000000","longitude":"16.28333000"},{"name":"Ternitz","latitude":"47.71565000","longitude":"16.03575000"},{"name":"Thaya","latitude":"48.85489000","longitude":"15.28902000"},{"name":"Theresienfeld","latitude":"47.85000000","longitude":"16.23333000"},{"name":"Thomasberg","latitude":"47.56667000","longitude":"16.13333000"},{"name":"Tiefenbach","latitude":"47.53540000","longitude":"16.21346000"},{"name":"Traisen","latitude":"48.03333000","longitude":"15.60000000"},{"name":"Traiskirchen","latitude":"48.01485000","longitude":"16.29324000"},{"name":"Traismauer","latitude":"48.35000000","longitude":"15.73333000"},{"name":"Trattenbach","latitude":"47.60000000","longitude":"15.86667000"},{"name":"Trautmannsdorf an der Leitha","latitude":"48.02357000","longitude":"16.63266000"},{"name":"Tribuswinkel","latitude":"48.00623000","longitude":"16.27075000"},{"name":"Trumau","latitude":"47.99348000","longitude":"16.34268000"},{"name":"Tulbing","latitude":"48.29336000","longitude":"16.12226000"},{"name":"Tulln","latitude":"48.32829000","longitude":"16.05858000"},{"name":"Tullnerbach-Lawies","latitude":"48.18912000","longitude":"16.09117000"},{"name":"Türnitz","latitude":"47.93095000","longitude":"15.49295000"},{"name":"Ulrichskirchen","latitude":"48.40000000","longitude":"16.48333000"},{"name":"Untersiebenbrunn","latitude":"48.25000000","longitude":"16.73333000"},{"name":"Unterstinkenbrunn","latitude":"48.66770000","longitude":"16.34607000"},{"name":"Unterwagram","latitude":"48.21243000","longitude":"15.64951000"},{"name":"Unterwaltersdorf","latitude":"47.95000000","longitude":"16.41667000"},{"name":"Velm","latitude":"48.03333000","longitude":"16.43333000"},{"name":"Viehofen","latitude":"48.21667000","longitude":"15.61667000"},{"name":"Vitis","latitude":"48.75964000","longitude":"15.18259000"},{"name":"Vösendorf","latitude":"48.12107000","longitude":"16.34036000"},{"name":"Waidhofen an der Thaya","latitude":"48.81667000","longitude":"15.28333000"},{"name":"Waidhofen an der Ybbs","latitude":"47.96004000","longitude":"14.77361000"},{"name":"Waidhofen an der Ybbs Stadt","latitude":"47.95999000","longitude":"14.77438000"},{"name":"Waidmannsfeld","latitude":"47.87042000","longitude":"15.98116000"},{"name":"Waldegg","latitude":"47.86852000","longitude":"16.05154000"},{"name":"Waldenstein","latitude":"48.72845000","longitude":"15.01419000"},{"name":"Waldhausen","latitude":"48.52183000","longitude":"15.26250000"},{"name":"Waldkirchen an der Thaya","latitude":"48.93333000","longitude":"15.35000000"},{"name":"Wallsee","latitude":"48.16667000","longitude":"14.71667000"},{"name":"Walpersbach","latitude":"47.71667000","longitude":"16.23333000"},{"name":"Wang","latitude":"48.04538000","longitude":"15.02672000"},{"name":"Warth","latitude":"47.65000000","longitude":"16.11667000"},{"name":"Wartmannstetten","latitude":"47.69359000","longitude":"16.07506000"},{"name":"Weidling","latitude":"48.29100000","longitude":"16.30865000"},{"name":"Weigelsdorf","latitude":"47.95000000","longitude":"16.40000000"},{"name":"Weikendorf","latitude":"48.34438000","longitude":"16.76651000"},{"name":"Weikersdorf am Steinfelde","latitude":"47.80612000","longitude":"16.14389000"},{"name":"Weinburg","latitude":"48.11351000","longitude":"15.53295000"},{"name":"Weinzierl am Walde","latitude":"48.43211000","longitude":"15.43210000"},{"name":"Weinzierl bei Krems","latitude":"48.40000000","longitude":"15.60000000"},{"name":"Weissenbach an der Triesting","latitude":"47.98211000","longitude":"16.03935000"},{"name":"Weistrach","latitude":"48.05000000","longitude":"14.58333000"},{"name":"Weiten","latitude":"48.29564000","longitude":"15.26010000"},{"name":"Weitersfeld","latitude":"48.78097000","longitude":"15.81345000"},{"name":"Weitra","latitude":"48.70000000","longitude":"14.88333000"},{"name":"Weißenkirchen in der Wachau","latitude":"48.39790000","longitude":"15.46931000"},{"name":"Wiener Neudorf","latitude":"48.08278000","longitude":"16.31384000"},{"name":"Wiener Neustadt","latitude":"47.80485000","longitude":"16.23196000"},{"name":"Wiener Neustadt Stadt","latitude":"47.80000000","longitude":"16.25000000"},{"name":"Wienersdorf","latitude":"48.00819000","longitude":"16.29169000"},{"name":"Wieselburg","latitude":"48.13333000","longitude":"15.13333000"},{"name":"Wiesmath","latitude":"47.61667000","longitude":"16.28333000"},{"name":"Wilfersdorf","latitude":"48.58333000","longitude":"16.63333000"},{"name":"Wilfleinsdorf","latitude":"48.01667000","longitude":"16.71667000"},{"name":"Wilhelmsburg","latitude":"48.10571000","longitude":"15.60539000"},{"name":"Willendorf am Steinfelde","latitude":"47.78929000","longitude":"16.05686000"},{"name":"Wimpassing im Schwarzatale","latitude":"47.70295000","longitude":"16.03334000"},{"name":"Windhag","latitude":"47.97906000","longitude":"14.80245000"},{"name":"Windigsteig","latitude":"48.76667000","longitude":"15.28333000"},{"name":"Winklarn","latitude":"48.09135000","longitude":"14.84819000"},{"name":"Winzendorf","latitude":"47.81154000","longitude":"16.11300000"},{"name":"Wolfpassing","latitude":"48.07785000","longitude":"15.06453000"},{"name":"Wolfsbach","latitude":"48.06667000","longitude":"14.66667000"},{"name":"Wolfsgraben","latitude":"48.15870000","longitude":"16.12098000"},{"name":"Wolfsthal","latitude":"48.13333000","longitude":"17.00000000"},{"name":"Wolkersdorf im Weinviertel","latitude":"48.38333000","longitude":"16.51667000"},{"name":"Wullersdorf","latitude":"48.62792000","longitude":"16.10089000"},{"name":"Wöllersdorf","latitude":"47.86500000","longitude":"16.17119000"},{"name":"Wördern","latitude":"48.33400000","longitude":"16.21016000"},{"name":"Würflach","latitude":"47.77648000","longitude":"16.05463000"},{"name":"Würmla","latitude":"48.25497000","longitude":"15.86031000"},{"name":"Ybbs an der Donau","latitude":"48.16667000","longitude":"15.08333000"},{"name":"Ybbsitz","latitude":"47.94745000","longitude":"14.89180000"},{"name":"Ysper","latitude":"48.28865000","longitude":"15.06131000"},{"name":"Zeillern","latitude":"48.13029000","longitude":"14.80760000"},{"name":"Zeiselmauer","latitude":"48.32852000","longitude":"16.17565000"},{"name":"Zell-Arzberg","latitude":"47.95191000","longitude":"14.79322000"},{"name":"Zell-Markt","latitude":"47.95878000","longitude":"14.78318000"},{"name":"Zellerndorf","latitude":"48.69657000","longitude":"15.95841000"},{"name":"Ziersdorf","latitude":"48.53030000","longitude":"15.92691000"},{"name":"Zillingdorf","latitude":"47.85000000","longitude":"16.33333000"},{"name":"Zistersdorf","latitude":"48.54252000","longitude":"16.76136000"},{"name":"Zwentendorf","latitude":"48.34530000","longitude":"15.91026000"},{"name":"Zwettl Stadt","latitude":"48.60726000","longitude":"15.16714000"},{"name":"Zwölfaxing","latitude":"48.10990000","longitude":"16.46267000"},{"name":"Zöbern","latitude":"47.51459000","longitude":"16.13111000"}]