[{"name":"Banite","latitude":"41.61667000","longitude":"25.01667000"},{"name":"Borino","latitude":"41.68408000","longitude":"24.29300000"},{"name":"Chepelare","latitude":"41.73333000","longitude":"24.68333000"},{"name":"Devin","latitude":"41.74327000","longitude":"24.40003000"},{"name":"Dospat","latitude":"41.64462000","longitude":"24.15857000"},{"name":"Gyovren","latitude":"41.66326000","longitude":"24.37557000"},{"name":"Madan","latitude":"41.49869000","longitude":"24.93973000"},{"name":"Nedelino","latitude":"41.45602000","longitude":"25.08008000"},{"name":"Obshtina Banite","latitude":"41.70000000","longitude":"25.00000000"},{"name":"Obshtina Borino","latitude":"41.64834000","longitude":"24.31694000"},{"name":"Obshtina Chepelare","latitude":"41.80000000","longitude":"24.68333000"},{"name":"Obshtina Devin","latitude":"41.74346000","longitude":"24.40192000"},{"name":"Obshtina Dospat","latitude":"41.63228000","longitude":"24.18765000"},{"name":"Obshtina Madan","latitude":"41.53333000","longitude":"24.96667000"},{"name":"Obshtina Nedelino","latitude":"41.46894000","longitude":"25.09481000"},{"name":"Obshtina Rudozem","latitude":"41.45439000","longitude":"24.83690000"},{"name":"Obshtina Smolyan","latitude":"41.57516000","longitude":"24.71302000"},{"name":"Obshtina Zlatograd","latitude":"41.40028000","longitude":"25.04591000"},{"name":"Rudozem","latitude":"41.48751000","longitude":"24.84945000"},{"name":"Smolyan","latitude":"41.57439000","longitude":"24.71204000"},{"name":"Zlatograd","latitude":"41.37950000","longitude":"25.09605000"}]