[{"name":"Adur","latitude":"9.15595000","longitude":"76.73192000"},{"name":"Alappuzha","latitude":"9.49004000","longitude":"76.32640000"},{"name":"Aluva","latitude":"10.10764000","longitude":"76.35158000"},{"name":"Alwaye","latitude":"10.10649000","longitude":"76.35484000"},{"name":"Angamali","latitude":"10.19055000","longitude":"76.38789000"},{"name":"Aroor","latitude":"9.86940000","longitude":"76.30498000"},{"name":"Arukutti","latitude":"9.86667000","longitude":"76.35000000"},{"name":"Attingal","latitude":"8.69609000","longitude":"76.81507000"},{"name":"Avanoor","latitude":"10.60826000","longitude":"76.17620000"},{"name":"Azhikkal","latitude":"11.91524000","longitude":"75.34761000"},{"name":"Badagara","latitude":"11.59776000","longitude":"75.58142000"},{"name":"Beypore","latitude":"11.17151000","longitude":"75.80611000"},{"name":"Changanacheri","latitude":"9.44203000","longitude":"76.53604000"},{"name":"Chengannur","latitude":"9.31575000","longitude":"76.61513000"},{"name":"Cherpulassery","latitude":"10.87655000","longitude":"76.30932000"},{"name":"Cherthala","latitude":"9.68444000","longitude":"76.33558000"},{"name":"Chetwayi","latitude":"10.52885000","longitude":"76.04793000"},{"name":"Chittur","latitude":"10.69967000","longitude":"76.74710000"},{"name":"Chēlakara","latitude":"10.69289000","longitude":"76.34387000"},{"name":"Cochin","latitude":"9.93988000","longitude":"76.26022000"},{"name":"Dharmadam","latitude":"11.77538000","longitude":"75.46459000"},{"name":"Edakkulam","latitude":"10.61020000","longitude":"76.18352000"},{"name":"Elur","latitude":"10.06667000","longitude":"76.28333000"},{"name":"Ernakulam","latitude":"10.00000000","longitude":"76.50000000"},{"name":"Erattupetta","latitude":"9.68747000","longitude":"76.77891000"},{"name":"Ferokh","latitude":"11.17989000","longitude":"75.84141000"},{"name":"Guruvayur","latitude":"10.59430000","longitude":"76.04110000"},{"name":"Idukki","latitude":"10.00000000","longitude":"77.00000000"},{"name":"Iringal","latitude":"11.55929000","longitude":"75.61663000"},{"name":"Irinjalakuda","latitude":"10.34238000","longitude":"76.21124000"},{"name":"Kadakkavoor","latitude":"8.67921000","longitude":"76.76714000"},{"name":"Kalamassery","latitude":"10.06140000","longitude":"76.32631000"},{"name":"Kalavoor","latitude":"9.57046000","longitude":"76.32756000"},{"name":"Kalpatta","latitude":"11.60871000","longitude":"76.08343000"},{"name":"Kannavam","latitude":"11.84450000","longitude":"75.66266000"},{"name":"Kannur","latitude":"12.16667000","longitude":"75.33333000"},{"name":"Kattanam","latitude":"9.17614000","longitude":"76.56325000"},{"name":"Kizhake Chalakudi","latitude":"10.30067000","longitude":"76.33763000"},{"name":"Kodungallur","latitude":"10.23263000","longitude":"76.19513000"},{"name":"Kollam","latitude":"8.88113000","longitude":"76.58469000"},{"name":"Kotamangalam","latitude":"10.06435000","longitude":"76.62843000"},{"name":"Kottayam","latitude":"9.66667000","longitude":"76.66667000"},{"name":"Kovalam","latitude":"8.36667000","longitude":"76.99667000"},{"name":"Kozhikode","latitude":"11.50000000","longitude":"76.00000000"},{"name":"Kumbalam","latitude":"9.90630000","longitude":"76.31127000"},{"name":"Kunnamangalam","latitude":"11.30459000","longitude":"75.87772000"},{"name":"Kunnamkulam","latitude":"10.64667000","longitude":"76.06695000"},{"name":"Kunnumma","latitude":"9.35672000","longitude":"76.41343000"},{"name":"Kutiatodu","latitude":"9.80000000","longitude":"76.33333000"},{"name":"Kuttampuzha","latitude":"10.15033000","longitude":"76.73544000"},{"name":"Kannangad","latitude":"12.30814000","longitude":"75.10632000"},{"name":"Kasaragod","latitude":"12.49838000","longitude":"74.98959000"},{"name":"Kasaragod District","latitude":"12.49246000","longitude":"74.99062000"},{"name":"Kayankulam","latitude":"9.18173000","longitude":"76.50093000"},{"name":"Lalam","latitude":"9.71667000","longitude":"76.70000000"},{"name":"Mahē","latitude":"11.70172000","longitude":"75.53474000"},{"name":"Malappuram","latitude":"11.00000000","longitude":"76.16667000"},{"name":"Manjeri","latitude":"11.12018000","longitude":"76.11996000"},{"name":"Manjēshvar","latitude":"12.71287000","longitude":"74.88857000"},{"name":"Mannarakkat","latitude":"10.99223000","longitude":"76.46418000"},{"name":"Marayur","latitude":"10.27641000","longitude":"77.16205000"},{"name":"Mattanur","latitude":"11.93018000","longitude":"75.57152000"},{"name":"Mavoor","latitude":"11.26667000","longitude":"75.91667000"},{"name":"Muluppilagadu","latitude":"11.79788000","longitude":"75.45111000"},{"name":"Munnar","latitude":"10.08818000","longitude":"77.06239000"},{"name":"Muvattupuzha","latitude":"9.97985000","longitude":"76.57381000"},{"name":"Mavelikara","latitude":"9.25929000","longitude":"76.55642000"},{"name":"Muvattupula","latitude":"9.98493000","longitude":"76.57728000"},{"name":"Naduvannur","latitude":"11.48772000","longitude":"75.77511000"},{"name":"Nedumangad","latitude":"8.60267000","longitude":"77.00139000"},{"name":"Neyyattinkara","latitude":"8.39854000","longitude":"77.08586000"},{"name":"Nadapuram","latitude":"11.68465000","longitude":"75.65493000"},{"name":"Nilēshwar","latitude":"12.25953000","longitude":"75.13520000"},{"name":"Ottappalam","latitude":"10.77350000","longitude":"76.37758000"},{"name":"Palackattumala","latitude":"9.74356000","longitude":"76.62940000"},{"name":"Palakkad district","latitude":"10.77500000","longitude":"76.65100000"},{"name":"Panamaram","latitude":"11.74014000","longitude":"76.07369000"},{"name":"Paravur Tekkumbhagam","latitude":"8.79470000","longitude":"76.66798000"},{"name":"Pariyapuram","latitude":"11.01667000","longitude":"75.86667000"},{"name":"Pathanamthitta","latitude":"9.26667000","longitude":"76.78333000"},{"name":"Pattanamtitta","latitude":"9.28068000","longitude":"76.86967000"},{"name":"Payyannur","latitude":"12.09350000","longitude":"75.20249000"},{"name":"Perumbavoor","latitude":"10.10695000","longitude":"76.47366000"},{"name":"Perumpavur","latitude":"10.11544000","longitude":"76.47611000"},{"name":"Perya","latitude":"11.83334000","longitude":"75.85408000"},{"name":"Piravam","latitude":"9.86667000","longitude":"76.50000000"},{"name":"Ponmana","latitude":"9.00798000","longitude":"76.52023000"},{"name":"Ponnani","latitude":"10.76695000","longitude":"75.92523000"},{"name":"Punalur","latitude":"9.01956000","longitude":"76.92261000"},{"name":"Palghat","latitude":"10.77319000","longitude":"76.65366000"},{"name":"Pappinisshēri","latitude":"11.95655000","longitude":"75.34034000"},{"name":"Ramamangalam","latitude":"9.93333000","longitude":"76.50000000"},{"name":"Shertallai","latitude":"9.68581000","longitude":"76.33996000"},{"name":"Shōranur","latitude":"10.76181000","longitude":"76.27078000"},{"name":"Talipparamba","latitude":"12.04161000","longitude":"75.35927000"},{"name":"Tellicherry","latitude":"11.74811000","longitude":"75.49290000"},{"name":"Thanniyam","latitude":"10.41667000","longitude":"76.13333000"},{"name":"Thiruvananthapuram","latitude":"8.60399000","longitude":"76.98574000"},{"name":"Thrissur","latitude":"10.51667000","longitude":"76.21667000"},{"name":"Thrissur District","latitude":"10.52022000","longitude":"76.22040000"},{"name":"Tirur","latitude":"10.91368000","longitude":"75.92118000"},{"name":"Tiruvalla","latitude":"9.38160000","longitude":"76.57489000"},{"name":"Vaikam","latitude":"9.74858000","longitude":"76.39637000"},{"name":"Varkala","latitude":"8.73330000","longitude":"76.71670000"},{"name":"Vayalar","latitude":"9.71158000","longitude":"76.33888000"},{"name":"Vettur","latitude":"8.71742000","longitude":"76.72582000"},{"name":"Wayanad","latitude":"11.60500000","longitude":"76.08300000"}]