[{"name":"Aceguá","latitude":"-31.87178000","longitude":"-54.16351000"},{"name":"Isidoro Noblía","latitude":"-31.96218000","longitude":"-54.12309000"},{"name":"Melo","latitude":"-32.37028000","longitude":"-54.16750000"},{"name":"Río Branco","latitude":"-32.59802000","longitude":"-53.38583000"},{"name":"Tupambaé","latitude":"-32.83333000","longitude":"-54.76667000"}]