[{"name":"Chile Chico","latitude":"-46.53760000","longitude":"-71.72930000"},{"name":"Cochrane","latitude":"-47.25390000","longitude":"-72.57320000"},{"name":"Coyhaique","latitude":"-45.57524000","longitude":"-72.06619000"},{"name":"Aysén","latitude":"-45.40303000","longitude":"-72.69184000"},{"name":"Cisnes","latitude":"-44.72750000","longitude":"-72.68050000"},{"name":"Guaitecas","latitude":"-43.88333333","longitude":"-73.73333333"},{"name":"Lago Verde","latitude":"-44.24031000","longitude":"-71.84950000"},{"name":"O'Higgins","latitude":"-48.46666667","longitude":"-72.56666667"},{"name":"Río Ibáñez","latitude":"-46.30000000","longitude":"-71.93333333"},{"name":"Tortel","latitude":"-47.83333333","longitude":"-73.56666667"}]