[{"name":"Baabda","latitude":"33.83389000","longitude":"35.54417000"},{"name":"Bhamdoun","latitude":"33.79500000","longitude":"35.65111000"},{"name":"Bhamdoûn el Mhatta","latitude":"33.80861000","longitude":"35.65972000"},{"name":"Caza de Baabda","latitude":"33.84592000","longitude":"35.66791000"},{"name":"Jbaïl","latitude":"34.12111000","longitude":"35.64806000"},{"name":"Jounieh","latitude":"33.98083000","longitude":"35.61778000"}]