[{"name":"Andrijaševci","latitude":"45.22472000","longitude":"18.73806000"},{"name":"Babina Greda","latitude":"45.11722000","longitude":"18.53694000"},{"name":"Bobota","latitude":"45.42111000","longitude":"18.85389000"},{"name":"Bogdanovci","latitude":"45.34083000","longitude":"18.93083000"},{"name":"Borovo","latitude":"45.37639000","longitude":"18.96694000"},{"name":"Borovo Selo","latitude":"45.40528000","longitude":"18.97583000"},{"name":"Bošnjaci","latitude":"45.05028000","longitude":"18.75556000"},{"name":"Bršadin","latitude":"45.36278000","longitude":"18.91111000"},{"name":"Cerić","latitude":"45.31139000","longitude":"18.85611000"},{"name":"Cerna","latitude":"45.18194000","longitude":"18.68944000"},{"name":"Drenovci","latitude":"44.91944000","longitude":"18.90284000"},{"name":"Grad Vinkovci","latitude":"45.28044000","longitude":"18.80482000"},{"name":"Grad Vukovar","latitude":"45.33333000","longitude":"19.00000000"},{"name":"Grad Županja","latitude":"45.07231000","longitude":"18.69513000"},{"name":"Gradište","latitude":"45.14806000","longitude":"18.70667000"},{"name":"Gunja","latitude":"44.88000000","longitude":"18.85333000"},{"name":"Ilok","latitude":"45.22222000","longitude":"19.37694000"},{"name":"Ivankovo","latitude":"45.28861000","longitude":"18.68389000"},{"name":"Jarmina","latitude":"45.31806000","longitude":"18.72917000"},{"name":"Komletinci","latitude":"45.14972000","longitude":"18.94917000"},{"name":"Lovas","latitude":"45.22639000","longitude":"19.17111000"},{"name":"Markušica","latitude":"45.37389000","longitude":"18.70583000"},{"name":"Mirkovci","latitude":"45.26972000","longitude":"18.85111000"},{"name":"Negoslavci","latitude":"45.27944000","longitude":"18.99667000"},{"name":"Nijemci","latitude":"45.14028000","longitude":"19.03556000"},{"name":"Nuštar","latitude":"45.33250000","longitude":"18.84139000"},{"name":"Otok","latitude":"45.14667000","longitude":"18.88389000"},{"name":"Privlaka","latitude":"45.19472000","longitude":"18.83750000"},{"name":"Retkovci","latitude":"45.23333000","longitude":"18.65306000"},{"name":"Rokovci","latitude":"45.23111000","longitude":"18.74389000"},{"name":"Soljani","latitude":"44.95028000","longitude":"18.97028000"},{"name":"Stari Jankovci","latitude":"45.26194000","longitude":"18.91444000"},{"name":"Tordinci","latitude":"45.37028000","longitude":"18.79500000"},{"name":"Tovarnik","latitude":"45.16500000","longitude":"19.15194000"},{"name":"Trpinja","latitude":"45.41917000","longitude":"18.89917000"},{"name":"Vinkovci","latitude":"45.28833000","longitude":"18.80472000"},{"name":"Vođinci","latitude":"45.27556000","longitude":"18.60972000"},{"name":"Vrbanja","latitude":"44.98079000","longitude":"18.92717000"},{"name":"Vukovar","latitude":"45.35161000","longitude":"19.00225000"},{"name":"Štitar","latitude":"45.09556000","longitude":"18.64028000"},{"name":"Županja","latitude":"45.07750000","longitude":"18.69750000"}]