[{"name":"Autonomous City Of Buenos Aires","countryCode":"AR","fipsCode":null,"iso":"C","latitude":"-34.60368440","longitude":"-58.38155910"},{"name":"Buenos Aires Province","countryCode":"AR","fipsCode":"07","iso":"B","latitude":"-37.20172850","longitude":"-59.84106970"},{"name":"Catamarca Province","countryCode":"AR","fipsCode":"02","iso":"K","latitude":"-28.47158770","longitude":"-65.78772090"},{"name":"Chaco Province","countryCode":"AR","fipsCode":"03","iso":"H","latitude":"-27.42571750","longitude":"-59.02437840"},{"name":"Chubut Province","countryCode":"AR","fipsCode":"04","iso":"U","latitude":"-43.29342460","longitude":"-65.11148180"},{"name":"Corrientes","countryCode":"AR","fipsCode":"06","iso":"W","latitude":"-27.46921310","longitude":"-58.83063490"},{"name":"Córdoba Province","countryCode":"AR","fipsCode":"05","iso":"X","latitude":null,"longitude":null},{"name":"Entre Ríos Province","countryCode":"AR","fipsCode":"08","iso":"E","latitude":"-31.77466540","longitude":"-60.49564610"},{"name":"Formosa Province","countryCode":"AR","fipsCode":"09","iso":"P","latitude":"-26.18948040","longitude":"-58.22428060"},{"name":"Jujuy Province","countryCode":"AR","fipsCode":"10","iso":"Y","latitude":"-24.18433970","longitude":"-65.30217700"},{"name":"La Pampa","countryCode":"AR","fipsCode":"11","iso":"L","latitude":"-36.61475730","longitude":"-64.28392090"},{"name":"La Rioja Province","countryCode":"AR","fipsCode":"12","iso":"F","latitude":"-29.41937930","longitude":"-66.85599320"},{"name":"Mendoza","countryCode":"AR","fipsCode":"13","iso":"M","latitude":"-32.88945870","longitude":"-68.84583860"},{"name":"Misiones Province","countryCode":"AR","fipsCode":"14","iso":"N","latitude":"-27.42692550","longitude":"-55.94670760"},{"name":"Neuquén Province","countryCode":"AR","fipsCode":"15","iso":"Q","latitude":"-38.94587000","longitude":"-68.07309250"},{"name":"Río Negro Province","countryCode":"AR","fipsCode":"16","iso":"R","latitude":"-40.82614340","longitude":"-63.02663390"},{"name":"Salta Province","countryCode":"AR","fipsCode":"17","iso":"A","latitude":"-24.79976880","longitude":"-65.41503670"},{"name":"San Juan Province","countryCode":"AR","fipsCode":"18","iso":"J","latitude":null,"longitude":null},{"name":"San Luis Province","countryCode":"AR","fipsCode":"19","iso":"D","latitude":"-33.29620420","longitude":"-66.32949480"},{"name":"Santa Cruz Province","countryCode":"AR","fipsCode":"20","iso":"Z","latitude":"-51.63528210","longitude":"-69.24743530"},{"name":"Santa Fe Province","countryCode":"AR","fipsCode":"21","iso":"S","latitude":"-31.58551090","longitude":"-60.72380160"},{"name":"Santiago del Estero Province","countryCode":"AR","fipsCode":"22","iso":"G","latitude":"-27.78335740","longitude":"-64.26416700"},{"name":"Tierra del Fuego Province","countryCode":"AR","fipsCode":"23","iso":"V","latitude":"-54.80539980","longitude":"-68.32420610"},{"name":"Tucumán Province","countryCode":"AR","fipsCode":"24","iso":"T","latitude":"-26.82211270","longitude":"-65.21929030"}]