[{"name":"Adelphi","latitude":"18.45060000","longitude":"-77.78590000"},{"name":"Albion","latitude":"18.48471000","longitude":"-77.91408000"},{"name":"Anchovy","latitude":"18.41030000","longitude":"-77.93166000"},{"name":"Arcadia","latitude":"18.24993000","longitude":"-77.79228000"},{"name":"Barrett Town","latitude":"18.50871000","longitude":"-77.79625000"},{"name":"Bickersteth","latitude":"18.36335000","longitude":"-77.93651000"},{"name":"Bogue","latitude":"18.43722000","longitude":"-77.92022000"},{"name":"Brandon Hill","latitude":"18.47767000","longitude":"-77.91117000"},{"name":"Cambridge","latitude":"18.31308000","longitude":"-77.89546000"},{"name":"Canterbury","latitude":"18.47919000","longitude":"-77.91655000"},{"name":"Catadupa","latitude":"18.28052000","longitude":"-77.86579000"},{"name":"Catherine Hall","latitude":"18.46258000","longitude":"-77.92286000"},{"name":"Catherine Mount","latitude":"18.45672000","longitude":"-77.89691000"},{"name":"Comfort Hall","latitude":"18.41270000","longitude":"-77.91814000"},{"name":"Coral Gardens","latitude":"18.50791000","longitude":"-77.88034000"},{"name":"Cornwall","latitude":"18.48930000","longitude":"-77.81016000"},{"name":"Down Town Montego Bay","latitude":"18.47726000","longitude":"-77.92031000"},{"name":"Dumfries","latitude":"18.42973000","longitude":"-77.75593000"},{"name":"Fairfield","latitude":"18.45079000","longitude":"-77.91235000"},{"name":"Farm Heights","latitude":"18.46869000","longitude":"-77.87760000"},{"name":"Flagstaff","latitude":"18.35412000","longitude":"-77.77132000"},{"name":"Flamstead","latitude":"18.31409000","longitude":"-77.81316000"},{"name":"Flankers","latitude":"18.50265000","longitude":"-77.90831000"},{"name":"Flower Hill","latitude":"18.48426000","longitude":"-77.83913000"},{"name":"Friendship","latitude":"18.44590000","longitude":"-77.86242000"},{"name":"Garlands","latitude":"18.27811000","longitude":"-77.78908000"},{"name":"Glendevon","latitude":"18.48488000","longitude":"-77.89710000"},{"name":"Goodwill","latitude":"18.46950000","longitude":"-77.75646000"},{"name":"Granville","latitude":"18.44191000","longitude":"-77.89402000"},{"name":"Green Pond","latitude":"18.47361000","longitude":"-77.87779000"},{"name":"Greenwood","latitude":"18.49768000","longitude":"-77.75243000"},{"name":"Hopeton","latitude":"18.39858000","longitude":"-77.86826000"},{"name":"Ironshore","latitude":"18.51323000","longitude":"-77.85108000"},{"name":"Irwin","latitude":"18.44949000","longitude":"-77.87722000"},{"name":"John's Hall","latitude":"18.42849000","longitude":"-77.85010000"},{"name":"Lilliput","latitude":"18.50591000","longitude":"-77.77686000"},{"name":"Lottery","latitude":"18.41499000","longitude":"-77.80696000"},{"name":"Maldon","latitude":"18.33831000","longitude":"-77.80998000"},{"name":"Maroon Town","latitude":"18.34464000","longitude":"-77.79544000"},{"name":"Mocho","latitude":"18.29135000","longitude":"-77.82580000"},{"name":"Montego Bay","latitude":"18.47116000","longitude":"-77.91883000"},{"name":"Montego Hill","latitude":"18.48038000","longitude":"-77.88150000"},{"name":"Montpelier","latitude":"18.37612000","longitude":"-77.91357000"},{"name":"Mount Carey","latitude":"18.38888000","longitude":"-77.94374000"},{"name":"Mount Horeb","latitude":"18.33322000","longitude":"-77.86675000"},{"name":"Mount Salem","latitude":"18.46601000","longitude":"-77.90793000"},{"name":"Niagara","latitude":"18.26534000","longitude":"-77.81879000"},{"name":"Norwood","latitude":"18.49217000","longitude":"-77.88634000"},{"name":"Orange","latitude":"18.45395000","longitude":"-77.82779000"},{"name":"Paradise","latitude":"18.49401000","longitude":"-77.90982000"},{"name":"Pitfour","latitude":"18.43206000","longitude":"-77.89007000"},{"name":"Porto Bello","latitude":"18.46607000","longitude":"-77.86989000"},{"name":"Reading","latitude":"18.43723000","longitude":"-77.94730000"},{"name":"Retirement","latitude":"18.43742000","longitude":"-77.88004000"},{"name":"Retrieve","latitude":"18.28901000","longitude":"-77.90081000"},{"name":"Roehampton","latitude":"18.39897000","longitude":"-77.89926000"},{"name":"Rose Hall","latitude":"18.51228000","longitude":"-77.81833000"},{"name":"Rose Heights","latitude":"18.46945000","longitude":"-77.89533000"},{"name":"Rose Mount Garden","latitude":"18.46394000","longitude":"-77.89397000"},{"name":"Rosemount","latitude":"18.47484000","longitude":"-77.89216000"},{"name":"Salt Spring","latitude":"18.48687000","longitude":"-77.86554000"},{"name":"Seven Rivers","latitude":"18.34702000","longitude":"-77.91378000"},{"name":"Somerton","latitude":"18.40496000","longitude":"-77.77071000"},{"name":"Spot Valley","latitude":"18.47869000","longitude":"-77.79106000"},{"name":"Stonehenge","latitude":"18.24231000","longitude":"-77.85042000"},{"name":"Summer Hill","latitude":"18.37360000","longitude":"-77.79350000"},{"name":"Sunderland","latitude":"18.39794000","longitude":"-77.82734000"},{"name":"Tangle River","latitude":"18.34337000","longitude":"-77.83621000"},{"name":"Tower Hill/Moy Hall","latitude":"18.44044000","longitude":"-77.96022000"},{"name":"Tucker","latitude":"18.44900000","longitude":"-77.89438000"},{"name":"Unity Hall","latitude":"18.43304000","longitude":"-77.97684000"},{"name":"Vaughnsfield","latitude":"18.32135000","longitude":"-77.78051000"},{"name":"Welcome Hall","latitude":"18.36898000","longitude":"-77.83673000"},{"name":"West Green","latitude":"18.46244000","longitude":"-77.91757000"}]