[{"name":"Haapsalu","latitude":"58.94306000","longitude":"23.54139000"},{"name":"Haapsalu linn","latitude":"58.93580000","longitude":"23.53005000"},{"name":"Hullo","latitude":"58.99004000","longitude":"23.24441000"},{"name":"Lääne-Nigula vald","latitude":"58.96045000","longitude":"23.74489000"},{"name":"Taebla","latitude":"58.95389000","longitude":"23.75222000"},{"name":"Uuemõisa","latitude":"58.93944000","longitude":"23.58944000"},{"name":"Vormsi vald","latitude":"58.99986000","longitude":"23.23408000"}]