[{"name":"Agua Caliente","latitude":"14.88333000","longitude":"-88.81667000"},{"name":"Buenos Aires","latitude":"15.03333000","longitude":"-88.96667000"},{"name":"Cabañas","latitude":"14.76000000","longitude":"-89.06000000"},{"name":"Chalmeca","latitude":"15.10000000","longitude":"-88.68333000"},{"name":"Concepción","latitude":"14.88077000","longitude":"-88.87919000"},{"name":"Concepción de la Barranca","latitude":"15.16667000","longitude":"-88.71667000"},{"name":"Copán","latitude":"14.83333000","longitude":"-89.15000000"},{"name":"Copán Ruinas","latitude":"14.92000000","longitude":"-89.15000000"},{"name":"Corquín","latitude":"14.56667000","longitude":"-88.86667000"},{"name":"Cucuyagua","latitude":"14.65000000","longitude":"-88.86667000"},{"name":"Dolores","latitude":"14.86667000","longitude":"-88.83333000"},{"name":"Dulce Nombre","latitude":"14.85552000","longitude":"-88.83856000"},{"name":"El Corpus","latitude":"14.70000000","longitude":"-88.91667000"},{"name":"El Ocotón","latitude":"15.03333000","longitude":"-88.88333000"},{"name":"El Paraíso","latitude":"15.04217000","longitude":"-88.98045000"},{"name":"Florida","latitude":"15.03333000","longitude":"-88.83333000"},{"name":"La Entrada","latitude":"15.05000000","longitude":"-88.73333000"},{"name":"La Jigua","latitude":"15.10000000","longitude":"-88.76000000"},{"name":"La Playona","latitude":"15.11667000","longitude":"-88.98333000"},{"name":"La Unión","latitude":"14.69350000","longitude":"-88.94734000"},{"name":"La Zumbadora","latitude":"15.01667000","longitude":"-88.90000000"},{"name":"Los Tangos","latitude":"15.15000000","longitude":"-88.68333000"},{"name":"Nueva Arcadia","latitude":"15.08000000","longitude":"-88.69000000"},{"name":"Ojos de Agua","latitude":"14.70000000","longitude":"-88.81667000"},{"name":"Pueblo Nuevo","latitude":"15.00000000","longitude":"-88.75000000"},{"name":"Quezailica","latitude":"14.88333000","longitude":"-88.73333000"},{"name":"San Agustín","latitude":"14.81973000","longitude":"-88.93027000"},{"name":"San Antonio","latitude":"15.04000000","longitude":"-88.88000000"},{"name":"San Jerónimo","latitude":"14.96207000","longitude":"-88.90270000"},{"name":"San Joaquín","latitude":"15.05000000","longitude":"-88.90000000"},{"name":"San José","latitude":"14.91184000","longitude":"-88.71667000"},{"name":"San José de Copán","latitude":"14.90000000","longitude":"-88.71667000"},{"name":"San Juan de Opoa","latitude":"14.78333000","longitude":"-88.70000000"},{"name":"San Juan de Planes","latitude":"14.93333000","longitude":"-88.78333000"},{"name":"San Nicolás","latitude":"14.98000000","longitude":"-88.73000000"},{"name":"San Pedro de Copán","latitude":"14.61667000","longitude":"-88.80000000"},{"name":"Santa Rita","latitude":"14.88000000","longitude":"-89.01000000"},{"name":"Santa Rita, Copan","latitude":"14.86748000","longitude":"-89.10000000"},{"name":"Santa Rosa de Copán","latitude":"14.76667000","longitude":"-88.77917000"},{"name":"Trinidad de Copán","latitude":"14.95000000","longitude":"-88.75000000"},{"name":"Veracruz","latitude":"14.88343000","longitude":"-88.78570000"}]