[{"name":"Abram Mys","latitude":"68.97839000","longitude":"33.01926000"},{"name":"Afrikanda","latitude":"67.44289000","longitude":"32.78279000"},{"name":"Alakurtti","latitude":"66.96720000","longitude":"30.34905000"},{"name":"Apatity","latitude":"67.56414000","longitude":"33.40310000"},{"name":"Gadzhiyevo","latitude":"69.25506000","longitude":"33.33616000"},{"name":"Kandalaksha","latitude":"67.16200000","longitude":"32.41229000"},{"name":"Kandalakshskiy rayon","latitude":"67.16622000","longitude":"32.44606000"},{"name":"Kirovsk","latitude":"67.61475000","longitude":"33.67274000"},{"name":"Kola","latitude":"68.88062000","longitude":"33.01842000"},{"name":"Kol’skiy Rayon","latitude":"68.50000000","longitude":"32.00000000"},{"name":"Kovdor","latitude":"67.56616000","longitude":"30.47576000"},{"name":"Kovdorskiy Rayon","latitude":"67.56667000","longitude":"30.40000000"},{"name":"Lovozero","latitude":"68.00638000","longitude":"35.01589000"},{"name":"Lovozerskiy Rayon","latitude":"68.00000000","longitude":"36.00000000"},{"name":"Molochnyy","latitude":"68.85389000","longitude":"33.02046000"},{"name":"Monchegorsk","latitude":"67.93972000","longitude":"32.87389000"},{"name":"Murmansk","latitude":"68.97917000","longitude":"33.09251000"},{"name":"Murmashi","latitude":"68.81542000","longitude":"32.81147000"},{"name":"Nikel","latitude":"69.41285000","longitude":"30.22198000"},{"name":"Olenegorsk","latitude":"68.14320000","longitude":"33.25287000"},{"name":"Ostrovnoy","latitude":"68.05306000","longitude":"39.51306000"},{"name":"Pechenga","latitude":"69.52587000","longitude":"31.17027000"},{"name":"Pechengskiy Rayon","latitude":"69.00000000","longitude":"30.00000000"},{"name":"Polyarnyy","latitude":"69.19889000","longitude":"33.44778000"},{"name":"Polyarnyye Zori","latitude":"67.36611000","longitude":"32.49806000"},{"name":"Poyakonda","latitude":"66.59428000","longitude":"32.82088000"},{"name":"Revda","latitude":"67.93710000","longitude":"34.56149000"},{"name":"Roslyakovo","latitude":"69.04303000","longitude":"33.19906000"},{"name":"Safonovo","latitude":"69.06043000","longitude":"33.29523000"},{"name":"Severomorsk","latitude":"69.06889000","longitude":"33.41622000"},{"name":"Severomorsk-3","latitude":"68.87862000","longitude":"33.72631000"},{"name":"Shonguy","latitude":"68.75261000","longitude":"33.14595000"},{"name":"Snezhnogorsk","latitude":"69.19333000","longitude":"33.25314000"},{"name":"Teribërka","latitude":"69.16088000","longitude":"35.14527000"},{"name":"Terskiy Rayon","latitude":"66.91667000","longitude":"35.00000000"},{"name":"Umba","latitude":"66.68706000","longitude":"34.34291000"},{"name":"Verkhnetulomskiy","latitude":"68.60727000","longitude":"31.79621000"},{"name":"Vidyayevo","latitude":"69.31914000","longitude":"32.80488000"},{"name":"Vysokiy","latitude":"68.13583000","longitude":"33.41917000"},{"name":"Zaozërsk","latitude":"69.40052000","longitude":"32.44761000"},{"name":"Zapolyarnyy","latitude":"69.41541000","longitude":"30.81355000"},{"name":"Zelenoborskiy","latitude":"66.84500000","longitude":"32.36222000"}]