[{"name":"Higashiōmi-shi","latitude":"35.10890000","longitude":"136.17920000"},{"name":"Hikone","latitude":"35.25000000","longitude":"136.25000000"},{"name":"Hikone-shi","latitude":"35.23036000","longitude":"136.20760000"},{"name":"Hino","latitude":"35.00000000","longitude":"136.25000000"},{"name":"Kitahama","latitude":"35.16667000","longitude":"135.91667000"},{"name":"Konan-shi","latitude":"35.01667000","longitude":"136.08333000"},{"name":"Kusatsu","latitude":"35.01667000","longitude":"135.96667000"},{"name":"Kusatsu-shi","latitude":"35.02758000","longitude":"135.93840000"},{"name":"Kōka-shi","latitude":"34.91667000","longitude":"136.16667000"},{"name":"Maibara","latitude":"35.31667000","longitude":"136.28333000"},{"name":"Maibara-shi","latitude":"35.38457000","longitude":"136.37741000"},{"name":"Minakuchichō-matoba","latitude":"34.96667000","longitude":"136.16667000"},{"name":"Moriyama","latitude":"35.06667000","longitude":"135.98333000"},{"name":"Moriyama-shi","latitude":"35.08815000","longitude":"135.96869000"},{"name":"Nagahama","latitude":"35.38333000","longitude":"136.26667000"},{"name":"Nagahama-shi","latitude":"35.42256000","longitude":"136.26272000"},{"name":"Rittō-shi","latitude":"34.99603000","longitude":"136.01412000"},{"name":"Takashima","latitude":"35.41347000","longitude":"136.01612000"},{"name":"Takashima-shi","latitude":"35.35448000","longitude":"136.02859000"},{"name":"Yasu-shi","latitude":"35.06801000","longitude":"136.02327000"},{"name":"Youkaichi","latitude":"35.11626000","longitude":"136.19768000"},{"name":"Ōmihachiman","latitude":"35.12861000","longitude":"136.09760000"},{"name":"Ōmihachiman-shi","latitude":"35.15251000","longitude":"136.06964000"},{"name":"Ōtsu-shi","latitude":"35.10203000","longitude":"135.92452000"}]