[{"name":"Arıcak","latitude":"38.56340000","longitude":"40.12480000"},{"name":"Ağın","latitude":"38.93792000","longitude":"38.71155000"},{"name":"Baskil","latitude":"38.56866000","longitude":"38.81634000"},{"name":"Elazığ","latitude":"38.67431000","longitude":"39.22321000"},{"name":"Karakoçan","latitude":"38.95178000","longitude":"40.02706000"},{"name":"Karakoçan / Elazığ","latitude":"38.95527000","longitude":"40.04053000"},{"name":"Keban","latitude":"38.79380000","longitude":"38.73517000"},{"name":"Kovancılar","latitude":"38.71882000","longitude":"39.86268000"},{"name":"Maden İlçesi","latitude":"38.39354000","longitude":"39.67252000"},{"name":"Merkez","latitude":"38.66790000","longitude":"39.21567000"},{"name":"Palu","latitude":"38.69135000","longitude":"39.91984000"},{"name":"Sivrice","latitude":"38.44223000","longitude":"39.30938000"},{"name":"Turluk","latitude":"39.44034000","longitude":"39.87773000"}]