[{"name":"Palata","latitude":"41.88790000","longitude":"14.78778000"},{"name":"Pesche","latitude":"41.60552000","longitude":"14.27620000"},{"name":"Pescolanciano","latitude":"41.67972000","longitude":"14.33658000"},{"name":"Pescopennataro","latitude":"41.87777000","longitude":"14.29398000"},{"name":"Petacciato","latitude":"42.00827000","longitude":"14.86026000"},{"name":"Petrella Tifernina","latitude":"41.69135000","longitude":"14.69751000"},{"name":"Pettoranello del Molise","latitude":"41.57331000","longitude":"14.27839000"},{"name":"Pietrabbondante","latitude":"41.74527000","longitude":"14.38480000"},{"name":"Pietracatella","latitude":"41.58064000","longitude":"14.87298000"},{"name":"Pietracupa","latitude":"41.68253000","longitude":"14.51933000"},{"name":"Pizzone","latitude":"41.67332000","longitude":"14.03666000"},{"name":"Poggio Sannita","latitude":"41.77939000","longitude":"14.41485000"},{"name":"Portocannone","latitude":"41.91441000","longitude":"15.00845000"},{"name":"Pozzilli","latitude":"41.51142000","longitude":"14.06252000"},{"name":"Provincia di Campobasso","latitude":"41.70070000","longitude":"14.75848000"},{"name":"Provincia di Isernia","latitude":"41.66667000","longitude":"14.25000000"},{"name":"Provvidenti","latitude":"41.71795000","longitude":"14.82349000"},{"name":"Riccia","latitude":"41.48314000","longitude":"14.83181000"},{"name":"Rionero Sannitico","latitude":"41.71219000","longitude":"14.13917000"},{"name":"Ripabottoni","latitude":"41.68996000","longitude":"14.80866000"},{"name":"Ripalimosani","latitude":"41.61064000","longitude":"14.66306000"},{"name":"Roccamandolfi","latitude":"41.49583000","longitude":"14.35217000"},{"name":"Roccasicura","latitude":"41.69676000","longitude":"14.23065000"},{"name":"Roccavivara","latitude":"41.83336000","longitude":"14.60013000"},{"name":"Rocchetta Nuova","latitude":"41.62375000","longitude":"14.08574000"},{"name":"Rocchetta a Volturno","latitude":"41.62582000","longitude":"14.08902000"},{"name":"Rotello","latitude":"41.74776000","longitude":"15.00608000"},{"name":"Salcito","latitude":"41.74640000","longitude":"14.51085000"},{"name":"San Biase","latitude":"41.71526000","longitude":"14.59049000"},{"name":"San Felice del Molise","latitude":"41.89000000","longitude":"14.70088000"},{"name":"San Giacomo degli Schiavoni","latitude":"41.96234000","longitude":"14.94481000"},{"name":"San Giovanni in Galdo","latitude":"41.59110000","longitude":"14.75202000"},{"name":"San Giuliano del Sannio","latitude":"41.45752000","longitude":"14.64169000"},{"name":"San Giuliano di Puglia","latitude":"41.68796000","longitude":"14.96231000"},{"name":"San Martino in Pensilis","latitude":"41.87814000","longitude":"15.01824000"},{"name":"San Massimo","latitude":"41.49292000","longitude":"14.41023000"},{"name":"San Pietro Avellana","latitude":"41.78886000","longitude":"14.18323000"},{"name":"San Polomatese","latitude":"41.45932000","longitude":"14.49343000"},{"name":"Sant'Agapito","latitude":"41.54372000","longitude":"14.22204000"},{"name":"Sant'Angelo Limosano","latitude":"41.69266000","longitude":"14.60346000"},{"name":"Sant'Angelo del Pesco","latitude":"41.88193000","longitude":"14.25354000"},{"name":"Sant'Elena Sannita","latitude":"41.57525000","longitude":"14.47070000"},{"name":"Sant'Elia a Pianisi","latitude":"41.62043000","longitude":"14.87523000"},{"name":"Santa Croce di Magliano","latitude":"41.71223000","longitude":"14.98732000"},{"name":"Santa Maria del Molise","latitude":"41.55285000","longitude":"14.36762000"},{"name":"Scapoli","latitude":"41.61447000","longitude":"14.05929000"},{"name":"Sepino","latitude":"41.40782000","longitude":"14.61938000"},{"name":"Sessano del Molise","latitude":"41.63926000","longitude":"14.32779000"},{"name":"Sesto Campano","latitude":"41.42042000","longitude":"14.07782000"},{"name":"Spinete","latitude":"41.54431000","longitude":"14.48743000"},{"name":"Tavenna","latitude":"41.90898000","longitude":"14.76176000"},{"name":"Taverna Ravindola","latitude":"41.52283000","longitude":"14.12591000"},{"name":"Termoli","latitude":"41.99994000","longitude":"14.99389000"},{"name":"Torella del Sannio","latitude":"41.63878000","longitude":"14.52031000"},{"name":"Toro","latitude":"41.57313000","longitude":"14.76183000"},{"name":"Trivento","latitude":"41.77004000","longitude":"14.54613000"},{"name":"Tufara","latitude":"41.48203000","longitude":"14.94654000"},{"name":"Ururi","latitude":"41.81518000","longitude":"15.01611000"},{"name":"Vastogirardi","latitude":"41.77460000","longitude":"14.25844000"},{"name":"Venafro","latitude":"41.48275000","longitude":"14.04773000"},{"name":"Vinchiaturo","latitude":"41.49282000","longitude":"14.59200000"},{"name":"Acquaviva Collecroce","latitude":"41.86624000","longitude":"14.74733000"},{"name":"Acquaviva d'Isernia","latitude":"41.67132000","longitude":"14.14770000"},{"name":"Agnone","latitude":"41.81043000","longitude":"14.37524000"},{"name":"Bagnoli del Trigno","latitude":"41.70217000","longitude":"14.45861000"},{"name":"Baranello","latitude":"41.52722000","longitude":"14.55800000"},{"name":"Belmonte del Sannio","latitude":"41.82352000","longitude":"14.42333000"},{"name":"Bojano","latitude":"41.48530000","longitude":"14.47075000"},{"name":"Bonefro","latitude":"41.70507000","longitude":"14.93439000"},{"name":"Busso","latitude":"41.55413000","longitude":"14.56103000"},{"name":"Campobasso","latitude":"41.55947000","longitude":"14.66737000"},{"name":"Campochiaro","latitude":"41.44827000","longitude":"14.50828000"},{"name":"Campodipietra","latitude":"41.55740000","longitude":"14.74445000"},{"name":"Campolieto","latitude":"41.63336000","longitude":"14.76694000"},{"name":"Campomarino","latitude":"41.95692000","longitude":"15.03546000"},{"name":"Cantalupo nel Sannio","latitude":"41.52182000","longitude":"14.39292000"},{"name":"Capracotta","latitude":"41.83326000","longitude":"14.26581000"},{"name":"Carovilli","latitude":"41.71348000","longitude":"14.29403000"},{"name":"Carpinone","latitude":"41.59003000","longitude":"14.32436000"},{"name":"Casacalenda","latitude":"41.73824000","longitude":"14.84734000"},{"name":"Casalciprano","latitude":"41.58037000","longitude":"14.52835000"},{"name":"Castel San Vincenzo","latitude":"41.65543000","longitude":"14.06178000"},{"name":"Castel del Giudice","latitude":"41.85488000","longitude":"14.23155000"},{"name":"Castelbottaccio","latitude":"41.75329000","longitude":"14.70616000"},{"name":"Castellino del Biferno","latitude":"41.70160000","longitude":"14.73179000"},{"name":"Castelmauro","latitude":"41.82846000","longitude":"14.71066000"},{"name":"Castelpetroso","latitude":"41.56027000","longitude":"14.34637000"},{"name":"Castelpizzuto","latitude":"41.52128000","longitude":"14.29205000"},{"name":"Castelverrino","latitude":"41.76713000","longitude":"14.39756000"},{"name":"Castropignano","latitude":"41.61788000","longitude":"14.55856000"},{"name":"Cercemaggiore","latitude":"41.46130000","longitude":"14.72402000"},{"name":"Cercepiccola","latitude":"41.45982000","longitude":"14.66487000"},{"name":"Cerro al Volturno","latitude":"41.65418000","longitude":"14.10321000"},{"name":"Chiauci","latitude":"41.67791000","longitude":"14.38393000"},{"name":"Civitacampomarano","latitude":"41.78032000","longitude":"14.68919000"},{"name":"Civitanova del Sannio","latitude":"41.66829000","longitude":"14.40285000"},{"name":"Colle d'Anchise","latitude":"41.50986000","longitude":"14.51873000"},{"name":"Colletorto","latitude":"41.66165000","longitude":"14.96773000"},{"name":"Colli a Volturno","latitude":"41.60039000","longitude":"14.10301000"},{"name":"Conca Casale","latitude":"41.49512000","longitude":"14.00682000"},{"name":"Duronia","latitude":"41.65786000","longitude":"14.46015000"},{"name":"Ferrazzano","latitude":"41.53033000","longitude":"14.67223000"},{"name":"Filignano","latitude":"41.54578000","longitude":"14.05757000"},{"name":"Forlì del Sannio","latitude":"41.69593000","longitude":"14.17952000"},{"name":"Fornelli","latitude":"41.60678000","longitude":"14.14041000"},{"name":"Fossalto","latitude":"41.67293000","longitude":"14.54573000"},{"name":"Frosolone","latitude":"41.60006000","longitude":"14.44578000"},{"name":"Gambatesa","latitude":"41.50861000","longitude":"14.91240000"},{"name":"Gildone","latitude":"41.50901000","longitude":"14.74020000"},{"name":"Guardialfiera","latitude":"41.80423000","longitude":"14.79293000"},{"name":"Guardiaregia","latitude":"41.43436000","longitude":"14.54344000"},{"name":"Guglionesi","latitude":"41.92093000","longitude":"14.91600000"},{"name":"Isernia","latitude":"41.59603000","longitude":"14.23399000"},{"name":"Jelsi","latitude":"41.51704000","longitude":"14.79790000"},{"name":"Larino","latitude":"41.80449000","longitude":"14.91843000"},{"name":"Limosano","latitude":"41.67554000","longitude":"14.62230000"},{"name":"Longano","latitude":"41.52199000","longitude":"14.24665000"},{"name":"Lucito","latitude":"41.73193000","longitude":"14.68723000"},{"name":"Lupara","latitude":"41.76141000","longitude":"14.73390000"},{"name":"Macchia Valfortore","latitude":"41.59487000","longitude":"14.91238000"},{"name":"Macchia d'Isernia","latitude":"41.56057000","longitude":"14.17015000"},{"name":"Macchiagodena","latitude":"41.55899000","longitude":"14.41049000"},{"name":"Mafalda","latitude":"41.94308000","longitude":"14.71610000"},{"name":"Matrice","latitude":"41.61878000","longitude":"14.70977000"},{"name":"Mimosa-Poggio Verde-Nuova Comunità","latitude":"41.53871000","longitude":"14.66879000"},{"name":"Mirabello Sannitico","latitude":"41.51628000","longitude":"14.67315000"},{"name":"Miranda","latitude":"41.64434000","longitude":"14.24643000"},{"name":"Molise","latitude":"41.63147000","longitude":"14.49252000"},{"name":"Monacilioni","latitude":"41.61077000","longitude":"14.81000000"},{"name":"Montagano","latitude":"41.64538000","longitude":"14.67405000"},{"name":"Montaquila","latitude":"41.56502000","longitude":"14.11333000"},{"name":"Montecilfone","latitude":"41.90163000","longitude":"14.83680000"},{"name":"Montefalcone nel Sannio","latitude":"41.86663000","longitude":"14.63823000"},{"name":"Montelongo","latitude":"41.73705000","longitude":"14.95034000"},{"name":"Montemitro","latitude":"41.88813000","longitude":"14.64666000"},{"name":"Montenero Val Cocchiara","latitude":"41.71683000","longitude":"14.06941000"},{"name":"Montenero di Bisaccia","latitude":"41.96437000","longitude":"14.78103000"},{"name":"Monteroduni","latitude":"41.52240000","longitude":"14.17641000"},{"name":"Montorio Nei Frentani","latitude":"41.75884000","longitude":"14.93314000"},{"name":"Morrone del Sannio","latitude":"41.71107000","longitude":"14.78087000"},{"name":"Oratino","latitude":"41.58598000","longitude":"14.59463000"}]