[{"name":"Bulung’ur","latitude":"39.76472000","longitude":"67.27139000"},{"name":"Charxin","latitude":"39.69667000","longitude":"66.76861000"},{"name":"Chelak","latitude":"39.92028000","longitude":"66.86111000"},{"name":"Daxbet","latitude":"39.76389000","longitude":"66.91250000"},{"name":"Ishtixon","latitude":"39.96639000","longitude":"66.48611000"},{"name":"Jomboy","latitude":"39.69889000","longitude":"67.09333000"},{"name":"Juma","latitude":"39.71611000","longitude":"66.66417000"},{"name":"Kattaqo‘rg‘on","latitude":"39.89889000","longitude":"66.25611000"},{"name":"Oqtosh","latitude":"39.92139000","longitude":"65.92528000"},{"name":"Payshanba","latitude":"40.00778000","longitude":"66.23694000"},{"name":"Samarkand","latitude":"39.65417000","longitude":"66.95972000"},{"name":"Urgut","latitude":"39.40222000","longitude":"67.24306000"}]