[{"name":"Acatenango","latitude":"14.55451000","longitude":"-90.94368000"},{"name":"Chimaltenango","latitude":"14.66111000","longitude":"-90.81944000"},{"name":"Comalapa","latitude":"14.74086000","longitude":"-90.88761000"},{"name":"El Tejar","latitude":"14.64683000","longitude":"-90.79122000"},{"name":"Parramos","latitude":"14.60891000","longitude":"-90.80303000"},{"name":"Patzicía","latitude":"14.63194000","longitude":"-90.92659000"},{"name":"Patzún","latitude":"14.68189000","longitude":"-91.01397000"},{"name":"Pochuta","latitude":"14.54450000","longitude":"-91.08904000"},{"name":"San Andrés Itzapa","latitude":"14.62222000","longitude":"-90.84314000"},{"name":"San José Poaquil","latitude":"14.81808000","longitude":"-90.91248000"},{"name":"San Martín Jilotepeque","latitude":"14.78008000","longitude":"-90.79259000"},{"name":"Santa Apolonia","latitude":"14.79049000","longitude":"-90.97267000"},{"name":"Santa Cruz Balanyá","latitude":"14.68522000","longitude":"-90.91906000"},{"name":"Tecpán Guatemala","latitude":"14.76181000","longitude":"-90.99247000"},{"name":"Yepocapa","latitude":"14.50195000","longitude":"-90.95396000"},{"name":"Zaragoza","latitude":"14.64968000","longitude":"-90.89034000"}]