[{"name":"Aukstadvaris","latitude":"54.57946000","longitude":"24.52683000"},{"name":"Baltoji Vokė","latitude":"54.60002000","longitude":"25.19318000"},{"name":"Eišiškės","latitude":"54.17414000","longitude":"24.99917000"},{"name":"Elektrėnai","latitude":"54.78544000","longitude":"24.66302000"},{"name":"Fabijoniškės","latitude":"54.73333000","longitude":"25.24167000"},{"name":"Grigiškės","latitude":"54.68333000","longitude":"25.08333000"},{"name":"Justiniškės","latitude":"54.71664000","longitude":"25.21740000"},{"name":"Lazdynai","latitude":"54.66815000","longitude":"25.20684000"},{"name":"Lentvaris","latitude":"54.64364000","longitude":"25.05162000"},{"name":"Naujamiestis","latitude":"54.67951000","longitude":"25.26855000"},{"name":"Nemenčinė","latitude":"54.84776000","longitude":"25.46992000"},{"name":"Pabradė","latitude":"54.98100000","longitude":"25.76100000"},{"name":"Pašilaičiai","latitude":"54.73429000","longitude":"25.21912000"},{"name":"Pilaitė","latitude":"54.69981000","longitude":"25.18393000"},{"name":"Rasos","latitude":"54.67877000","longitude":"25.31173000"},{"name":"Rūdiškės","latitude":"54.51609000","longitude":"24.83084000"},{"name":"Senieji Trakai","latitude":"54.60900000","longitude":"24.98000000"},{"name":"Sirvintos","latitude":"55.05000000","longitude":"24.95000000"},{"name":"Skaidiškės","latitude":"54.61398000","longitude":"25.39573000"},{"name":"Svencionys","latitude":"55.15000000","longitude":"26.16667000"},{"name":"Trakai","latitude":"54.63783000","longitude":"24.93433000"},{"name":"Ukmerge","latitude":"55.25000000","longitude":"24.75000000"},{"name":"Vievis","latitude":"54.76667000","longitude":"24.80000000"},{"name":"Vilkpėdė","latitude":"54.66969000","longitude":"25.24770000"},{"name":"Vilnius","latitude":"54.68916000","longitude":"25.27980000"},{"name":"Vilnius District Municipality","latitude":"54.73333000","longitude":"25.38333000"},{"name":"Šalčininkai","latitude":"54.30000000","longitude":"25.38333000"},{"name":"Šeškinė","latitude":"54.70972000","longitude":"25.25053000"},{"name":"Švenčionėliai","latitude":"55.16163000","longitude":"26.00177000"}]