[{"name":"Abucay","latitude":"14.73347000","longitude":"120.53358000"},{"name":"Acli","latitude":"15.12279000","longitude":"120.64470000"},{"name":"Agbannawag","latitude":"15.67920000","longitude":"121.08330000"},{"name":"Akle","latitude":"15.04820000","longitude":"121.07330000"},{"name":"Aliaga","latitude":"15.50000000","longitude":"120.84300000"},{"name":"Almendras","latitude":"15.27576000","longitude":"120.69873000"},{"name":"Alua","latitude":"15.31154000","longitude":"120.89433000"},{"name":"Amacalan","latitude":"15.58150000","longitude":"120.61120000"},{"name":"Amucao","latitude":"15.46405000","longitude":"120.68643000"},{"name":"Amuñgan","latitude":"15.36520000","longitude":"119.95820000"},{"name":"Anao","latitude":"15.14150000","longitude":"120.69136000"},{"name":"Angat","latitude":"14.79278000","longitude":"120.87889000"},{"name":"Angeles City","latitude":"15.15000000","longitude":"120.58333000"},{"name":"Antipolo","latitude":"15.61810000","longitude":"121.19000000"},{"name":"Apalit","latitude":"14.95333000","longitude":"120.77000000"},{"name":"Arayat","latitude":"15.15050000","longitude":"120.76970000"},{"name":"Arenas","latitude":"15.17042000","longitude":"120.68571000"},{"name":"Arminia","latitude":"15.43563000","longitude":"120.56379000"},{"name":"Babo-Pangulo","latitude":"15.08333000","longitude":"120.51667000"},{"name":"Bacabac","latitude":"15.72477000","longitude":"120.42816000"},{"name":"Bacolor","latitude":"15.00030000","longitude":"120.65200000"},{"name":"Bacsay","latitude":"15.62063000","longitude":"120.34341000"},{"name":"Bagac","latitude":"14.59620000","longitude":"120.39280000"},{"name":"Bagong Barrio","latitude":"14.88993000","longitude":"120.94095000"},{"name":"Bagong-Sikat","latitude":"15.48010000","longitude":"121.30730000"},{"name":"Bahay Pare","latitude":"15.03238000","longitude":"120.88083000"},{"name":"Bakulong","latitude":"15.53790000","longitude":"120.63850000"},{"name":"Balagtas","latitude":"14.81667000","longitude":"120.86667000"},{"name":"Balanga","latitude":"14.67611000","longitude":"120.53611000"},{"name":"Balaoang","latitude":"15.66330000","longitude":"120.51470000"},{"name":"Balas","latitude":"15.04998000","longitude":"120.58611000"},{"name":"Balasing","latitude":"14.85450000","longitude":"121.01270000"},{"name":"Balayang","latitude":"15.54950000","longitude":"120.69430000"},{"name":"Baler","latitude":"15.75890000","longitude":"121.56070000"},{"name":"Balibago","latitude":"15.16240000","longitude":"120.59540000"},{"name":"Balingcanaway","latitude":"15.48215000","longitude":"120.68543000"},{"name":"Balite","latitude":"15.64451000","longitude":"120.64196000"},{"name":"Baliuag","latitude":"14.95472000","longitude":"120.89694000"},{"name":"Baloc","latitude":"15.64350000","longitude":"120.88520000"},{"name":"Baloy","latitude":"15.80530000","longitude":"120.77420000"},{"name":"Balsic","latitude":"14.85906000","longitude":"120.48240000"},{"name":"Balucuc","latitude":"14.95282000","longitude":"120.81452000"},{"name":"Balut","latitude":"14.68333000","longitude":"120.55000000"},{"name":"Balutu","latitude":"15.29875000","longitude":"120.69226000"},{"name":"Bamban","latitude":"15.67470000","longitude":"120.33150000"},{"name":"Banawang","latitude":"14.61210000","longitude":"120.39000000"},{"name":"Bangad","latitude":"15.50190000","longitude":"121.02750000"},{"name":"Bani","latitude":"15.58230000","longitude":"119.93350000"},{"name":"Baquero Norte","latitude":"15.71620000","longitude":"120.55430000"},{"name":"Batasan Bata","latitude":"15.14442000","longitude":"120.94077000"},{"name":"Batitang","latitude":"15.40040000","longitude":"120.80276000"},{"name":"Bayanan","latitude":"13.35920000","longitude":"121.16990000"},{"name":"Beddeng","latitude":"14.97728000","longitude":"120.08493000"},{"name":"Biay","latitude":"15.74020000","longitude":"119.90670000"},{"name":"Bibiclat","latitude":"15.52186000","longitude":"120.86235000"},{"name":"Bicos","latitude":"15.66020000","longitude":"121.04140000"},{"name":"Biga","latitude":"13.31060000","longitude":"121.16100000"},{"name":"Bilad","latitude":"15.73676000","longitude":"120.43321000"},{"name":"Bituñgol","latitude":"14.88333000","longitude":"121.03333000"},{"name":"Bobon Second","latitude":"15.65653000","longitude":"120.38119000"},{"name":"Bocaue","latitude":"14.79833000","longitude":"120.92611000"},{"name":"Bodega","latitude":"14.92290000","longitude":"120.47982000"},{"name":"Bolitoc","latitude":"15.73950000","longitude":"119.87690000"},{"name":"Bongabon","latitude":"15.63210000","longitude":"121.14480000"},{"name":"Botolan","latitude":"15.28960000","longitude":"120.02450000"},{"name":"Buenlag","latitude":"15.62743000","longitude":"120.58199000"},{"name":"Buensuseso","latitude":"15.19333000","longitude":"120.67314000"},{"name":"Bulaon","latitude":"15.08262000","longitude":"120.66288000"},{"name":"Bularit","latitude":"15.56824000","longitude":"120.62167000"},{"name":"Bulawin","latitude":"15.41730000","longitude":"119.95640000"},{"name":"Bulihan","latitude":"14.87581000","longitude":"120.89563000"},{"name":"Buliran","latitude":"15.54602000","longitude":"120.95959000"},{"name":"Buliran Segundo","latitude":"15.26667000","longitude":"120.86667000"},{"name":"Bulualto","latitude":"15.22127000","longitude":"120.95326000"},{"name":"Bundoc","latitude":"15.48575000","longitude":"120.71743000"},{"name":"Bunol","latitude":"15.66710000","longitude":"120.83440000"},{"name":"Burgos","latitude":"15.72892000","longitude":"120.57224000"},{"name":"Bustos","latitude":"14.95806000","longitude":"120.91778000"},{"name":"Cabanatuan City","latitude":"15.48586000","longitude":"120.96648000"},{"name":"Cabangan","latitude":"15.15800000","longitude":"120.05690000"},{"name":"Cabayaoasan","latitude":"15.66323000","longitude":"120.55135000"},{"name":"Cabcaben","latitude":"14.45400000","longitude":"120.59140000"},{"name":"Cabiao","latitude":"15.24880000","longitude":"120.85480000"},{"name":"Cabog","latitude":"15.31530000","longitude":"121.37030000"},{"name":"Cafe","latitude":"15.33686000","longitude":"120.70623000"},{"name":"Calaba","latitude":"15.30050000","longitude":"120.87423000"},{"name":"Calancuasan Norte","latitude":"15.80137000","longitude":"120.64102000"},{"name":"Calangain","latitude":"14.89815000","longitude":"120.55877000"},{"name":"Calantas","latitude":"15.01933000","longitude":"120.51793000"},{"name":"Calayaan","latitude":"15.56739000","longitude":"120.51434000"},{"name":"Calibungan","latitude":"15.59820000","longitude":"120.72400000"},{"name":"Calibutbut","latitude":"15.11494000","longitude":"120.59815000"},{"name":"Calingcuan","latitude":"15.33333000","longitude":"120.58333000"},{"name":"Calumpang","latitude":"15.17400000","longitude":"121.02490000"},{"name":"Calumpit","latitude":"14.91639000","longitude":"120.76583000"},{"name":"Cama Juan","latitude":"15.39223000","longitude":"120.76848000"},{"name":"Camachile","latitude":"14.64361000","longitude":"120.58083000"},{"name":"Camias","latitude":"15.16679000","longitude":"120.97416000"},{"name":"Camiling","latitude":"15.68660000","longitude":"120.41280000"},{"name":"Candaba","latitude":"15.09560000","longitude":"120.82670000"},{"name":"Candating","latitude":"15.15056000","longitude":"120.81847000"},{"name":"Capas","latitude":"15.33117000","longitude":"120.58980000"},{"name":"Cardona","latitude":"15.57220000","longitude":"120.58970000"},{"name":"Carmen","latitude":"15.44702000","longitude":"120.82676000"},{"name":"Carranglan","latitude":"15.96130000","longitude":"121.06410000"},{"name":"Castillejos","latitude":"14.93363000","longitude":"120.19785000"},{"name":"Cauayan","latitude":"15.15149000","longitude":"120.67166000"},{"name":"Cavite","latitude":"15.67785000","longitude":"120.76978000"},{"name":"Cawayan Bugtong","latitude":"15.63362000","longitude":"120.77695000"},{"name":"Comillas","latitude":"15.39833000","longitude":"120.70045000"},{"name":"Communal","latitude":"13.25480000","longitude":"121.13660000"},{"name":"Concepcion","latitude":"15.32546000","longitude":"120.65723000"},{"name":"Conversion","latitude":"15.89840000","longitude":"121.12770000"},{"name":"Culianin","latitude":"14.91511000","longitude":"120.89847000"},{"name":"Culubasa","latitude":"15.14431000","longitude":"120.65223000"},{"name":"Cut-cut Primero","latitude":"15.48277000","longitude":"120.58604000"},{"name":"Cuyapo","latitude":"15.78194000","longitude":"120.66472000"},{"name":"Dampol","latitude":"14.90128000","longitude":"120.82187000"},{"name":"Del Carmen","latitude":"15.00544000","longitude":"120.53412000"},{"name":"Del Pilar","latitude":"15.03601000","longitude":"120.69935000"},{"name":"Digdig","latitude":"15.94900000","longitude":"120.97780000"},{"name":"Diliman Primero","latitude":"15.02470000","longitude":"120.95208000"},{"name":"Dinalupihan","latitude":"14.87827000","longitude":"120.45221000"},{"name":"Dingalan","latitude":"15.38970000","longitude":"121.39290000"},{"name":"Dolores","latitude":"15.09498000","longitude":"120.52889000"},{"name":"Doña Remedios Trinidad","latitude":"15.00000000","longitude":"121.08333000"},{"name":"Dumarais","latitude":"15.43455000","longitude":"120.69213000"},{"name":"Entablado","latitude":"15.28661000","longitude":"120.86302000"},{"name":"Estacion","latitude":"15.69944000","longitude":"120.60833000"},{"name":"Estipona","latitude":"15.59020000","longitude":"120.63770000"},{"name":"Estrella","latitude":"15.75000000","longitude":"121.03333000"},{"name":"Floridablanca","latitude":"14.97750000","longitude":"120.52850000"},{"name":"Gabaldon","latitude":"15.45220000","longitude":"121.33870000"},{"name":"Gapan","latitude":"15.30720000","longitude":"120.94640000"},{"name":"General Luna","latitude":"15.73060000","longitude":"121.17910000"},{"name":"General Mamerto Natividad","latitude":"15.60250000","longitude":"121.05150000"},{"name":"General Tinio","latitude":"15.35075000","longitude":"121.04773000"},{"name":"Gerona","latitude":"15.60650000","longitude":"120.59780000"},{"name":"Guagua","latitude":"14.96530000","longitude":"120.63250000"},{"name":"Gueset","latitude":"15.95000000","longitude":"120.63333000"},{"name":"Guiguinto","latitude":"14.83333000","longitude":"120.88333000"},{"name":"Guimba","latitude":"15.66050000","longitude":"120.76830000"},{"name":"Guisguis","latitude":"15.79280000","longitude":"119.97660000"},{"name":"Gutad","latitude":"14.92740000","longitude":"120.48940000"},{"name":"Guyong","latitude":"14.83610000","longitude":"120.97844000"},{"name":"Hagonoy","latitude":"14.83413000","longitude":"120.73271000"},{"name":"Hermosa","latitude":"14.83140000","longitude":"120.50810000"},{"name":"Iba","latitude":"15.32760000","longitude":"119.97800000"},{"name":"Jaen","latitude":"15.32750000","longitude":"120.91920000"},{"name":"La Paz","latitude":"15.44125000","longitude":"120.72863000"},{"name":"Lambakin","latitude":"14.75000000","longitude":"120.86667000"},{"name":"Lanat","latitude":"15.79189000","longitude":"120.60461000"},{"name":"Laug","latitude":"15.04659000","longitude":"120.75149000"},{"name":"Laur","latitude":"15.58650000","longitude":"121.18340000"},{"name":"Lawang Kupang","latitude":"15.34807000","longitude":"120.85752000"},{"name":"Lennec","latitude":"15.68350000","longitude":"120.73380000"},{"name":"Licab","latitude":"15.54390000","longitude":"120.76340000"},{"name":"Liciada","latitude":"14.91484000","longitude":"120.93182000"},{"name":"Ligaya","latitude":"15.50910000","longitude":"121.28720000"},{"name":"Limay","latitude":"14.56194000","longitude":"120.59833000"},{"name":"Liozon","latitude":"15.39930000","longitude":"119.93300000"},{"name":"Lipay","latitude":"15.45610000","longitude":"119.92080000"},{"name":"Llanera","latitude":"15.66350000","longitude":"121.01820000"},{"name":"Loma de Gato","latitude":"14.78869000","longitude":"120.99889000"},{"name":"Lomboy","latitude":"15.49255000","longitude":"120.71723000"},{"name":"Lourdes","latitude":"14.96667000","longitude":"120.68333000"},{"name":"Lubao","latitude":"14.94050000","longitude":"120.60110000"},{"name":"Lucapon","latitude":"15.69980000","longitude":"119.93200000"},{"name":"Lupao","latitude":"15.87930000","longitude":"120.89830000"},{"name":"Maasim","latitude":"14.99551000","longitude":"121.03082000"},{"name":"Mababanaba","latitude":"15.49715000","longitude":"120.46053000"},{"name":"Mabalacat City","latitude":"15.22303000","longitude":"120.57117000"},{"name":"Mabayo","latitude":"14.73180000","longitude":"120.27810000"},{"name":"Mabilang","latitude":"15.67511000","longitude":"120.48835000"},{"name":"Mabilog","latitude":"15.39485000","longitude":"120.66573000"},{"name":"Mabini","latitude":"15.60000000","longitude":"120.98333000"},{"name":"Macabebe","latitude":"14.90890000","longitude":"120.71550000"},{"name":"Macapsing","latitude":"15.67830000","longitude":"121.13190000"},{"name":"Macarse","latitude":"15.42495000","longitude":"120.77476000"},{"name":"Macatbong","latitude":"15.50480000","longitude":"121.07910000"},{"name":"Magalang","latitude":"15.21510000","longitude":"120.65960000"},{"name":"Magliman","latitude":"15.03545000","longitude":"120.66421000"},{"name":"Magtangol","latitude":"15.75800000","longitude":"120.91560000"},{"name":"Maguinao","latitude":"15.02231000","longitude":"120.93409000"},{"name":"Malabon","latitude":"15.63610000","longitude":"119.93790000"},{"name":"Malacampa","latitude":"15.64335000","longitude":"120.41109000"},{"name":"Maligaya","latitude":"15.67470000","longitude":"120.88870000"},{"name":"Malino","latitude":"15.12695000","longitude":"120.67431000"},{"name":"Malolos","latitude":"14.84430000","longitude":"120.81039000"},{"name":"Maloma","latitude":"15.11350000","longitude":"120.06390000"},{"name":"Maluid","latitude":"15.54930000","longitude":"120.65280000"},{"name":"Malusac","latitude":"14.85842000","longitude":"120.62120000"},{"name":"Mambog","latitude":"15.31370000","longitude":"120.03040000"},{"name":"Mamonit","latitude":"15.58719000","longitude":"120.39644000"},{"name":"Manacsac","latitude":"15.59520000","longitude":"120.79110000"},{"name":"Manatal","latitude":"14.87688000","longitude":"120.91639000"},{"name":"Mandili","latitude":"15.17912000","longitude":"120.87726000"},{"name":"Mangga","latitude":"15.25041000","longitude":"120.90876000"},{"name":"Manibaug Pasig","latitude":"15.09621000","longitude":"120.56445000"},{"name":"Manogpi","latitude":"13.31080000","longitude":"121.20400000"},{"name":"Mapalacsiao","latitude":"15.42831000","longitude":"120.65252000"},{"name":"Mapalad","latitude":"15.45133000","longitude":"121.08384000"},{"name":"Mapaniqui","latitude":"15.10696000","longitude":"120.92287000"},{"name":"Maquiapo","latitude":"14.98561000","longitude":"120.55855000"},{"name":"Marawa","latitude":"15.41727000","longitude":"120.83819000"},{"name":"Maria Aurora","latitude":"15.79670000","longitude":"121.47370000"},{"name":"Marilao","latitude":"14.75778000","longitude":"120.94833000"},{"name":"Mariveles","latitude":"14.43385000","longitude":"120.48569000"},{"name":"Masalipit","latitude":"15.14810000","longitude":"121.03730000"},{"name":"Masantol","latitude":"14.89600000","longitude":"120.70920000"},{"name":"Masinloc","latitude":"15.53630000","longitude":"119.95020000"},{"name":"Matayumtayum","latitude":"15.51660000","longitude":"120.70980000"},{"name":"Maturanoc","latitude":"15.65710000","longitude":"120.79210000"},{"name":"Mayantoc","latitude":"15.61990000","longitude":"120.37700000"},{"name":"Mexico","latitude":"15.06460000","longitude":"120.71980000"},{"name":"Meycauayan","latitude":"14.73694000","longitude":"120.96083000"},{"name":"Minalin","latitude":"14.96760000","longitude":"120.68280000"},{"name":"Moncada","latitude":"15.73540000","longitude":"120.57400000"},{"name":"Moriones","latitude":"15.46116000","longitude":"120.46579000"},{"name":"Morong","latitude":"14.67889000","longitude":"120.26611000"},{"name":"Motrico","latitude":"15.41355000","longitude":"120.67653000"},{"name":"Murcia","latitude":"15.40425000","longitude":"120.60903000"},{"name":"Muñoz","latitude":"15.71611000","longitude":"120.90306000"},{"name":"Nagpandayan","latitude":"15.60138000","longitude":"120.76893000"},{"name":"Nambalan","latitude":"15.59911000","longitude":"120.46031000"},{"name":"Nampicuan","latitude":"15.73140000","longitude":"120.62500000"},{"name":"Nancamarinan","latitude":"15.67520000","longitude":"120.53640000"},{"name":"Nieves","latitude":"15.32842000","longitude":"120.94892000"},{"name":"Niugan","latitude":"14.94607000","longitude":"120.96720000"},{"name":"Norzagaray","latitude":"14.91090000","longitude":"121.04930000"},{"name":"Obando","latitude":"14.70980000","longitude":"120.93620000"},{"name":"Olongapo","latitude":"14.82917000","longitude":"120.28278000"},{"name":"Orani","latitude":"14.80060000","longitude":"120.53710000"},{"name":"Orion","latitude":"14.62056000","longitude":"120.58167000"},{"name":"Paco Roman","latitude":"15.65970000","longitude":"121.08770000"},{"name":"Padapada","latitude":"15.55170000","longitude":"120.51630000"},{"name":"Paitan Norte","latitude":"15.83333000","longitude":"120.74086000"},{"name":"Palauig","latitude":"15.43500000","longitude":"119.90450000"},{"name":"Palayan City","latitude":"15.54150000","longitude":"121.08480000"},{"name":"Palusapis","latitude":"15.68324000","longitude":"120.86267000"},{"name":"Pamatawan","latitude":"14.92779000","longitude":"120.21363000"},{"name":"Panabingan","latitude":"15.37732000","longitude":"120.76492000"},{"name":"Panan","latitude":"15.21340000","longitude":"120.02720000"},{"name":"Pance","latitude":"15.68850000","longitude":"120.62010000"},{"name":"Pandacaqui","latitude":"15.17190000","longitude":"120.65457000"},{"name":"Pandi","latitude":"14.86500000","longitude":"120.95722000"},{"name":"Pando","latitude":"15.39395000","longitude":"120.68473000"},{"name":"Paniqui","latitude":"15.66890000","longitude":"120.58060000"},{"name":"Panlinlang","latitude":"15.18333000","longitude":"120.70000000"},{"name":"Pantabangan","latitude":"15.81130000","longitude":"121.14430000"},{"name":"Pantubig","latitude":"14.96806000","longitude":"120.95472000"},{"name":"Paombong","latitude":"14.83111000","longitude":"120.78917000"},{"name":"Papaya","latitude":"15.32016000","longitude":"120.83574000"},{"name":"Parang","latitude":"14.63310000","longitude":"120.44930000"},{"name":"Parista","latitude":"15.85360000","longitude":"120.92820000"},{"name":"Pau","latitude":"15.02790000","longitude":"120.72430000"},{"name":"Peñaranda","latitude":"15.35116000","longitude":"121.00393000"},{"name":"Pias","latitude":"15.34525000","longitude":"121.07473000"},{"name":"Pilar","latitude":"14.66000000","longitude":"120.56528000"},{"name":"Pinambaran","latitude":"15.20233000","longitude":"120.97797000"},{"name":"Pio","latitude":"15.04741000","longitude":"120.51891000"},{"name":"Piñahan","latitude":"15.62660000","longitude":"121.06210000"},{"name":"Plaridel","latitude":"14.88722000","longitude":"120.85722000"},{"name":"Poblacion, San Felipe","latitude":"15.06222000","longitude":"120.07000000"},{"name":"Porac","latitude":"15.07110000","longitude":"120.54230000"},{"name":"Porais","latitude":"15.75510000","longitude":"121.04270000"},{"name":"Prado Siongco","latitude":"14.87900000","longitude":"120.51292000"},{"name":"Province of Aurora","latitude":"15.98773000","longitude":"121.58020000"},{"name":"Province of Bataan","latitude":"14.66667000","longitude":"120.41667000"},{"name":"Province of Bulacan","latitude":"15.00000000","longitude":"121.08333000"},{"name":"Province of Nueva Ecija","latitude":"15.58333000","longitude":"121.00000000"},{"name":"Province of Pampanga","latitude":"15.06667000","longitude":"120.66667000"},{"name":"Province of Tarlac","latitude":"15.50000000","longitude":"120.50000000"},{"name":"Province of Zambales","latitude":"15.33333000","longitude":"120.16667000"},{"name":"Pulilan","latitude":"14.90167000","longitude":"120.84917000"},{"name":"Pulo","latitude":"14.96220000","longitude":"121.01470000"},{"name":"Pulong Gubat","latitude":"14.85938000","longitude":"120.90599000"},{"name":"Pulong Sampalok","latitude":"14.96110000","longitude":"121.06090000"},{"name":"Pulung Santol","latitude":"15.04574000","longitude":"120.56188000"},{"name":"Pulungmasle","latitude":"15.00040000","longitude":"120.55774000"},{"name":"Puncan","latitude":"15.90710000","longitude":"120.99070000"},{"name":"Pura","latitude":"15.62480000","longitude":"120.64800000"},{"name":"Purac","latitude":"15.25200000","longitude":"120.01690000"},{"name":"Putlod","latitude":"15.37060000","longitude":"120.86750000"},{"name":"Quezon","latitude":"15.55120000","longitude":"120.81470000"},{"name":"Rajal Norte","latitude":"15.44485000","longitude":"120.86256000"},{"name":"Ramos","latitude":"15.66530000","longitude":"120.64060000"},{"name":"Rizal","latitude":"15.71180000","longitude":"121.10610000"},{"name":"Sabang","latitude":"14.69510000","longitude":"120.25070000"},{"name":"Sagana","latitude":"15.56890000","longitude":"121.15220000"},{"name":"Salapungan","latitude":"15.13390000","longitude":"120.92794000"},{"name":"Salaza","latitude":"15.45410000","longitude":"119.95530000"},{"name":"Salcedo","latitude":"15.85722000","longitude":"120.60000000"},{"name":"Salvacion I","latitude":"15.83960000","longitude":"120.91590000"},{"name":"Samal","latitude":"14.76778000","longitude":"120.54306000"},{"name":"Sampaloc","latitude":"15.81667000","longitude":"120.86667000"},{"name":"San Agustin","latitude":"14.93333000","longitude":"120.15000000"},{"name":"San Alejandro","latitude":"15.56098000","longitude":"120.84896000"},{"name":"San Andres","latitude":"15.71928000","longitude":"120.77752000"},{"name":"San Anton","latitude":"15.34780000","longitude":"120.91991000"},{"name":"San Antonio","latitude":"14.94659000","longitude":"120.08673000"},{"name":"San Basilio","latitude":"15.03341000","longitude":"120.58427000"},{"name":"San Benito","latitude":"14.85155000","longitude":"120.42693000"},{"name":"San Carlos","latitude":"15.03966000","longitude":"120.76285000"},{"name":"San Casimiro","latitude":"15.55306000","longitude":"120.78083000"},{"name":"San Clemente","latitude":"15.71240000","longitude":"120.35900000"},{"name":"San Cristobal","latitude":"15.55382000","longitude":"120.76703000"},{"name":"San Fabian","latitude":"15.59629000","longitude":"120.90663000"},{"name":"San Felipe","latitude":"15.82608000","longitude":"120.59755000"},{"name":"San Felipe Old","latitude":"15.50140000","longitude":"120.90780000"},{"name":"San Fernando","latitude":"15.03425000","longitude":"120.68445000"},{"name":"San Francisco","latitude":"15.35566000","longitude":"120.84001000"},{"name":"San Ildefonso","latitude":"15.08090000","longitude":"120.94100000"},{"name":"San Isidro","latitude":"15.02116000","longitude":"120.82019000"},{"name":"San Jacinto","latitude":"15.54496000","longitude":"120.66959000"},{"name":"San Jose","latitude":"15.03330000","longitude":"120.78330000"},{"name":"San Jose del Monte","latitude":"14.81389000","longitude":"121.04528000"},{"name":"San Juan","latitude":"15.28970000","longitude":"120.06480000"},{"name":"San Juan de Mata","latitude":"15.53520000","longitude":"120.53020000"},{"name":"San Leonardo","latitude":"15.36300000","longitude":"120.96390000"},{"name":"San Lorenzo","latitude":"15.48620000","longitude":"119.96220000"},{"name":"San Luis","latitude":"15.04010000","longitude":"120.78830000"},{"name":"San Manuel","latitude":"15.49053000","longitude":"120.66543000"},{"name":"San Marcelino","latitude":"14.97418000","longitude":"120.15733000"},{"name":"San Mariano","latitude":"15.32083000","longitude":"120.87609000"},{"name":"San Mateo","latitude":"15.20008000","longitude":"120.79460000"},{"name":"San Miguel","latitude":"15.14230000","longitude":"120.97568000"},{"name":"San Narciso","latitude":"15.01430000","longitude":"120.08030000"},{"name":"San Nicolas","latitude":"15.58410000","longitude":"120.67650000"},{"name":"San Pascual","latitude":"15.50152000","longitude":"120.66718000"},{"name":"San Patricio","latitude":"15.09775000","longitude":"120.72876000"},{"name":"San Rafael","latitude":"14.89906000","longitude":"120.69352000"},{"name":"San Ricardo","latitude":"15.59590000","longitude":"120.97270000"},{"name":"San Roque","latitude":"15.00946000","longitude":"120.93831000"},{"name":"San Roque Dau First","latitude":"14.97711000","longitude":"120.57688000"},{"name":"San Simon","latitude":"14.99960000","longitude":"120.78080000"},{"name":"San Vicente","latitude":"15.29210000","longitude":"120.65498000"},{"name":"San Vincente","latitude":"13.40680000","longitude":"121.17500000"},{"name":"Santa Ana","latitude":"15.09550000","longitude":"120.76700000"},{"name":"Santa Barbara","latitude":"15.38494000","longitude":"120.79611000"},{"name":"Santa Cruz","latitude":"15.76540000","longitude":"119.90920000"},{"name":"Santa Fe","latitude":"15.01030000","longitude":"120.21020000"},{"name":"Santa Ignacia","latitude":"15.61690000","longitude":"120.43580000"},{"name":"Santa Ines West","latitude":"15.55694000","longitude":"120.46448000"},{"name":"Santa Juliana","latitude":"15.32826000","longitude":"120.42863000"},{"name":"Santa Lucia","latitude":"15.36806000","longitude":"120.48643000"},{"name":"Santa Maria","latitude":"15.52320000","longitude":"120.79250000"},{"name":"Santa Monica","latitude":"15.35771000","longitude":"120.72006000"},{"name":"Santa Rita","latitude":"14.99930000","longitude":"120.61170000"},{"name":"Santa Rosa","latitude":"15.42380000","longitude":"120.93780000"},{"name":"Santa Teresa First","latitude":"14.92650000","longitude":"120.55791000"},{"name":"Santiago","latitude":"14.90371000","longitude":"120.51134000"},{"name":"Santo Cristo","latitude":"15.29683000","longitude":"120.89025000"},{"name":"Santo Domingo","latitude":"14.99120000","longitude":"120.74341000"},{"name":"Santo Niño","latitude":"15.33433000","longitude":"120.62619000"},{"name":"Santo Rosario","latitude":"15.64470000","longitude":"120.86120000"},{"name":"Santo Tomas","latitude":"15.74977000","longitude":"120.96241000"},{"name":"Santol","latitude":"15.16222000","longitude":"120.56750000"},{"name":"Sapang","latitude":"15.70320000","longitude":"120.52450000"},{"name":"Sapang Buho","latitude":"15.59038000","longitude":"121.12454000"},{"name":"Sapol","latitude":"13.36500000","longitude":"121.18930000"},{"name":"Saysain","latitude":"14.56111000","longitude":"120.39250000"},{"name":"Sexmoan","latitude":"14.94380000","longitude":"120.62290000"},{"name":"Sibul","latitude":"15.16900000","longitude":"121.06160000"},{"name":"Siclong","latitude":"15.58080000","longitude":"121.22390000"},{"name":"Sinait","latitude":"15.53670000","longitude":"120.58510000"},{"name":"Sinilian First","latitude":"15.69327000","longitude":"120.45936000"},{"name":"Soledad","latitude":"15.42838000","longitude":"120.98355000"},{"name":"Subic","latitude":"14.87870000","longitude":"120.23194000"},{"name":"Suklayin","latitude":"15.75740000","longitude":"121.55030000"},{"name":"Sula","latitude":"15.45725000","longitude":"120.39553000"},{"name":"Sulucan","latitude":"14.79448000","longitude":"120.92594000"},{"name":"Tabacao","latitude":"15.64973000","longitude":"120.94066000"},{"name":"Tabon","latitude":"15.27098000","longitude":"120.91273000"},{"name":"Tabuating","latitude":"15.39210000","longitude":"120.94084000"},{"name":"Tal I Mun Doc","latitude":"15.21210000","longitude":"120.68490000"},{"name":"Talaga","latitude":"15.38403000","longitude":"120.58933000"},{"name":"Talang","latitude":"15.02488000","longitude":"120.83782000"},{"name":"Talavera","latitude":"15.58830000","longitude":"120.91920000"},{"name":"Taltal","latitude":"15.58780000","longitude":"119.94550000"},{"name":"Talugtug","latitude":"15.77780000","longitude":"120.81110000"},{"name":"Tariji","latitude":"15.52112000","longitude":"120.61442000"},{"name":"Tarlac City","latitude":"15.48017000","longitude":"120.59794000"},{"name":"Tartaro","latitude":"15.16667000","longitude":"121.01667000"},{"name":"Tayabo","latitude":"15.83450000","longitude":"121.03090000"},{"name":"Telabastagan","latitude":"15.11854000","longitude":"120.60773000"},{"name":"Tikiw","latitude":"15.31193000","longitude":"120.86116000"},{"name":"Tinang","latitude":"15.37626000","longitude":"120.65343000"},{"name":"Tondod","latitude":"15.71820000","longitude":"120.96800000"},{"name":"Uacon","latitude":"15.67870000","longitude":"119.94030000"},{"name":"Umiray","latitude":"15.22060000","longitude":"121.41110000"},{"name":"Upig","latitude":"15.02551000","longitude":"120.99193000"},{"name":"Vargas","latitude":"15.59332000","longitude":"120.48709000"},{"name":"Villa Aglipay","latitude":"15.46605000","longitude":"120.45273000"},{"name":"Villa Isla","latitude":"15.77030000","longitude":"120.86660000"},{"name":"Vizal San Pablo","latitude":"15.06247000","longitude":"120.90021000"},{"name":"Vizal Santo Niño","latitude":"15.02924000","longitude":"120.90505000"}]