[{"name":"Balassagyarmat","latitude":"48.07296000","longitude":"19.29614000"},{"name":"Balassagyarmati Járás","latitude":"48.01657000","longitude":"19.30594000"},{"name":"Bercel","latitude":"47.87057000","longitude":"19.40715000"},{"name":"Buják","latitude":"47.88352000","longitude":"19.54381000"},{"name":"Bátonyterenye","latitude":"47.96962000","longitude":"19.84076000"},{"name":"Bátonyterenyei Járás","latitude":"47.97691000","longitude":"19.87345000"},{"name":"Diósjenő","latitude":"47.93968000","longitude":"19.04317000"},{"name":"Héhalom","latitude":"47.78017000","longitude":"19.58519000"},{"name":"Jobbágyi","latitude":"47.83238000","longitude":"19.67762000"},{"name":"Karancskeszi","latitude":"48.16353000","longitude":"19.69686000"},{"name":"Karancslapujtő","latitude":"48.15000000","longitude":"19.73333000"},{"name":"Kazár","latitude":"48.04952000","longitude":"19.86143000"},{"name":"Mátranovák","latitude":"48.03809000","longitude":"19.98257000"},{"name":"Mátraterenye","latitude":"48.03267000","longitude":"19.94762000"},{"name":"Mátraverebély","latitude":"47.97421000","longitude":"19.78049000"},{"name":"Nagyoroszi","latitude":"48.00503000","longitude":"19.09050000"},{"name":"Palotás","latitude":"47.79528000","longitude":"19.59618000"},{"name":"Pásztó","latitude":"47.92019000","longitude":"19.69829000"},{"name":"Pásztói Járás","latitude":"47.87012000","longitude":"19.60648000"},{"name":"Rimóc","latitude":"48.03695000","longitude":"19.53010000"},{"name":"Romhány","latitude":"47.92618000","longitude":"19.25723000"},{"name":"Rétság","latitude":"47.92816000","longitude":"19.13720000"},{"name":"Rétsági Járás","latitude":"47.91741000","longitude":"19.16101000"},{"name":"Salgótarján","latitude":"48.09872000","longitude":"19.80303000"},{"name":"Salgótarjáni Járás","latitude":"48.10048000","longitude":"19.81548000"},{"name":"Somoskőújfalu","latitude":"48.16374000","longitude":"19.82303000"},{"name":"Szurdokpüspöki","latitude":"47.85923000","longitude":"19.69218000"},{"name":"Szécsény","latitude":"48.08057000","longitude":"19.52019000"},{"name":"Szécsényi Járás","latitude":"48.07301000","longitude":"19.55156000"},{"name":"Tar","latitude":"47.95371000","longitude":"19.74610000"},{"name":"Érsekvadkert","latitude":"47.99619000","longitude":"19.20231000"}]