[{"name":"Reghin","latitude":"46.77238770","longitude":"24.66945610"},{"name":"Abuș","latitude":"46.35000000","longitude":"24.38333333"},{"name":"Acățari","latitude":"46.48333333","longitude":"24.63333333"},{"name":"Adrian","latitude":"46.78209200","longitude":"24.83324200"},{"name":"Adrianu Mare","latitude":"46.49357300","longitude":"24.80324400"},{"name":"Adrianu Mic","latitude":"46.50082100","longitude":"24.79051400"},{"name":"Adămuș","latitude":"46.30000000","longitude":"24.23000000"},{"name":"Agrișteu","latitude":"46.39172800","longitude":"24.68379600"},{"name":"Albești","latitude":"46.23000000","longitude":"24.85000000"},{"name":"Aluniș","latitude":"46.90000000","longitude":"24.82000000"},{"name":"Andreneasa","latitude":"46.96784300","longitude":"25.02423500"},{"name":"Angofa","latitude":"46.18658200","longitude":"24.78418000"},{"name":"Apalina","latitude":"46.75231300","longitude":"24.69275500"},{"name":"Apold","latitude":"46.12777778","longitude":"24.81805556"},{"name":"Archita","latitude":"46.18194444","longitude":"25.08750000"},{"name":"Arșița","latitude":"46.78587400","longitude":"24.99858500"},{"name":"Aurel Vlaicu","latitude":"46.17787000","longitude":"24.82072000"},{"name":"Avrămești","latitude":"46.53620800","longitude":"24.09928400"},{"name":"Ațintiș","latitude":"46.43000000","longitude":"24.10000000"},{"name":"Bahnea","latitude":"46.37000000","longitude":"24.48000000"},{"name":"Balda","latitude":"46.73352800","longitude":"24.14361600"},{"name":"Band","latitude":"46.58333333","longitude":"24.38333333"},{"name":"Batoș","latitude":"46.88611111","longitude":"24.65555556"},{"name":"Bedeni","latitude":"46.46760600","longitude":"24.78337400"},{"name":"Beica de Jos","latitude":"46.73423000","longitude":"24.79671000"},{"name":"Beica de Sus","latitude":"46.73795400","longitude":"24.82270100"},{"name":"Bereni","latitude":"46.55000000","longitude":"24.86666667"},{"name":"Berghia","latitude":"46.53964600","longitude":"24.42961400"},{"name":"Bernadea","latitude":"46.37406800","longitude":"24.45846600"},{"name":"Beu","latitude":"46.57393000","longitude":"24.71942400"},{"name":"Bezid","latitude":"46.40639300","longitude":"24.92238400"},{"name":"Bicașu","latitude":"46.81066200","longitude":"24.95608700"},{"name":"Bichiș","latitude":"46.36666667","longitude":"24.10000000"},{"name":"Bistra Mureșului","latitude":"46.96093200","longitude":"24.90505900"},{"name":"Blidireasa","latitude":"46.76394400","longitude":"25.03065100"},{"name":"Bobohalma","latitude":"46.35142200","longitude":"24.23505000"},{"name":"Bogata","latitude":"46.45640800","longitude":"24.11961700"},{"name":"Boiu","latitude":"46.26570300","longitude":"24.87482300"},{"name":"Bolintineni","latitude":"46.49245700","longitude":"24.71309300"},{"name":"Bologaia","latitude":"46.63685600","longitude":"24.25876800"},{"name":"Bord","latitude":"46.39368900","longitude":"24.22694000"},{"name":"Bordoșiu","latitude":"46.39629600","longitude":"24.78414100"},{"name":"Borzia","latitude":"46.96974200","longitude":"24.93240200"},{"name":"Botei","latitude":"46.63939700","longitude":"24.13197800"},{"name":"Botez","latitude":"46.38674600","longitude":"24.02429900"},{"name":"Botorca","latitude":"46.28231800","longitude":"24.30157300"},{"name":"Bozed","latitude":"46.68735700","longitude":"24.46226000"},{"name":"Bozeni","latitude":"46.53212400","longitude":"24.67124300"},{"name":"Breaza","latitude":"46.77000000","longitude":"24.63000000"},{"name":"Brâncovenești","latitude":"46.87000000","longitude":"24.77000000"},{"name":"Brădețelu","latitude":"46.75538900","longitude":"25.05171000"},{"name":"Budiu Mic","latitude":"46.50920600","longitude":"24.58480700"},{"name":"Bujor","latitude":"46.65534000","longitude":"24.17342200"},{"name":"Bujor-Hodaie","latitude":"46.64494700","longitude":"24.16832800"},{"name":"Bâra","latitude":"46.57221300","longitude":"24.87262000"},{"name":"Bârlibaș","latitude":"46.68896500","longitude":"24.24549400"},{"name":"Bârlibășoaia","latitude":"46.29336500","longitude":"24.83495500"},{"name":"Bârza","latitude":"46.55000000","longitude":"24.13333000"},{"name":"Băgaciu","latitude":"46.27000000","longitude":"24.37000000"},{"name":"Băița","latitude":"46.83635200","longitude":"24.52999700"},{"name":"Băla","latitude":"46.72000000","longitude":"24.50000000"},{"name":"Bălăușeri","latitude":"46.40000000","longitude":"24.68333333"},{"name":"Bărboși","latitude":"46.58087200","longitude":"24.18193500"},{"name":"Bărdești","latitude":"46.59451300","longitude":"24.51309400"},{"name":"Cașva","latitude":"46.78193600","longitude":"24.87788000"},{"name":"Cecălaca","latitude":"46.39449200","longitude":"24.04013200"},{"name":"Ceie","latitude":"46.46406600","longitude":"24.98427000"},{"name":"Cerghid","latitude":"46.41450900","longitude":"24.44602000"},{"name":"Cerghizel","latitude":"46.44451000","longitude":"24.44687800"},{"name":"Ceuaș","latitude":"46.34277778","longitude":"24.44305556"},{"name":"Ceuașu de Câmpie","latitude":"46.64293200","longitude":"24.51387100"},{"name":"Chendu","latitude":"46.39086900","longitude":"24.73045000"},{"name":"Chețani","latitude":"46.47000000","longitude":"24.03000000"},{"name":"Chibed","latitude":"46.52944444","longitude":"24.96333333"},{"name":"Chiheru de Jos","latitude":"46.68700200","longitude":"24.88163600"},{"name":"Chiheru de Sus","latitude":"46.68134800","longitude":"24.90359800"},{"name":"Chinari","latitude":"46.60525700","longitude":"24.58969100"},{"name":"Chinciuș","latitude":"46.35235400","longitude":"24.18323300"},{"name":"Chirileu","latitude":"46.47664400","longitude":"24.38296500"},{"name":"Chisălița","latitude":"46.56809100","longitude":"24.31475700"},{"name":"Ciba","latitude":"46.47922600","longitude":"24.56806300"},{"name":"Cibu","latitude":"46.37903800","longitude":"24.80370800"},{"name":"Cinta","latitude":"46.46022000","longitude":"24.55103800"},{"name":"Cioarga","latitude":"46.49385600","longitude":"24.07296500"},{"name":"Ciobotani","latitude":"46.95037600","longitude":"25.26872900"},{"name":"Cipaieni","latitude":"46.53242900","longitude":"24.16726100"},{"name":"Cipău","latitude":"46.44875700","longitude":"24.27785900"},{"name":"Ciretea","latitude":"46.60623600","longitude":"24.17041800"},{"name":"Cirhagău","latitude":"46.66041500","longitude":"24.10686800"},{"name":"Ciulea","latitude":"46.66667800","longitude":"24.26355200"},{"name":"Ciurgău","latitude":"46.50132300","longitude":"24.10504400"},{"name":"Cloașterf","latitude":"46.14655300","longitude":"24.99720400"},{"name":"Coasta Grindului","latitude":"46.49549800","longitude":"23.98263600"},{"name":"Coasta Mare","latitude":"46.69290700","longitude":"24.36331000"},{"name":"Comori","latitude":"46.73580300","longitude":"24.89690600"},{"name":"Comuna Coroisânmartin","latitude":"46.40376000","longitude":"24.59766000"},{"name":"Comuna Ibănești Pădure","latitude":"46.76302000","longitude":"25.03118000"},{"name":"Comuna Rușii Munți","latitude":"46.91988000","longitude":"24.83521000"},{"name":"Corbești","latitude":"46.42943000","longitude":"24.59075500"},{"name":"Cordoș","latitude":"46.51284700","longitude":"24.02304400"},{"name":"Cornești","latitude":"46.29222222","longitude":"24.21277778"},{"name":"Coroi","latitude":"46.40909900","longitude":"24.63389100"},{"name":"Corunca","latitude":"46.51666667","longitude":"24.61666667"},{"name":"Cotorinau","latitude":"46.72378800","longitude":"24.37166200"},{"name":"Cotuș","latitude":"46.57562100","longitude":"24.67169900"},{"name":"Cozma","latitude":"46.80707200","longitude":"24.52253200"},{"name":"Cristești","latitude":"46.50000000","longitude":"24.48333333"},{"name":"Criș","latitude":"46.14388889","longitude":"24.69388889"},{"name":"Crăciunești","latitude":"46.47930000","longitude":"24.58234000"},{"name":"Crăiești","latitude":"46.29628000","longitude":"24.19674800"},{"name":"Cucerdea","latitude":"46.40222222","longitude":"24.26583333"},{"name":"Cuci","latitude":"46.47000000","longitude":"24.15000000"},{"name":"Cuieșd","latitude":"46.60168200","longitude":"24.47811600"},{"name":"Culpiu","latitude":"46.63960800","longitude":"24.43258000"},{"name":"Cund","latitude":"46.27278100","longitude":"24.51228800"},{"name":"Curețe","latitude":"46.74116800","longitude":"24.43177000"},{"name":"Curteni","latitude":"46.59436100","longitude":"24.57501100"},{"name":"Cuștelnic","latitude":"46.33896200","longitude":"24.31176800"},{"name":"Câmpenița","latitude":"46.65121100","longitude":"24.48733800"},{"name":"Câmpu Cetății","latitude":"46.67042700","longitude":"25.01397300"},{"name":"Cându","latitude":"46.59917700","longitude":"24.88790900"},{"name":"Căciulata","latitude":"46.71513500","longitude":"24.40602300"},{"name":"Căcuciu","latitude":"46.72559400","longitude":"24.84986700"},{"name":"Călimănești","latitude":"46.41332500","longitude":"24.73270900"},{"name":"Călugăreni","latitude":"46.62981900","longitude":"24.87772300"},{"name":"Călușeri","latitude":"46.60637300","longitude":"24.73717300"},{"name":"Căpeți","latitude":"46.63147000","longitude":"25.07876000"},{"name":"Căpușu de Câmpie","latitude":"46.54226300","longitude":"24.31414200"},{"name":"Căpâlna de Sus","latitude":"46.37846300","longitude":"24.43502000"},{"name":"Daia","latitude":"46.14444444","longitude":"24.89861111"},{"name":"Dalu","latitude":"46.54544100","longitude":"24.08882800"},{"name":"Daneș","latitude":"46.22111111","longitude":"24.70472222"},{"name":"Deag","latitude":"46.38918500","longitude":"24.19220400"},{"name":"Deaj","latitude":"46.34710800","longitude":"24.40206500"},{"name":"Deda","latitude":"46.93333333","longitude":"24.90000000"},{"name":"Dedrad","latitude":"46.81666667","longitude":"24.66666667"},{"name":"Deleni","latitude":"46.26340300","longitude":"24.34119000"},{"name":"Dileu Nou","latitude":"46.46326500","longitude":"24.33267600"},{"name":"Dileu Vechi","latitude":"46.47109000","longitude":"24.30987500"},{"name":"Dobra","latitude":"46.58142400","longitude":"24.23734900"},{"name":"Drojdii","latitude":"46.54596600","longitude":"24.85711100"},{"name":"Drăculea Bandului","latitude":"46.62041700","longitude":"24.33844200"},{"name":"Dubiștea de Pădure","latitude":"46.77679100","longitude":"24.96515100"},{"name":"Dulcea","latitude":"46.75769000","longitude":"25.03246700"},{"name":"Dumbrava","latitude":"46.94206800","longitude":"24.80491400"},{"name":"Dumbrăvioara","latitude":"46.64096000","longitude":"24.63796700"},{"name":"Dumitreni","latitude":"46.40092600","longitude":"24.75854800"},{"name":"Dumitreștii","latitude":"46.52174500","longitude":"24.78759200"},{"name":"După Deal","latitude":"46.51740800","longitude":"24.24629600"},{"name":"Dâmbu","latitude":"46.74256000","longitude":"24.26858500"},{"name":"Dâmbău","latitude":"46.31997900","longitude":"24.23443000"},{"name":"Dămieni","latitude":"46.62612200","longitude":"24.86071400"},{"name":"Dătășeni","latitude":"46.47474800","longitude":"24.17485200"},{"name":"Ercea","latitude":"46.73081400","longitude":"24.51057400"},{"name":"Eremieni","latitude":"46.53641900","longitude":"24.87158200"},{"name":"Eremitu","latitude":"46.66666667","longitude":"24.93333333"},{"name":"Ernei","latitude":"46.60000000","longitude":"24.65000000"},{"name":"Feleag","latitude":"46.24110000","longitude":"25.01418800"},{"name":"Filea","latitude":"46.94179700","longitude":"24.88375500"},{"name":"Filitelnic","latitude":"46.36694444","longitude":"24.66611111"},{"name":"Filpișu Mare","latitude":"46.75332700","longitude":"24.58749800"},{"name":"Filpișu Mic","latitude":"46.78219700","longitude":"24.60124800"},{"name":"Fițcău","latitude":"46.89908200","longitude":"24.87000200"},{"name":"Foi","latitude":"46.47996100","longitude":"24.59973400"},{"name":"Frunzeni","latitude":"46.81445800","longitude":"24.56796900"},{"name":"Fundoaia","latitude":"46.82762500","longitude":"24.90466000"},{"name":"Fundătura","latitude":"46.54329000","longitude":"24.04357400"},{"name":"Fânațe","latitude":"46.53239000","longitude":"24.21537200"},{"name":"Fânațele Mădărașului","latitude":"46.62596200","longitude":"24.36273200"},{"name":"Fânațele Socolului","latitude":"46.79298700","longitude":"24.48803200"},{"name":"Fântâna Babii","latitude":"46.67742200","longitude":"24.33776400"},{"name":"Fântânele","latitude":"46.41666667","longitude":"24.75000000"},{"name":"Fărăgău","latitude":"46.77000000","longitude":"24.52000000"},{"name":"Gaura Sângerului","latitude":"46.60031700","longitude":"24.12539700"},{"name":"Gheja","latitude":"46.44494800","longitude":"24.06135900"},{"name":"Gheorghe Doja","latitude":"46.46666667","longitude":"24.50000000"},{"name":"Ghidașteu","latitude":"46.55460300","longitude":"24.26810100"},{"name":"Ghindari","latitude":"46.50000000","longitude":"24.91666667"},{"name":"Ghinești","latitude":"46.49611100","longitude":"24.86619200"},{"name":"Giuluș","latitude":"46.40126200","longitude":"24.31114300"},{"name":"Giurgiș","latitude":"46.51705900","longitude":"23.96957900"},{"name":"Glodeni","latitude":"46.65000000","longitude":"24.60000000"},{"name":"Glăjărie","latitude":"46.83271000","longitude":"24.93285000"},{"name":"Gogan","latitude":"46.30491700","longitude":"24.51711900"},{"name":"Goreni","latitude":"46.85458100","longitude":"24.65413800"},{"name":"Gornești","latitude":"46.66666667","longitude":"24.65000000"},{"name":"Grebenișu de Câmpie","latitude":"46.60000000","longitude":"24.30000000"},{"name":"Grindeni","latitude":"46.50005900","longitude":"23.99692300"},{"name":"Groapa Rădăii","latitude":"46.65809200","longitude":"24.23434300"},{"name":"Gruișor","latitude":"46.45273900","longitude":"24.61717000"},{"name":"Grâușorul","latitude":"46.59913400","longitude":"24.83048600"},{"name":"Grădini","latitude":"46.61474400","longitude":"24.09034300"},{"name":"Gurghiu","latitude":"46.76666667","longitude":"24.85000000"},{"name":"Gâmbuț","latitude":"46.35242400","longitude":"24.06523300"},{"name":"Găiești","latitude":"46.42549700","longitude":"24.67088000"},{"name":"Gălești","latitude":"46.51666667","longitude":"24.75000000"},{"name":"Gălăoaia","latitude":"46.97086700","longitude":"24.91824900"},{"name":"Gălățeni","latitude":"46.47319700","longitude":"24.70785400"},{"name":"Gănești","latitude":"46.33000000","longitude":"24.35000000"},{"name":"Habic","latitude":"46.70796000","longitude":"24.79060100"},{"name":"Hagău","latitude":"46.71628100","longitude":"24.37286100"},{"name":"Herepea","latitude":"46.33074300","longitude":"24.15515700"},{"name":"Herghelia","latitude":"46.63106000","longitude":"24.47818800"},{"name":"Hetiur","latitude":"46.26813000","longitude":"24.76680100"},{"name":"Hodac","latitude":"46.77447700","longitude":"24.92232400"},{"name":"Hodaia","latitude":"46.77367600","longitude":"24.47928200"},{"name":"Hodoșa","latitude":"46.63333333","longitude":"24.81666667"},{"name":"Hădăreni","latitude":"46.46698400","longitude":"23.98373800"},{"name":"Hărănglab","latitude":"46.30475800","longitude":"24.41535300"},{"name":"Hărțău","latitude":"46.57732800","longitude":"24.47862300"},{"name":"Iara de Mureș","latitude":"46.66148400","longitude":"24.73055600"},{"name":"Ibănești-Pădure","latitude":"46.75919300","longitude":"24.98359200"},{"name":"Icland","latitude":"46.61196900","longitude":"24.69337700"},{"name":"Iclandu Mare","latitude":"46.52810400","longitude":"24.26536500"},{"name":"Iclănzel","latitude":"46.53000000","longitude":"24.28000000"},{"name":"Ideciu de Jos","latitude":"46.80000000","longitude":"24.75000000"},{"name":"Idicel-Pădure","latitude":"46.85463900","longitude":"24.85723300"},{"name":"Idiciu","latitude":"46.27625000","longitude":"24.46105000"},{"name":"Idrifaia","latitude":"46.38758400","longitude":"24.46444400"},{"name":"Iernut","latitude":"46.45333333","longitude":"24.23333333"},{"name":"Iernuțeni","latitude":"46.76386600","longitude":"24.71919100"},{"name":"Ihod","latitude":"46.63494800","longitude":"24.79898600"},{"name":"Ilieni","latitude":"46.46370800","longitude":"24.53021400"},{"name":"Ilieși","latitude":"46.58255100","longitude":"25.12801700"},{"name":"Ilioara","latitude":"46.64585000","longitude":"24.74758800"},{"name":"Iod","latitude":"46.97336800","longitude":"24.97719600"},{"name":"Isla","latitude":"46.62475600","longitude":"24.78563700"},{"name":"Ivănești","latitude":"46.54204500","longitude":"24.67634700"},{"name":"Iștan-Tău","latitude":"46.65015200","longitude":"24.30310400"},{"name":"Iștihaza","latitude":"46.39267900","longitude":"24.10524100"},{"name":"Jabenița","latitude":"46.78259000","longitude":"24.79395400"},{"name":"Jacodu","latitude":"46.32780000","longitude":"24.83030000"},{"name":"Jacu","latitude":"46.32157900","longitude":"24.81406500"},{"name":"Larga","latitude":"46.71971100","longitude":"24.18108000"},{"name":"Laslău Mare","latitude":"46.38420800","longitude":"24.54075600"},{"name":"Laslău Mic","latitude":"46.36777778","longitude":"24.55500000"},{"name":"Lechincioara","latitude":"46.66570200","longitude":"24.42008900"},{"name":"Lechința","latitude":"46.47375600","longitude":"24.22653500"},{"name":"Lefaia","latitude":"46.74793000","longitude":"24.47041800"},{"name":"Leniș","latitude":"46.72792900","longitude":"24.42005400"},{"name":"Leordeni","latitude":"46.47107700","longitude":"24.48631800"},{"name":"Leorința","latitude":"46.60825000","longitude":"24.22974100"},{"name":"Leorința-Șăulia","latitude":"46.61897300","longitude":"24.21220900"},{"name":"Lepindea","latitude":"46.32888500","longitude":"24.47545900"},{"name":"Linț","latitude":"46.53319700","longitude":"24.00205700"},{"name":"Livezeni","latitude":"46.55000000","longitude":"24.63333333"},{"name":"Logig","latitude":"46.87945600","longitude":"24.57377600"},{"name":"Loțu","latitude":"46.40028800","longitude":"24.89633600"},{"name":"Luduș","latitude":"46.47777778","longitude":"24.09611111"},{"name":"Luieriu","latitude":"46.84547800","longitude":"24.72105100"},{"name":"Lunca","latitude":"46.84925500","longitude":"24.57591800"},{"name":"Lunca Bradului","latitude":"46.95000000","longitude":"25.10000000"},{"name":"Lunca Mureșului","latitude":"46.87459900","longitude":"24.79073300"},{"name":"Lăpușna","latitude":"46.76794900","longitude":"25.21501800"},{"name":"Lăscud","latitude":"46.39182100","longitude":"24.35564600"},{"name":"Lăureni","latitude":"46.54272000","longitude":"24.73292800"},{"name":"Maia","latitude":"46.58118100","longitude":"24.84818400"},{"name":"Maiad","latitude":"46.51967000","longitude":"24.71485000"},{"name":"Maiorești","latitude":"46.90787200","longitude":"24.81060000"},{"name":"Maldaoci","latitude":"46.41133400","longitude":"24.03977300"},{"name":"Malea","latitude":"46.58268900","longitude":"24.19079500"},{"name":"Merișor","latitude":"46.69921400","longitude":"24.54977700"},{"name":"Merișoru","latitude":"46.57026200","longitude":"24.21403300"},{"name":"Meștera","latitude":"46.96845800","longitude":"25.19289400"},{"name":"Mica","latitude":"46.36804600","longitude":"24.41240500"},{"name":"Miercurea Nirajului","latitude":"46.53000000","longitude":"24.80000000"},{"name":"Mihai Viteazu","latitude":"46.15526900","longitude":"25.02788100"},{"name":"Miheșu de Câmpie","latitude":"46.68000000","longitude":"24.15000000"},{"name":"Milășel","latitude":"46.74269900","longitude":"24.45249900"},{"name":"Mirigioaia","latitude":"46.80204700","longitude":"24.92823500"},{"name":"Mitrești","latitude":"46.58449300","longitude":"24.80146800"},{"name":"Moara de Jos","latitude":"46.56450400","longitude":"24.09194200"},{"name":"Mogoaia","latitude":"46.67027100","longitude":"24.23240700"},{"name":"Moișa","latitude":"46.68456000","longitude":"24.52819500"},{"name":"Morești","latitude":"46.48937800","longitude":"24.43994000"},{"name":"Moruț","latitude":"46.74355500","longitude":"24.19908400"},{"name":"Morăreni","latitude":"46.92435800","longitude":"24.83138600"},{"name":"Moșuni","latitude":"46.56914500","longitude":"24.74331100"},{"name":"Mura Mare","latitude":"46.65696600","longitude":"24.78016600"},{"name":"Mura Mică","latitude":"46.64909100","longitude":"24.76523800"},{"name":"Mureni","latitude":"46.23041000","longitude":"24.98921200"},{"name":"Mureșeni","latitude":"46.52327600","longitude":"24.52160800"},{"name":"Murgești","latitude":"46.48087900","longitude":"24.65516400"},{"name":"Măcicășești","latitude":"46.63959400","longitude":"24.23585700"},{"name":"Mădăraș","latitude":"46.60000000","longitude":"24.43333333"},{"name":"Mădărășeni","latitude":"46.50305556","longitude":"24.25666667"},{"name":"Măgherani","latitude":"46.56666667","longitude":"24.90000000"},{"name":"Măgheruș","latitude":"46.32166667","longitude":"24.68722222"},{"name":"Mălăești","latitude":"46.62793400","longitude":"24.09674800"},{"name":"Mărculeni","latitude":"46.59712800","longitude":"24.86524000"},{"name":"Mărășești","latitude":"46.59302200","longitude":"24.35327500"},{"name":"Mătrici","latitude":"46.65278900","longitude":"24.90256400"},{"name":"Nadeș","latitude":"46.32138889","longitude":"24.71916667"},{"name":"Nadășa","latitude":"46.70274700","longitude":"24.81713700"},{"name":"Nandra","latitude":"46.38300400","longitude":"24.07663700"},{"name":"Nazna","latitude":"46.53552000","longitude":"24.50210000"},{"name":"Neagra","latitude":"46.97229600","longitude":"25.14685300"},{"name":"Neaua","latitude":"46.48333333","longitude":"24.83333333"},{"name":"Negrenii de Câmpie","latitude":"46.64561200","longitude":"24.28743200"},{"name":"Nicolești","latitude":"46.47705500","longitude":"24.55574600"},{"name":"Nima Milășelului","latitude":"46.72838700","longitude":"24.44362800"},{"name":"Nima Râciului","latitude":"46.70365200","longitude":"24.44356700"},{"name":"Oarba de Mureș","latitude":"46.46325400","longitude":"24.29078300"},{"name":"Obârșie","latitude":"46.74781600","longitude":"24.39270800"},{"name":"Odrihei","latitude":"46.40458500","longitude":"24.56771400"},{"name":"Ogra","latitude":"46.43000000","longitude":"24.32000000"},{"name":"Onuca","latitude":"46.72629700","longitude":"24.58120400"},{"name":"Ormeniș","latitude":"46.32852600","longitude":"24.54506000"},{"name":"Oroiu","latitude":"46.54309200","longitude":"24.35470000"},{"name":"Orosia","latitude":"46.45651100","longitude":"24.14050800"},{"name":"Orșova","latitude":"46.75153400","longitude":"24.90642800"},{"name":"Ozd","latitude":"46.35726900","longitude":"24.12032200"},{"name":"Papiu Ilarian","latitude":"46.55932100","longitude":"24.20059000"},{"name":"Periș","latitude":"46.69422300","longitude":"24.66336800"},{"name":"Petea","latitude":"46.51038700","longitude":"24.34575400"},{"name":"Petelea","latitude":"46.73000000","longitude":"24.72000000"},{"name":"Petrilaca","latitude":"46.41111200","longitude":"24.14594500"},{"name":"Petrilaca de Mureș","latitude":"46.68921400","longitude":"24.75298500"},{"name":"Pietriș","latitude":"46.93593700","longitude":"24.84407800"},{"name":"Pipea","latitude":"46.32523500","longitude":"24.77454600"},{"name":"Poarta","latitude":"46.73516700","longitude":"24.56146700"},{"name":"Poduri","latitude":"46.63458400","longitude":"24.06107200"},{"name":"Pogăceaua","latitude":"46.68000000","longitude":"24.30000000"},{"name":"Poienița","latitude":"46.55562300","longitude":"24.67008400"},{"name":"Porumbac","latitude":"46.48110300","longitude":"24.26471900"},{"name":"Porumbeni","latitude":"46.63684000","longitude":"24.54680400"},{"name":"Pripoare","latitude":"46.52467900","longitude":"24.19844400"},{"name":"Pusta","latitude":"46.67812300","longitude":"24.35814900"},{"name":"Pârâu Crucii","latitude":"46.70860800","longitude":"24.35673000"},{"name":"Pârâu Mare","latitude":"46.76387600","longitude":"25.00424200"},{"name":"Păcureni","latitude":"46.66185500","longitude":"24.55651500"},{"name":"Pădurea","latitude":"46.63298200","longitude":"24.17731400"},{"name":"Pădureni","latitude":"46.64053200","longitude":"24.71624700"},{"name":"Păingeni","latitude":"46.68003300","longitude":"24.56196300"},{"name":"Pănet","latitude":"46.55000000","longitude":"24.46666667"},{"name":"Păsăreni","latitude":"46.48333333","longitude":"24.70000000"},{"name":"Păucișoara","latitude":"46.35088900","longitude":"24.35118800"},{"name":"Păuloaia","latitude":"46.80427800","longitude":"24.88358100"},{"name":"Racameț","latitude":"46.51306800","longitude":"24.24043900"},{"name":"Ranta","latitude":"46.48492400","longitude":"24.13149500"},{"name":"Recea","latitude":"46.46500600","longitude":"24.41671800"},{"name":"Remetea","latitude":"46.57294300","longitude":"24.52136900"},{"name":"Rigmani","latitude":"46.50898800","longitude":"24.83835000"},{"name":"Rora","latitude":"46.22606400","longitude":"24.74332800"},{"name":"Roteni","latitude":"46.45874900","longitude":"24.68182600"},{"name":"Roua","latitude":"46.38236300","longitude":"24.82890600"},{"name":"Roșiori","latitude":"46.51433400","longitude":"24.09475600"},{"name":"Rușii-Munți","latitude":"46.91667000","longitude":"24.85000000"},{"name":"Râciu","latitude":"46.68000000","longitude":"24.40000000"},{"name":"Râpa de Jos","latitude":"46.94084800","longitude":"24.76608000"},{"name":"Răstolița","latitude":"46.98000000","longitude":"25.03000000"},{"name":"Răzoare","latitude":"46.69243000","longitude":"24.19386000"},{"name":"Saschiz","latitude":"46.18333333","longitude":"24.96666667"},{"name":"Satu Nou","latitude":"46.45681300","longitude":"24.51225400"},{"name":"Scurta","latitude":"46.66065800","longitude":"24.24954500"},{"name":"Sebeș","latitude":"46.93202200","longitude":"24.86438100"},{"name":"Seleuș","latitude":"46.36280300","longitude":"24.58870800"},{"name":"Senereuș","latitude":"46.33231500","longitude":"24.64704100"},{"name":"Seuca","latitude":"46.33060600","longitude":"24.32907100"},{"name":"Sfântu Gheorghe","latitude":"46.45355000","longitude":"24.26593500"},{"name":"Sicele","latitude":"46.69435400","longitude":"24.29203800"},{"name":"Sighișoara","latitude":"46.21694444","longitude":"24.79111111"},{"name":"Socolu de Câmpie","latitude":"46.79141500","longitude":"24.51575300"},{"name":"Solocma","latitude":"46.47591700","longitude":"24.99525900"},{"name":"Solovăstru","latitude":"46.77000000","longitude":"24.77000000"},{"name":"Sovata","latitude":"46.59611111","longitude":"25.07444444"},{"name":"Stejeriș","latitude":"46.47889700","longitude":"24.61642100"},{"name":"Stejărenii","latitude":"46.15367200","longitude":"24.72434500"},{"name":"Stânceni","latitude":"46.98000000","longitude":"25.23000000"},{"name":"Sub Pădure","latitude":"46.37013700","longitude":"24.32634000"},{"name":"Suplac","latitude":"46.38333333","longitude":"24.51666667"},{"name":"Suseni","latitude":"46.81437100","longitude":"24.73169500"},{"name":"Suveica","latitude":"46.43351900","longitude":"24.71653800"},{"name":"Sâmbriaș","latitude":"46.66180800","longitude":"24.82884000"},{"name":"Sâncraiu de Mureș","latitude":"46.55000000","longitude":"24.52000000"},{"name":"Sângeorgiu de Câmpie","latitude":"46.72695300","longitude":"24.29665200"},{"name":"Sângeorgiu de Mureș","latitude":"46.57643400","longitude":"24.60420700"},{"name":"Sângeorgiu de Pădure","latitude":"46.43027778","longitude":"24.84166667"},{"name":"Sânger","latitude":"46.55000000","longitude":"24.13000000"},{"name":"Sângeru de Pădure","latitude":"46.64071800","longitude":"24.66506300"},{"name":"Sâniacob","latitude":"46.42354300","longitude":"24.13191600"},{"name":"Sânișor","latitude":"46.55017300","longitude":"24.70070400"},{"name":"Sânmihai de Pădure","latitude":"46.72888900","longitude":"24.87474000"},{"name":"Sânmărghita","latitude":"46.48157100","longitude":"24.37233200"},{"name":"Sânmărtinu de Câmpie","latitude":"46.72812200","longitude":"24.40843300"},{"name":"Sânpaul","latitude":"46.45000000","longitude":"24.35000000"},{"name":"Sânpetru de Câmpie","latitude":"46.72000000","longitude":"24.27000000"},{"name":"Sânsimion","latitude":"46.49549400","longitude":"24.83458500"},{"name":"Sântana de Mureș","latitude":"46.57611111","longitude":"24.55416667"},{"name":"Sântioana","latitude":"46.28367500","longitude":"24.55132300"},{"name":"Sântioana de Mureș","latitude":"46.51465700","longitude":"24.45714100"},{"name":"Sântu","latitude":"46.80168000","longitude":"24.60074400"},{"name":"Sânvăsii","latitude":"46.49573400","longitude":"24.74002600"},{"name":"Săbed","latitude":"46.66449900","longitude":"24.44631900"},{"name":"Săcalu de Pădure","latitude":"46.88368600","longitude":"24.71133700"},{"name":"Săcădat","latitude":"46.62453400","longitude":"25.06206000"},{"name":"Săcăreni","latitude":"46.59987700","longitude":"24.69729600"},{"name":"Sălard","latitude":"46.95145600","longitude":"25.07545400"},{"name":"Sălașuri","latitude":"46.37551400","longitude":"24.77606700"},{"name":"Sălcud","latitude":"46.40755500","longitude":"24.17140700"},{"name":"Sărmașu","latitude":"46.75361111","longitude":"24.16666667"},{"name":"Sărmășel","latitude":"46.76062500","longitude":"24.17885400"},{"name":"Sărățeni","latitude":"46.56233333","longitude":"25.00891667"},{"name":"Teleac","latitude":"46.67222222","longitude":"24.79166667"},{"name":"Tireu","latitude":"46.76660800","longitude":"24.99456200"},{"name":"Tirimia","latitude":"46.44927300","longitude":"24.49162200"},{"name":"Tirimioara","latitude":"46.45462800","longitude":"24.54789400"},{"name":"Tisieu","latitude":"46.76559400","longitude":"25.01258300"},{"name":"Titiana","latitude":"46.73168900","longitude":"24.18650000"},{"name":"Toaca","latitude":"46.79860900","longitude":"24.96550400"},{"name":"Tofalău","latitude":"46.58706100","longitude":"24.65770500"},{"name":"Toldal","latitude":"46.70509200","longitude":"24.58155000"},{"name":"Tonciu","latitude":"46.78025200","longitude":"24.55201300"},{"name":"Torba","latitude":"46.54745800","longitude":"24.88758400"},{"name":"Trei Sate","latitude":"46.47630600","longitude":"24.89778900"},{"name":"Troița","latitude":"46.48442300","longitude":"24.76977400"},{"name":"Tușinu","latitude":"46.73331200","longitude":"24.22759300"},{"name":"Tâmpa","latitude":"46.53019200","longitude":"24.76634600"},{"name":"Târgu Mureș","latitude":"46.54972222","longitude":"24.55972222"},{"name":"Târnăveni","latitude":"46.32628000","longitude":"24.28540000"},{"name":"Tăblășeni","latitude":"46.51762600","longitude":"24.30666900"},{"name":"Tău","latitude":"46.59441600","longitude":"24.15418800"},{"name":"Tăureni","latitude":"46.58333333","longitude":"24.10000000"},{"name":"Uila","latitude":"46.93055556","longitude":"24.61805556"},{"name":"Ulieș","latitude":"46.73348000","longitude":"24.33354800"},{"name":"Ungheni","latitude":"46.48583333","longitude":"24.46083333"},{"name":"Uricea","latitude":"46.78384900","longitude":"24.98407300"},{"name":"Urisiu de Jos","latitude":"46.71085300","longitude":"24.89609000"},{"name":"Urisiu de Sus","latitude":"46.70622300","longitude":"24.91108700"},{"name":"Ursoaia","latitude":"46.54948600","longitude":"24.22471300"},{"name":"Vadu","latitude":"46.60812200","longitude":"24.78187700"},{"name":"Vaidacuta","latitude":"46.41906200","longitude":"24.52626400"},{"name":"Vaideiu","latitude":"46.49534200","longitude":"24.32084000"},{"name":"Valea","latitude":"46.56328700","longitude":"24.79691400"},{"name":"Valea Albeștiului","latitude":"46.21461700","longitude":"24.84833800"},{"name":"Valea Dăii","latitude":"46.22569300","longitude":"24.89612400"},{"name":"Valea Frăției","latitude":"46.64504900","longitude":"24.06656500"},{"name":"Valea Glodului","latitude":"46.64699400","longitude":"24.08480800"},{"name":"Valea Iclandului","latitude":"46.53439200","longitude":"24.25391100"},{"name":"Valea Izvoarelor","latitude":"46.43855300","longitude":"24.37597400"},{"name":"Valea Largă","latitude":"46.62000000","longitude":"24.07000000"},{"name":"Valea Mare","latitude":"46.63761900","longitude":"24.30019400"},{"name":"Valea Pădurii","latitude":"46.61968600","longitude":"24.05370200"},{"name":"Valea Rece","latitude":"46.57106800","longitude":"24.33606500"},{"name":"Valea Sasului","latitude":"46.82271600","longitude":"24.48454000"},{"name":"Valea Seacă","latitude":"46.74536500","longitude":"24.40752500"},{"name":"Valea Sânmărtinului","latitude":"46.74316600","longitude":"24.33757900"},{"name":"Valea Sânpetrului","latitude":"46.62258200","longitude":"24.28666100"},{"name":"Valea Ulieșului","latitude":"46.73656700","longitude":"24.36880600"},{"name":"Valea Ungurului","latitude":"46.80499200","longitude":"24.48055400"},{"name":"Valea Urieșului","latitude":"46.63004600","longitude":"24.08490200"},{"name":"Valea Șapartocului","latitude":"46.20599700","longitude":"24.84857400"},{"name":"Valea Șurii","latitude":"46.63676400","longitude":"24.05260900"},{"name":"Venchi","latitude":"46.24552300","longitude":"24.74306200"},{"name":"Veța","latitude":"46.56007300","longitude":"24.72308300"},{"name":"Vețca","latitude":"46.35000000","longitude":"24.78333333"},{"name":"Vidrasău","latitude":"46.47483400","longitude":"24.41266200"},{"name":"Viforoasa","latitude":"46.43189400","longitude":"24.80981600"},{"name":"Viilor","latitude":"46.23755800","longitude":"24.80933300"},{"name":"Viișoara","latitude":"46.28000000","longitude":"24.60000000"},{"name":"Vișinelu","latitude":"46.73790000","longitude":"24.10240000"},{"name":"Voiniceni","latitude":"46.61371800","longitude":"24.52496800"},{"name":"Voivodeni","latitude":"46.70000000","longitude":"24.63333333"},{"name":"Vulcan","latitude":"46.14891700","longitude":"24.85367000"},{"name":"Vânători","latitude":"46.24113400","longitude":"24.92259400"},{"name":"Vădaș","latitude":"46.45589800","longitude":"24.81939400"},{"name":"Văleni","latitude":"46.66275900","longitude":"24.27123700"},{"name":"Vălenii","latitude":"46.44691400","longitude":"24.64708600"},{"name":"Vălenii de Mureș","latitude":"46.89274400","longitude":"24.79792600"},{"name":"Vălișoara","latitude":"46.53172600","longitude":"24.19993200"},{"name":"Vălureni","latitude":"46.50021400","longitude":"24.54600700"},{"name":"Vărgata","latitude":"46.56666667","longitude":"24.80000000"},{"name":"Vătava","latitude":"46.96109300","longitude":"24.76506800"},{"name":"Zagăr","latitude":"46.35083333","longitude":"24.61638889"},{"name":"Zau de Câmpie","latitude":"46.60000000","longitude":"24.13000000"},{"name":"Zimți","latitude":"46.75979000","longitude":"25.04912200"},{"name":"Zăpodea","latitude":"46.54057000","longitude":"24.11751200"},{"name":"Șaeș","latitude":"46.15277778","longitude":"24.76944444"},{"name":"Șandru","latitude":"46.53733300","longitude":"24.21063300"},{"name":"Șapartoc","latitude":"46.23333333","longitude":"24.85000000"},{"name":"Șardu Nirajului","latitude":"46.54426000","longitude":"24.75285600"},{"name":"Șerbeni","latitude":"46.71475400","longitude":"24.86647900"},{"name":"Șeulia de Mureș","latitude":"46.41588800","longitude":"24.24719600"},{"name":"Șilea Nirajului","latitude":"46.59887300","longitude":"24.92319300"},{"name":"Șincai","latitude":"46.66341000","longitude":"24.37640000"},{"name":"Șincai-Fânațe","latitude":"46.65494100","longitude":"24.33687400"},{"name":"Șoard","latitude":"46.26301500","longitude":"24.92628200"},{"name":"Șoimuș","latitude":"46.39387700","longitude":"24.58703200"},{"name":"Șomoștelnic","latitude":"46.39175000","longitude":"24.38529700"},{"name":"Șoromiclea","latitude":"46.26024500","longitude":"24.77110000"},{"name":"Ștefanca","latitude":"46.68570600","longitude":"24.23161500"},{"name":"Ștefăneaca","latitude":"46.61190300","longitude":"24.11069200"},{"name":"Șăulia","latitude":"46.63000000","longitude":"24.22000000"},{"name":"Șăulița","latitude":"46.66267700","longitude":"24.21505400"},{"name":"Șăușa","latitude":"46.50376200","longitude":"24.39614600"},{"name":"Țigmandru","latitude":"46.35000000","longitude":"24.71666667"},{"name":"Țiptelnic","latitude":"46.58462100","longitude":"24.41422800"},{"name":"Țopa","latitude":"46.25444700","longitude":"24.88161900"}]