[{"name":"Dehdasht","latitude":"30.79490000","longitude":"50.56457000"},{"name":"Dogonbadan","latitude":"30.35860000","longitude":"50.79810000"},{"name":"Landeh","latitude":"30.97994000","longitude":"50.42469000"},{"name":"Shahrestān-e Bahma’ī","latitude":"31.05000000","longitude":"50.08333000"},{"name":"Shahrestān-e Bowyer Aḩmad","latitude":"30.78333000","longitude":"51.11667000"},{"name":"Shahrestān-e Bāsht","latitude":"30.45000000","longitude":"51.11667000"},{"name":"Shahrestān-e Charām","latitude":"30.76667000","longitude":"50.85000000"},{"name":"Shahrestān-e Danā","latitude":"30.95000000","longitude":"51.28333000"},{"name":"Shahrestān-e Gachsārān","latitude":"30.33333000","longitude":"50.75000000"},{"name":"Shahrestān-e Kohgīlūyeh","latitude":"31.03333000","longitude":"50.45000000"},{"name":"Yasuj","latitude":"30.66824000","longitude":"51.58796000"}]