[{"name":"Ejido","latitude":"8.54665000","longitude":"-71.24087000"},{"name":"El Vigía","latitude":"8.61350000","longitude":"-71.65702000"},{"name":"Mucumpiz","latitude":"8.41667000","longitude":"-71.13333000"},{"name":"Municipio Libertador","latitude":"8.33333000","longitude":"-71.11667000"},{"name":"Mérida","latitude":"8.58972000","longitude":"-71.15611000"}]