[{"name":"Beppu","latitude":"33.27945000","longitude":"131.49751000"},{"name":"Beppu Shi","latitude":"33.28573000","longitude":"131.45280000"},{"name":"Bungo-Takada-shi","latitude":"33.55670000","longitude":"131.44506000"},{"name":"Bungo-ōno Shi","latitude":"32.97249000","longitude":"131.51210000"},{"name":"Hiji","latitude":"33.37081000","longitude":"131.53025000"},{"name":"Hita","latitude":"33.32130000","longitude":"130.94098000"},{"name":"Hita Shi","latitude":"33.24452000","longitude":"130.95063000"},{"name":"Kitsuki","latitude":"33.41998000","longitude":"131.61837000"},{"name":"Kitsuki Shi","latitude":"33.44729000","longitude":"131.53670000"},{"name":"Kunisaki-shi","latitude":"33.56543000","longitude":"131.73157000"},{"name":"Nakatsu","latitude":"33.59811000","longitude":"131.18830000"},{"name":"Nakatsu Shi","latitude":"33.46458000","longitude":"131.12642000"},{"name":"Saiki","latitude":"32.95000000","longitude":"131.90000000"},{"name":"Saiki-shi","latitude":"32.88598000","longitude":"131.77600000"},{"name":"Takedamachi","latitude":"32.96667000","longitude":"131.40000000"},{"name":"Taketa-shi","latitude":"32.99774000","longitude":"131.32724000"},{"name":"Tsukawaki","latitude":"33.27668000","longitude":"131.15628000"},{"name":"Tsukumi-shi","latitude":"33.06667000","longitude":"131.86667000"},{"name":"Tsukumiura","latitude":"33.07539000","longitude":"131.86907000"},{"name":"Tsurusaki","latitude":"33.24528000","longitude":"131.69165000"},{"name":"Usa Shi","latitude":"33.44996000","longitude":"131.33662000"},{"name":"Usuki","latitude":"33.12342000","longitude":"131.80401000"},{"name":"Usuki Shi","latitude":"33.07223000","longitude":"131.74457000"},{"name":"Yufu-shi","latitude":"33.17923000","longitude":"131.43219000"},{"name":"Ōita","latitude":"33.23333000","longitude":"131.60000000"},{"name":"Ōita-shi","latitude":"33.17980000","longitude":"131.64085000"}]