[{"name":"Deqing","latitude":"30.54485000","longitude":"119.95990000"},{"name":"Dongyang","latitude":"29.26778000","longitude":"120.22528000"},{"name":"Fenghua","latitude":"29.65628000","longitude":"121.40640000"},{"name":"Fuyang","latitude":"30.05333000","longitude":"119.95194000"},{"name":"Guli","latitude":"28.88162000","longitude":"120.03308000"},{"name":"Haining","latitude":"30.53629000","longitude":"120.68638000"},{"name":"Hangzhou","latitude":"30.29365000","longitude":"120.16142000"},{"name":"Huangyan","latitude":"28.65010000","longitude":"121.26591000"},{"name":"Huzhou","latitude":"30.87030000","longitude":"120.09330000"},{"name":"Jiaojiang","latitude":"28.69844000","longitude":"121.47331000"},{"name":"Jiashan","latitude":"30.84918000","longitude":"120.92583000"},{"name":"Jiaxing","latitude":"30.75220000","longitude":"120.75000000"},{"name":"Jiaxing Shi","latitude":"30.77070000","longitude":"120.75238000"},{"name":"Jinhua","latitude":"29.10678000","longitude":"119.64421000"},{"name":"Jinxiang","latitude":"27.43265000","longitude":"120.60625000"},{"name":"Kunyang","latitude":"27.66583000","longitude":"120.56583000"},{"name":"Lanxi","latitude":"29.21588000","longitude":"119.47156000"},{"name":"Lianghu","latitude":"29.99152000","longitude":"120.89845000"},{"name":"Linhai","latitude":"28.85535000","longitude":"121.14470000"},{"name":"Linping","latitude":"30.42250000","longitude":"120.29722000"},{"name":"Lishui","latitude":"28.46042000","longitude":"119.91029000"},{"name":"Luqiao","latitude":"28.58023000","longitude":"121.37491000"},{"name":"Ningbo","latitude":"29.87819000","longitude":"121.54945000"},{"name":"Ninghai","latitude":"29.28917000","longitude":"121.42472000"},{"name":"Puyang","latitude":"29.45679000","longitude":"119.88872000"},{"name":"Quzhou","latitude":"28.95944000","longitude":"118.86861000"},{"name":"Shangyu","latitude":"30.01556000","longitude":"120.87111000"},{"name":"Shaoxing","latitude":"30.00237000","longitude":"120.57864000"},{"name":"Shenjiamen","latitude":"29.95763000","longitude":"122.29802000"},{"name":"Taizhou","latitude":"28.66266000","longitude":"121.43312000"},{"name":"Wenling","latitude":"28.37524000","longitude":"121.38416000"},{"name":"Wenzhou","latitude":"27.99942000","longitude":"120.66682000"},{"name":"Wuzhen","latitude":"30.74536000","longitude":"120.48510000"},{"name":"Xianju","latitude":"28.85470000","longitude":"120.73168000"},{"name":"Xiaoshan","latitude":"30.16746000","longitude":"120.25883000"},{"name":"Yiwu","latitude":"29.31506000","longitude":"120.07676000"},{"name":"Yuyao","latitude":"30.05000000","longitude":"121.14944000"},{"name":"Zhaobaoshan","latitude":"29.96950000","longitude":"121.68753000"},{"name":"Zhicheng","latitude":"31.00751000","longitude":"119.90851000"},{"name":"Zhoushan","latitude":"29.98869000","longitude":"122.20488000"},{"name":"Zhuji","latitude":"29.71877000","longitude":"120.24233000"}]