[{"name":"Bojnice","latitude":"48.78511000","longitude":"18.58640000"},{"name":"Brezová pod Bradlom","latitude":"48.66349000","longitude":"17.53905000"},{"name":"Bánovce nad Bebravou","latitude":"48.72130000","longitude":"18.25754000"},{"name":"Dubnica nad Váhom","latitude":"48.95981000","longitude":"18.16634000"},{"name":"Handlová","latitude":"48.72760000","longitude":"18.76012000"},{"name":"Ilava","latitude":"48.99769000","longitude":"18.23530000"},{"name":"Lehota pod Vtáčnikom","latitude":"48.69138000","longitude":"18.59944000"},{"name":"Myjava","latitude":"48.75876000","longitude":"17.56866000"},{"name":"Nemšová","latitude":"48.96702000","longitude":"18.11892000"},{"name":"Nová Dubnica","latitude":"48.93479000","longitude":"18.14632000"},{"name":"Nováky","latitude":"48.71106000","longitude":"18.53389000"},{"name":"Nové Mesto nad Váhom","latitude":"48.75763000","longitude":"17.83090000"},{"name":"Okres Bánovce nad Bebravou","latitude":"48.71908000","longitude":"18.25773000"},{"name":"Okres Ilava","latitude":"48.99641000","longitude":"18.23374000"},{"name":"Okres Myjava","latitude":"48.75000000","longitude":"17.58333000"},{"name":"Okres Nové Mesto nad Váhom","latitude":"48.75466000","longitude":"17.83506000"},{"name":"Okres Partizánske","latitude":"48.62613000","longitude":"18.37957000"},{"name":"Okres Považská Bystrica","latitude":"49.11667000","longitude":"18.45000000"},{"name":"Okres Prievidza","latitude":"48.76667000","longitude":"18.63333000"},{"name":"Okres Púchov","latitude":"49.12406000","longitude":"18.32477000"},{"name":"Okres Trenčín","latitude":"48.89520000","longitude":"18.04264000"},{"name":"Partizánske","latitude":"48.62861000","longitude":"18.38455000"},{"name":"Považská Bystrica","latitude":"49.12153000","longitude":"18.42169000"},{"name":"Prievidza","latitude":"48.77446000","longitude":"18.62750000"},{"name":"Púchov","latitude":"49.12494000","longitude":"18.32597000"},{"name":"Stará Turá","latitude":"48.77721000","longitude":"17.69433000"},{"name":"Trenčianske Teplice","latitude":"48.91063000","longitude":"18.16691000"},{"name":"Trenčín","latitude":"48.89452000","longitude":"18.04436000"},{"name":"Čachtice","latitude":"48.71226000","longitude":"17.78704000"}]