[{"name":"Artsyz","latitude":"45.99194000","longitude":"29.41824000"},{"name":"Balta","latitude":"47.93548000","longitude":"29.61982000"},{"name":"Balts’kyy Rayon","latitude":"47.99828000","longitude":"29.64835000"},{"name":"Berezivka","latitude":"47.20429000","longitude":"30.90780000"},{"name":"Berezyne","latitude":"46.22968000","longitude":"29.20436000"},{"name":"Bilhorod-Dnistrovskyi","latitude":"46.19520000","longitude":"30.34938000"},{"name":"Bilyayivka","latitude":"46.48319000","longitude":"30.21678000"},{"name":"Bolhrad","latitude":"45.68262000","longitude":"28.61487000"},{"name":"Borodino","latitude":"46.30250000","longitude":"29.24167000"},{"name":"Broska","latitude":"45.37327000","longitude":"28.78300000"},{"name":"Chornomors’k","latitude":"46.30495000","longitude":"30.65478000"},{"name":"Dmytrivka","latitude":"45.97167000","longitude":"28.98639000"},{"name":"Fontanka","latitude":"46.56646000","longitude":"30.85965000"},{"name":"Horodnye","latitude":"45.89083000","longitude":"28.84833000"},{"name":"Ivanivka","latitude":"46.97569000","longitude":"30.46998000"},{"name":"Izmayil","latitude":"45.34929000","longitude":"28.84079000"},{"name":"Kalcheva","latitude":"45.73746000","longitude":"28.81441000"},{"name":"Kamyshevka Vtoraya","latitude":"46.23333000","longitude":"29.83333000"},{"name":"Karolino-Buhaz","latitude":"46.14492000","longitude":"30.52609000"},{"name":"Kiliya","latitude":"45.45518000","longitude":"29.26367000"},{"name":"Kodyma","latitude":"48.09875000","longitude":"29.12463000"},{"name":"Kodyms’kyy Rayon","latitude":"48.02284000","longitude":"29.14010000"},{"name":"Krasnosilka","latitude":"46.62258000","longitude":"30.77421000"},{"name":"Kremidivka","latitude":"46.73351000","longitude":"30.78472000"},{"name":"Kryzhanivka","latitude":"46.56167000","longitude":"30.79487000"},{"name":"Kuchurhan","latitude":"47.16302000","longitude":"29.78937000"},{"name":"Kulevcha","latitude":"46.03034000","longitude":"29.93614000"},{"name":"Kurisove","latitude":"46.96951000","longitude":"30.95914000"},{"name":"Lymanske","latitude":"46.65570000","longitude":"29.96722000"},{"name":"Lyubashivka","latitude":"47.83716000","longitude":"30.25976000"},{"name":"Mayaky","latitude":"46.41748000","longitude":"30.27413000"},{"name":"Mykolayivka","latitude":"47.54135000","longitude":"30.75615000"},{"name":"Mykolayivs’kyy Rayon","latitude":"47.46720000","longitude":"30.60283000"},{"name":"Novi Troyany","latitude":"45.94275000","longitude":"28.85628000"},{"name":"Odessa","latitude":"46.47747000","longitude":"30.73262000"},{"name":"Okny","latitude":"47.54044000","longitude":"29.46001000"},{"name":"Oleksandrivka","latitude":"46.32893000","longitude":"30.63481000"},{"name":"Ovidiopol","latitude":"46.24998000","longitude":"30.44127000"},{"name":"Ozerne","latitude":"45.40300000","longitude":"28.67546000"},{"name":"Peschana","latitude":"48.12918000","longitude":"29.73086000"},{"name":"Plakhtiyivka","latitude":"46.10060000","longitude":"29.72169000"},{"name":"Podilsk Raion","latitude":"47.71642000","longitude":"29.54509000"},{"name":"Podil’s’k","latitude":"47.75305000","longitude":"29.53205000"},{"name":"Reni","latitude":"45.45623000","longitude":"28.27914000"},{"name":"Rozdil’na","latitude":"46.84334000","longitude":"30.07919000"},{"name":"Salhany","latitude":"46.14881000","longitude":"30.34601000"},{"name":"Sarata","latitude":"46.01966000","longitude":"29.66567000"},{"name":"Savran","latitude":"48.13219000","longitude":"30.08247000"},{"name":"Serhiyivka","latitude":"46.02720000","longitude":"30.37682000"},{"name":"Serpneve","latitude":"46.30094000","longitude":"29.01958000"},{"name":"Shabo","latitude":"46.13262000","longitude":"30.38595000"},{"name":"Shevchenkove","latitude":"45.55604000","longitude":"29.33357000"},{"name":"Shyryayeve","latitude":"47.38052000","longitude":"30.19638000"},{"name":"Slobidka","latitude":"47.88694000","longitude":"29.34611000"},{"name":"Starokozache","latitude":"46.33722000","longitude":"29.98528000"},{"name":"Stepanivka","latitude":"46.79489000","longitude":"29.98684000"},{"name":"Stepove","latitude":"46.70385000","longitude":"30.07919000"},{"name":"Tarutyne","latitude":"46.18636000","longitude":"29.15203000"},{"name":"Tatarbunary","latitude":"45.83731000","longitude":"29.61424000"},{"name":"Tayirove","latitude":"46.36313000","longitude":"30.64891000"},{"name":"Teplodar","latitude":"46.50585000","longitude":"30.32521000"},{"name":"Usatove","latitude":"46.53296000","longitude":"30.65960000"},{"name":"Velyka Mykhaylivka","latitude":"47.07971000","longitude":"29.85753000"},{"name":"Velykoploske","latitude":"47.01254000","longitude":"29.67171000"},{"name":"Vylkove","latitude":"45.40214000","longitude":"29.58595000"},{"name":"Vynohradivka","latitude":"45.68119000","longitude":"28.57138000"},{"name":"Yuzhne","latitude":"46.62211000","longitude":"31.10131000"},{"name":"Zagnitkiv","latitude":"48.04878000","longitude":"28.89234000"},{"name":"Zakharivka","latitude":"47.33232000","longitude":"29.75903000"},{"name":"Zaliznychne","latitude":"45.74890000","longitude":"28.61466000"},{"name":"Zatoka","latitude":"46.07251000","longitude":"30.46538000"},{"name":"Zatyshshya","latitude":"47.33351000","longitude":"29.87327000"},{"name":"Zorya","latitude":"45.99080000","longitude":"29.69672000"}]