[{"name":"Bafilo","latitude":"9.35000000","longitude":"1.26667000"},{"name":"Bassar","latitude":"9.25025000","longitude":"0.78213000"},{"name":"Kandé","latitude":"9.95778000","longitude":"1.04472000"},{"name":"Kara","latitude":"9.55111000","longitude":"1.18611000"},{"name":"Niamtougou","latitude":"9.76806000","longitude":"1.10528000"},{"name":"Pagouda","latitude":"9.75250000","longitude":"1.32778000"},{"name":"Préfecture de Bassar","latitude":"9.25000000","longitude":"0.75000000"}]