[{"name":"Demidov","latitude":"55.27063000","longitude":"31.51497000"},{"name":"Desnogorsk","latitude":"54.15077000","longitude":"33.28151000"},{"name":"Dorogobuzh","latitude":"54.91500000","longitude":"33.29722000"},{"name":"Dukhovshchina","latitude":"55.19190000","longitude":"32.41110000"},{"name":"Gagarin","latitude":"55.55291000","longitude":"34.99537000"},{"name":"Glinka","latitude":"54.64043000","longitude":"32.87811000"},{"name":"Golynki","latitude":"54.86964000","longitude":"31.38609000"},{"name":"Kardymovo","latitude":"54.89016000","longitude":"32.43111000"},{"name":"Katyn'","latitude":"54.77455000","longitude":"31.69041000"},{"name":"Khislavichi","latitude":"54.18714000","longitude":"32.15817000"},{"name":"Kholm-Zhirkovskiy","latitude":"55.51889000","longitude":"33.47306000"},{"name":"Monastyrshchina","latitude":"54.34961000","longitude":"31.83795000"},{"name":"Novodugino","latitude":"55.63052000","longitude":"34.28423000"},{"name":"Oster","latitude":"54.01700000","longitude":"32.80190000"},{"name":"Ozërnyy","latitude":"55.58020000","longitude":"32.41270000"},{"name":"Pechersk","latitude":"54.85355000","longitude":"32.03154000"},{"name":"Pochinok","latitude":"54.40685000","longitude":"32.44067000"},{"name":"Roslavl’","latitude":"53.95278000","longitude":"32.86389000"},{"name":"Rudnya","latitude":"54.94698000","longitude":"31.09340000"},{"name":"Safonovo","latitude":"55.11087000","longitude":"33.23292000"},{"name":"Safonovskiy Rayon","latitude":"55.16667000","longitude":"33.16667000"},{"name":"Shatalovo","latitude":"54.33400000","longitude":"32.44650000"},{"name":"Shumyachi","latitude":"53.85833000","longitude":"32.42417000"},{"name":"Smolensk","latitude":"54.78180000","longitude":"32.04010000"},{"name":"Stodolishche","latitude":"54.18594000","longitude":"32.64925000"},{"name":"Sychëvka","latitude":"55.82515000","longitude":"34.27361000"},{"name":"Talashkino","latitude":"54.65471000","longitude":"32.18325000"},{"name":"Tëmkino","latitude":"55.10917000","longitude":"35.01389000"},{"name":"Ugra","latitude":"54.77775000","longitude":"34.32674000"},{"name":"Velizh","latitude":"55.60564000","longitude":"31.19673000"},{"name":"Verkhnedneprovskiy","latitude":"54.98131000","longitude":"33.34573000"},{"name":"Vyaz’ma","latitude":"55.21039000","longitude":"34.29508000"},{"name":"Yartsevo","latitude":"55.06667000","longitude":"32.69639000"},{"name":"Yekimovichi","latitude":"54.11285000","longitude":"33.29648000"},{"name":"Yel’nya","latitude":"54.57864000","longitude":"33.18373000"},{"name":"Yershichi","latitude":"53.67250000","longitude":"32.75417000"}]