[{"name":"Biharamulo","latitude":"-2.63194000","longitude":"31.30889000"},{"name":"Bugarama","latitude":"-2.87056000","longitude":"30.52806000"},{"name":"Bugene","latitude":"-1.59111000","longitude":"31.14028000"},{"name":"Bukoba","latitude":"-1.33167000","longitude":"31.81222000"},{"name":"Kabanga","latitude":"-2.63861000","longitude":"30.46778000"},{"name":"Kamachumu","latitude":"-1.61861000","longitude":"31.62000000"},{"name":"Katerero","latitude":"-1.40000000","longitude":"31.73333000"},{"name":"Katoro","latitude":"-1.39972000","longitude":"31.50028000"},{"name":"Kyaka","latitude":"-1.25222000","longitude":"31.42028000"},{"name":"Ngara","latitude":"-2.51222000","longitude":"30.65583000"},{"name":"Nshamba","latitude":"-1.79833000","longitude":"31.55111000"},{"name":"Nsunga","latitude":"-1.14389000","longitude":"31.39472000"},{"name":"Nyakahanga","latitude":"-1.60333000","longitude":"31.14139000"},{"name":"Rulenge","latitude":"-2.71750000","longitude":"30.63250000"}]