[{"name":"Bulembu","latitude":"-25.96667000","longitude":"31.13333000"},{"name":"Hhukwini","latitude":"-26.31972000","longitude":"31.22222000"},{"name":"Lobamba","latitude":"-26.46667000","longitude":"31.20000000"},{"name":"Mbabane","latitude":"-26.31667000","longitude":"31.13333000"},{"name":"Nkhaba","latitude":"-26.15728000","longitude":"31.16391000"},{"name":"Piggs Peak","latitude":"-25.96082000","longitude":"31.24666000"}]