[{"name":"Al Ghanţū","latitude":"34.82202000","longitude":"36.69613000"},{"name":"Al Qaryatayn","latitude":"34.22956000","longitude":"37.24066000"},{"name":"Al Quşayr","latitude":"34.50780000","longitude":"36.58029000"},{"name":"Al-Rastan District","latitude":"34.87100000","longitude":"36.77245000"},{"name":"Ar Rastan","latitude":"34.92667000","longitude":"36.73241000"},{"name":"Hisya","latitude":"34.41197000","longitude":"36.75867000"},{"name":"Homs","latitude":"34.72682000","longitude":"36.72339000"},{"name":"Kafr Lāhā","latitude":"34.89469000","longitude":"36.49582000"},{"name":"Mukharram al Fawqānī","latitude":"34.81521000","longitude":"37.08677000"},{"name":"Tadmur","latitude":"34.56240000","longitude":"38.28402000"},{"name":"Tadmur District","latitude":"34.42401000","longitude":"38.64580000"},{"name":"Tallbīsah","latitude":"34.84072000","longitude":"36.73092000"},{"name":"Tallkalakh","latitude":"34.66842000","longitude":"36.25995000"},{"name":"Şadad","latitude":"34.31248000","longitude":"36.92562000"}]