[{"name":"Chortoq","latitude":"41.06924000","longitude":"71.82372000"},{"name":"Chust","latitude":"41.00329000","longitude":"71.23791000"},{"name":"Haqqulobod","latitude":"40.91667000","longitude":"72.11667000"},{"name":"Kosonsoy","latitude":"41.24944000","longitude":"71.54738000"},{"name":"Namangan","latitude":"40.99830000","longitude":"71.67257000"},{"name":"Pop","latitude":"40.87361000","longitude":"71.10889000"},{"name":"Toshbuloq","latitude":"40.91617000","longitude":"71.57819000"},{"name":"To‘rqao‘rg‘on","latitude":"40.99984000","longitude":"71.51162000"},{"name":"Uchqŭrghon Shahri","latitude":"41.11371000","longitude":"72.07915000"},{"name":"Uychi","latitude":"41.08073000","longitude":"71.92331000"},{"name":"Yangiqo‘rg‘on","latitude":"41.19474000","longitude":"71.72385000"}]