[{"name":"Bambamarca","latitude":"-6.68333000","longitude":"-78.53333000"},{"name":"Bellavista","latitude":"-5.66417000","longitude":"-78.67722000"},{"name":"Cajabamba","latitude":"-7.61667000","longitude":"-78.05000000"},{"name":"Cajamarca","latitude":"-7.16378000","longitude":"-78.50027000"},{"name":"Celendín","latitude":"-6.86590000","longitude":"-78.14585000"},{"name":"Chota","latitude":"-6.55000000","longitude":"-78.65000000"},{"name":"Jaén","latitude":"-5.70729000","longitude":"-78.80785000"},{"name":"Provincia de Cajabamba","latitude":"-7.50000000","longitude":"-78.16667000"},{"name":"Provincia de Cajamarca","latitude":"-7.33333000","longitude":"-78.41667000"},{"name":"Provincia de Celendín","latitude":"-6.83333000","longitude":"-78.25000000"},{"name":"Provincia de Chota","latitude":"-6.38332000","longitude":"-79.18055000"},{"name":"Provincia de Contumazá","latitude":"-7.33333000","longitude":"-78.91667000"},{"name":"Provincia de Cutervo","latitude":"-6.36667000","longitude":"-78.85000000"},{"name":"Provincia de Hualgayoc","latitude":"-6.68000000","longitude":"-78.53000000"},{"name":"Provincia de Jaén","latitude":"-5.71074000","longitude":"-79.00438000"},{"name":"Provincia de San Ignacio","latitude":"-5.08333000","longitude":"-79.00000000"},{"name":"Provincia de San Miguel","latitude":"-7.00000000","longitude":"-79.00000000"},{"name":"Provincia de Santa Cruz","latitude":"-6.83333000","longitude":"-79.00000000"},{"name":"San Ignacio","latitude":"-5.14583000","longitude":"-79.00139000"}]