[{"name":"Kuressaare","latitude":"58.24806000","longitude":"22.50389000"},{"name":"Liiva","latitude":"58.60194000","longitude":"23.24694000"},{"name":"Muhu vald","latitude":"58.58486000","longitude":"23.25609000"},{"name":"Orissaare","latitude":"58.55917000","longitude":"23.08262000"},{"name":"Ruhnu","latitude":"57.80028000","longitude":"23.24833000"},{"name":"Ruhnu vald","latitude":"57.80309000","longitude":"23.24250000"},{"name":"Tehumardi","latitude":"58.18027000","longitude":"22.24646000"}]