[{"name":"Agatsuma-gun","latitude":"36.57368000","longitude":"138.67243000"},{"name":"Annaka","latitude":"36.33011000","longitude":"138.89585000"},{"name":"Annaka Shi","latitude":"36.34079000","longitude":"138.77647000"},{"name":"Fujioka","latitude":"36.24624000","longitude":"139.07204000"},{"name":"Fujioka Shi","latitude":"36.19213000","longitude":"138.99918000"},{"name":"Isesaki","latitude":"36.31667000","longitude":"139.20000000"},{"name":"Isesaki Shi","latitude":"36.32126000","longitude":"139.21823000"},{"name":"Kanekomachi","latitude":"36.41097000","longitude":"138.99621000"},{"name":"Kiryū","latitude":"36.40000000","longitude":"139.33333000"},{"name":"Kiryū Shi","latitude":"36.45702000","longitude":"139.30962000"},{"name":"Maebashi","latitude":"36.40000000","longitude":"139.08333000"},{"name":"Maebashi Shi","latitude":"36.41432000","longitude":"139.13110000"},{"name":"Midori","latitude":"36.44492000","longitude":"139.28448000"},{"name":"Midori Shi","latitude":"36.53044000","longitude":"139.34728000"},{"name":"Nakanojōmachi","latitude":"36.58717000","longitude":"138.84083000"},{"name":"Numata","latitude":"36.63333000","longitude":"139.05000000"},{"name":"Numata Shi","latitude":"36.67371000","longitude":"139.18353000"},{"name":"Sakai-nakajima","latitude":"36.26667000","longitude":"139.25000000"},{"name":"Shibukawa","latitude":"36.48333000","longitude":"139.00000000"},{"name":"Shibukawa-shi","latitude":"36.50000000","longitude":"138.98333000"},{"name":"Takasaki","latitude":"36.33333000","longitude":"139.01667000"},{"name":"Takasaki Shi","latitude":"36.40538000","longitude":"138.89227000"},{"name":"Tamamura","latitude":"36.30000000","longitude":"139.11667000"},{"name":"Tatebayashi","latitude":"36.25000000","longitude":"139.53333000"},{"name":"Tatebayashi-shi","latitude":"36.24597000","longitude":"139.53533000"},{"name":"Tomioka","latitude":"36.25411000","longitude":"138.89813000"},{"name":"Tomioka-shi","latitude":"36.25000000","longitude":"138.88333000"},{"name":"Yoshii","latitude":"36.25000000","longitude":"138.98333000"},{"name":"Ōmamachō-ōmama","latitude":"36.43181000","longitude":"139.27534000"},{"name":"Ōta","latitude":"36.30000000","longitude":"139.36667000"},{"name":"Ōta-shi","latitude":"36.30000000","longitude":"139.36667000"}]