[{"name":"Aydarken","latitude":"39.94319000","longitude":"71.34184000"},{"name":"Batken","latitude":"40.06259000","longitude":"70.81939000"},{"name":"Iradan","latitude":"40.26667000","longitude":"72.10000000"},{"name":"Isfana","latitude":"39.83895000","longitude":"69.52760000"},{"name":"Karavan","latitude":"40.29513000","longitude":"72.18627000"},{"name":"Kyzyl-Kyya","latitude":"40.25684000","longitude":"72.12793000"},{"name":"Suluktu","latitude":"39.93652000","longitude":"69.56779000"}]