[{"name":"Bagmati Zone","countryCode":"NP","fipsCode":"01","iso":"BA","latitude":"28.03675770","longitude":"85.43755740"},{"name":"Bheri Zone","countryCode":"NP","fipsCode":"02","iso":"BH","latitude":"28.51745600","longitude":"81.77870210"},{"name":"Central Region","countryCode":"NP","fipsCode":"CR","iso":"1","latitude":null,"longitude":null},{"name":"Dhaulagiri Zone","countryCode":"NP","fipsCode":"03","iso":"DH","latitude":"28.61117600","longitude":"83.50702030"},{"name":"Eastern Development Region","countryCode":"NP","fipsCode":"ER","iso":"4","latitude":"27.33090720","longitude":"87.06242610"},{"name":"Far-Western Development Region","countryCode":"NP","fipsCode":"FR","iso":"5","latitude":"29.29878710","longitude":"80.98710740"},{"name":"Gandaki Zone","countryCode":"NP","fipsCode":"04","iso":"GA","latitude":"28.37320370","longitude":"84.43827210"},{"name":"Janakpur Zone","countryCode":"NP","fipsCode":"05","iso":"JA","latitude":"27.21108990","longitude":"86.01215730"},{"name":"Karnali Zone","countryCode":"NP","fipsCode":"06","iso":"KA","latitude":"29.38625550","longitude":"82.38857830"},{"name":"Kosi Zone","countryCode":"NP","fipsCode":"07","iso":"KO","latitude":"27.05365240","longitude":"87.30161320"},{"name":"Lumbini Zone","countryCode":"NP","fipsCode":"08","iso":"LU","latitude":"27.45000000","longitude":"83.25000000"},{"name":"Mahakali Zone","countryCode":"NP","fipsCode":"09","iso":"MA","latitude":"29.36010790","longitude":"80.54384500"},{"name":"Mechi Zone","countryCode":"NP","fipsCode":"10","iso":"ME","latitude":"26.87600070","longitude":"87.93348030"},{"name":"Mid-Western Region","countryCode":"NP","fipsCode":"MR","iso":"2","latitude":"38.41118410","longitude":"-90.38320980"},{"name":"Narayani Zone","countryCode":"NP","fipsCode":"11","iso":"NA","latitude":"27.36117660","longitude":"84.85679320"},{"name":"Rapti Zone","countryCode":"NP","fipsCode":"12","iso":"RA","latitude":"28.27434700","longitude":"82.38857830"},{"name":"Sagarmatha Zone","countryCode":"NP","fipsCode":"13","iso":"SA","latitude":"27.32382630","longitude":"86.74163740"},{"name":"Seti Zone","countryCode":"NP","fipsCode":"14","iso":"SE","latitude":"29.69054270","longitude":"81.33994140"},{"name":"Western Region","countryCode":"NP","fipsCode":"WR","iso":"3","latitude":null,"longitude":null}]