[{"name":"Aleksandrovsk-Sakhalinskiy","latitude":"50.89926000","longitude":"142.16215000"},{"name":"Aniva","latitude":"46.71492000","longitude":"142.52866000"},{"name":"Boshnyakovo","latitude":"49.64572000","longitude":"142.17047000"},{"name":"Bykov","latitude":"47.32099000","longitude":"142.56226000"},{"name":"Chekhov","latitude":"47.44984000","longitude":"141.99064000"},{"name":"Dolinsk","latitude":"47.32946000","longitude":"142.79291000"},{"name":"Gastello","latitude":"49.10056000","longitude":"142.95917000"},{"name":"Gornozavodsk","latitude":"46.55984000","longitude":"141.84358000"},{"name":"Kholmsk","latitude":"47.04737000","longitude":"142.05048000"},{"name":"Korsakov","latitude":"46.63420000","longitude":"142.77722000"},{"name":"Krasnogorsk","latitude":"48.41728000","longitude":"142.08686000"},{"name":"Kurilsky District","latitude":"46.00000000","longitude":"150.00000000"},{"name":"Kuril’sk","latitude":"45.22686000","longitude":"147.87767000"},{"name":"Leonidovo","latitude":"49.28619000","longitude":"142.86975000"},{"name":"Makarov","latitude":"48.62698000","longitude":"142.77999000"},{"name":"Mgachi","latitude":"51.04834000","longitude":"142.26821000"},{"name":"Nevel’sk","latitude":"46.67902000","longitude":"141.85629000"},{"name":"Nogliki","latitude":"51.79917000","longitude":"143.13871000"},{"name":"Okha","latitude":"53.58991000","longitude":"142.95313000"},{"name":"Otrada","latitude":"44.06832000","longitude":"145.86454000"},{"name":"Poronaysk","latitude":"49.22188000","longitude":"143.09694000"},{"name":"Pravda","latitude":"46.93972000","longitude":"142.00426000"},{"name":"Severo-Kuril’sk","latitude":"50.67531000","longitude":"156.12695000"},{"name":"Shakhtersk","latitude":"49.17175000","longitude":"142.13640000"},{"name":"Shebunino","latitude":"46.43010000","longitude":"141.85699000"},{"name":"Shikotan","latitude":"43.79916000","longitude":"146.72164000"},{"name":"Sinegorsk","latitude":"47.17278000","longitude":"142.51577000"},{"name":"Smirnykh","latitude":"49.74596000","longitude":"142.83716000"},{"name":"Sokol","latitude":"47.24464000","longitude":"142.75167000"},{"name":"Tomari","latitude":"47.76482000","longitude":"142.07106000"},{"name":"Troitskoye","latitude":"46.92493000","longitude":"142.64532000"},{"name":"Tungor","latitude":"53.39121000","longitude":"142.95755000"},{"name":"Tymovskoye","latitude":"50.84925000","longitude":"142.66520000"},{"name":"Uglegorsk","latitude":"49.08047000","longitude":"142.06449000"},{"name":"Uglegorskiy Rayon","latitude":"49.08333000","longitude":"142.08333000"},{"name":"Uglezavodsk","latitude":"47.32332000","longitude":"142.63317000"},{"name":"Vakhrushev","latitude":"48.99035000","longitude":"142.95303000"},{"name":"Vostok","latitude":"48.97715000","longitude":"142.91556000"},{"name":"Yablochnyy","latitude":"47.15200000","longitude":"142.05678000"},{"name":"Yuzhno-Kurilsk","latitude":"44.02734000","longitude":"145.86146000"},{"name":"Yuzhno-Kurilsky District","latitude":"44.59242000","longitude":"146.77048000"},{"name":"Yuzhno-Sakhalinsk","latitude":"46.95407000","longitude":"142.73603000"}]