[{"name":"Angkor Chey","latitude":"10.76667000","longitude":"104.65000000"},{"name":"Banteay Meas","latitude":"10.61667000","longitude":"104.53333000"},{"name":"Chhouk District","latitude":"10.81667000","longitude":"104.45000000"},{"name":"Kampong Bay","latitude":"10.59554000","longitude":"104.17136000"},{"name":"Kampong Tranch","latitude":"10.55000000","longitude":"104.46667000"},{"name":"Kampot","latitude":"10.61041000","longitude":"104.18145000"},{"name":"Srok Tuek Chhou","latitude":"10.74557000","longitude":"104.11013000"},{"name":"Srŏk Chŭm Kiri","latitude":"11.00540000","longitude":"104.44207000"},{"name":"Srŏk Dângtóng","latitude":"10.70733000","longitude":"104.42229000"}]