[{"name":"Abja-Paluoja","latitude":"58.12528000","longitude":"25.34972000"},{"name":"Karksi-Nuia","latitude":"58.10333000","longitude":"25.56278000"},{"name":"Mõisaküla","latitude":"58.09222000","longitude":"25.18639000"},{"name":"Suure-Jaani","latitude":"58.53611000","longitude":"25.47056000"},{"name":"Viiratsi","latitude":"58.36000000","longitude":"25.63722000"},{"name":"Viljandi","latitude":"58.36389000","longitude":"25.59000000"},{"name":"Viljandi vald","latitude":"58.36392000","longitude":"25.49103000"},{"name":"Võhma","latitude":"58.62833000","longitude":"25.54833000"}]