[{"name":"Benešov","countryCode":"CZ","fipsCode":"82","iso":"201","latitude":"49.69008280","longitude":"14.77643990"},{"name":"Beroun","countryCode":"CZ","fipsCode":"82","iso":"202","latitude":"49.95734280","longitude":"13.98407150"},{"name":"Blansko","countryCode":"CZ","fipsCode":"82","iso":"641","latitude":"49.36485020","longitude":"16.64775520"},{"name":"Brno-město","countryCode":"CZ","fipsCode":"87","iso":"642","latitude":"49.19506020","longitude":"16.60683710"},{"name":"Brno-venkov","countryCode":"CZ","fipsCode":"87","iso":"643","latitude":"49.12501380","longitude":"16.45588240"},{"name":"Bruntál","countryCode":"CZ","fipsCode":"79","iso":"801","latitude":"49.98817670","longitude":"17.46369410"},{"name":"Břeclav","countryCode":"CZ","fipsCode":"13","iso":"644","latitude":"48.75314000","longitude":"16.88251690"},{"name":"Cheb","countryCode":"CZ","fipsCode":"87","iso":"411","latitude":"50.07953340","longitude":"12.36986360"},{"name":"Chomutov","countryCode":"CZ","fipsCode":"90","iso":"422","latitude":"50.45838720","longitude":"13.30179100"},{"name":"Chrudim","countryCode":"CZ","fipsCode":"82","iso":"531","latitude":"49.88302160","longitude":"15.82908660"},{"name":"Domažlice","countryCode":"CZ","fipsCode":"79","iso":"321","latitude":"49.43970270","longitude":"12.93114350"},{"name":"Děčín","countryCode":"CZ","fipsCode":"87","iso":"421","latitude":"50.77255630","longitude":"14.21276120"},{"name":"Frýdek-Místek","countryCode":"CZ","fipsCode":"88","iso":"802","latitude":"49.68193050","longitude":"18.36732160"},{"name":"Havlíčkův Brod","countryCode":"CZ","fipsCode":"87","iso":"631","latitude":"49.60433640","longitude":"15.57965520"},{"name":"Hodonín","countryCode":"CZ","fipsCode":"88","iso":"645","latitude":"48.85293910","longitude":"17.12600250"},{"name":"Hradec Králové","countryCode":"CZ","fipsCode":"82","iso":"521","latitude":"50.24148050","longitude":"15.67430000"},{"name":"Jablonec nad Nisou","countryCode":"CZ","fipsCode":"87","iso":"512","latitude":"50.72205280","longitude":"15.17031350"},{"name":"Jeseník","countryCode":"CZ","fipsCode":"82","iso":"711","latitude":"50.22462490","longitude":"17.19804710"},{"name":"Jihlava","countryCode":"CZ","fipsCode":"87","iso":"632","latitude":"49.39837820","longitude":"15.58704150"},{"name":"Jihomoravský kraj","countryCode":"CZ","fipsCode":"78","iso":"64","latitude":"48.95445280","longitude":"16.76768990"},{"name":"Jihočeský kraj","countryCode":"CZ","fipsCode":"79","iso":"31","latitude":"48.94577890","longitude":"14.44160550"},{"name":"Jindřichův Hradec","countryCode":"CZ","fipsCode":"82","iso":"313","latitude":"49.14448230","longitude":"15.00613890"},{"name":"Jičín","countryCode":"CZ","fipsCode":"79","iso":"522","latitude":"50.43533250","longitude":"15.36104400"},{"name":"Karlovarský kraj","countryCode":"CZ","fipsCode":"81","iso":"41","latitude":"50.14350000","longitude":"12.75018990"},{"name":"Karlovy Vary","countryCode":"CZ","fipsCode":"78","iso":"412","latitude":"50.14350000","longitude":"12.75018990"},{"name":"Karviná","countryCode":"CZ","fipsCode":"81","iso":"803","latitude":"49.85665240","longitude":"18.54321860"},{"name":"Kladno","countryCode":"CZ","fipsCode":"82","iso":"203","latitude":"50.19402580","longitude":"14.10436570"},{"name":"Klatovy","countryCode":"CZ","fipsCode":"83","iso":"322","latitude":"49.39555490","longitude":"13.29509370"},{"name":"Kolín","countryCode":"CZ","fipsCode":"82","iso":"204","latitude":"49.98832930","longitude":"15.05519770"},{"name":"Kraj Vysočina","countryCode":"CZ","fipsCode":"80","iso":"63","latitude":"49.44900520","longitude":"15.64059340"},{"name":"Kroměříž","countryCode":"CZ","fipsCode":"83","iso":"721","latitude":"49.29165820","longitude":"17.39938000"},{"name":"Královéhradecký kraj","countryCode":"CZ","fipsCode":"82","iso":"52","latitude":"50.35124840","longitude":"15.79764590"},{"name":"Kutná Hora","countryCode":"CZ","fipsCode":"82","iso":"205","latitude":"49.94920890","longitude":"15.24704400"},{"name":"Liberec","countryCode":"CZ","fipsCode":"83","iso":"513","latitude":"50.75641010","longitude":"14.99650410"},{"name":"Liberecký kraj","countryCode":"CZ","fipsCode":"83","iso":"51","latitude":"50.65942400","longitude":"14.76324240"},{"name":"Litoměřice","countryCode":"CZ","fipsCode":"78","iso":"423","latitude":"50.53841970","longitude":"14.13054580"},{"name":"Louny","countryCode":"CZ","fipsCode":"82","iso":"424","latitude":"50.35398120","longitude":"13.80335510"},{"name":"Mladá Boleslav","countryCode":"CZ","fipsCode":"79","iso":"207","latitude":"50.42523170","longitude":"14.93624770"},{"name":"Moravskoslezský kraj","countryCode":"CZ","fipsCode":"85","iso":"80","latitude":"49.73053270","longitude":"18.23326370"},{"name":"Most","countryCode":"CZ","fipsCode":"82","iso":"425","latitude":"37.15540830","longitude":"-94.29488840"},{"name":"Mělník","countryCode":"CZ","fipsCode":"82","iso":"206","latitude":"50.31044150","longitude":"14.51792230"},{"name":"Nový Jičín","countryCode":"CZ","fipsCode":"87","iso":"804","latitude":"49.59432510","longitude":"18.01353560"},{"name":"Nymburk","countryCode":"CZ","fipsCode":"81","iso":"208","latitude":"50.18558160","longitude":"15.04366040"},{"name":"Náchod","countryCode":"CZ","fipsCode":"87","iso":"523","latitude":"50.41457220","longitude":"16.16563470"},{"name":"Olomouc","countryCode":"CZ","fipsCode":"84","iso":"712","latitude":"49.59377800","longitude":"17.25087870"},{"name":"Olomoucký kraj","countryCode":"CZ","fipsCode":"84","iso":"71","latitude":"49.65865490","longitude":"17.08114060"},{"name":"Opava","countryCode":"CZ","fipsCode":"82","iso":"805","latitude":"49.90837570","longitude":"17.91633800"},{"name":"Ostrava-město","countryCode":"CZ","fipsCode":"81","iso":"806","latitude":"49.82092260","longitude":"18.26252430"},{"name":"Pardubice","countryCode":"CZ","fipsCode":"87","iso":"532","latitude":"49.94444790","longitude":"16.28569160"},{"name":"Pardubický kraj","countryCode":"CZ","fipsCode":"86","iso":"53","latitude":"49.94444790","longitude":"16.28569160"},{"name":"Pelhřimov","countryCode":"CZ","fipsCode":"79","iso":"633","latitude":"49.43062070","longitude":"15.22298300"},{"name":"Plzeň-jih","countryCode":"CZ","fipsCode":"87","iso":"324","latitude":"49.59048850","longitude":"13.57158610"},{"name":"Plzeň-město","countryCode":"CZ","fipsCode":"87","iso":"323","latitude":"49.73843140","longitude":"13.37363710"},{"name":"Plzeň-sever","countryCode":"CZ","fipsCode":"87","iso":"325","latitude":"49.87748930","longitude":"13.25374280"},{"name":"Plzeňský kraj","countryCode":"CZ","fipsCode":"87","iso":"32","latitude":"49.41348120","longitude":"13.31572460"},{"name":"Prachatice","countryCode":"CZ","fipsCode":"89","iso":"315","latitude":"49.01091000","longitude":"14.00000050"},{"name":"Praha, Hlavní město","countryCode":"CZ","fipsCode":"52","iso":"10","latitude":"50.07553810","longitude":"14.43780050"},{"name":"Praha-východ","countryCode":"CZ","fipsCode":"78","iso":"209","latitude":"49.93893070","longitude":"14.79244720"},{"name":"Praha-západ","countryCode":"CZ","fipsCode":"82","iso":"20A","latitude":"49.89352350","longitude":"14.32937790"},{"name":"Prostějov","countryCode":"CZ","fipsCode":"87","iso":"713","latitude":"49.44184010","longitude":"17.12779040"},{"name":"Písek","countryCode":"CZ","fipsCode":"88","iso":"314","latitude":"49.34199380","longitude":"14.24697600"},{"name":"Přerov","countryCode":"CZ","fipsCode":"82","iso":"714","latitude":"49.46713560","longitude":"17.50773320"},{"name":"Příbram","countryCode":"CZ","fipsCode":"87","iso":"20B","latitude":"49.69479590","longitude":"14.08238100"},{"name":"Rakovník","countryCode":"CZ","fipsCode":"88","iso":"20C","latitude":"50.10612300","longitude":"13.73966230"},{"name":"Rokycany","countryCode":"CZ","fipsCode":"81","iso":"326","latitude":"49.82628270","longitude":"13.68749430"},{"name":"Rychnov nad Kněžnou","countryCode":"CZ","fipsCode":"82","iso":"524","latitude":"50.16596510","longitude":"16.27768420"},{"name":"Semily","countryCode":"CZ","fipsCode":"83","iso":"514","latitude":"50.60515760","longitude":"15.32814090"},{"name":"Sokolov","countryCode":"CZ","fipsCode":"83","iso":"413","latitude":"50.20134340","longitude":"12.60546360"},{"name":"Strakonice","countryCode":"CZ","fipsCode":"82","iso":"316","latitude":"49.26040430","longitude":"13.91030850"},{"name":"Středočeský kraj","countryCode":"CZ","fipsCode":"88","iso":"20","latitude":"49.87822230","longitude":"14.93629550"},{"name":"Svitavy","countryCode":"CZ","fipsCode":"87","iso":"533","latitude":"49.75516290","longitude":"16.46918610"},{"name":"Tachov","countryCode":"CZ","fipsCode":"79","iso":"327","latitude":"49.79878030","longitude":"12.63619210"},{"name":"Teplice","countryCode":"CZ","fipsCode":"82","iso":"426","latitude":"50.65846050","longitude":"13.75132270"},{"name":"Trutnov","countryCode":"CZ","fipsCode":"89","iso":"525","latitude":"50.56538380","longitude":"15.90909230"},{"name":"Tábor","countryCode":"CZ","fipsCode":"87","iso":"317","latitude":"49.36462930","longitude":"14.71912930"},{"name":"Třebíč","countryCode":"CZ","fipsCode":"83","iso":"634","latitude":"49.21478690","longitude":"15.87955160"},{"name":"Uherské Hradiště","countryCode":"CZ","fipsCode":"83","iso":"722","latitude":"49.05979690","longitude":"17.49585010"},{"name":"Vsetín","countryCode":"CZ","fipsCode":"87","iso":"723","latitude":"49.37932500","longitude":"18.06181620"},{"name":"Vyškov","countryCode":"CZ","fipsCode":"82","iso":"646","latitude":"49.21274450","longitude":"16.98559270"},{"name":"Zlín","countryCode":"CZ","fipsCode":"90","iso":"724","latitude":"49.16960520","longitude":"17.80252200"},{"name":"Zlínský kraj","countryCode":"CZ","fipsCode":"90","iso":"72","latitude":"49.21622960","longitude":"17.77203530"},{"name":"Znojmo","countryCode":"CZ","fipsCode":"82","iso":"647","latitude":"48.92723270","longitude":"16.10378080"},{"name":"Ústecký kraj","countryCode":"CZ","fipsCode":"89","iso":"42","latitude":"50.61190370","longitude":"13.78700860"},{"name":"Ústí nad Labem","countryCode":"CZ","fipsCode":"52","iso":"427","latitude":"50.61190370","longitude":"13.78700860"},{"name":"Ústí nad Orlicí","countryCode":"CZ","fipsCode":"79","iso":"534","latitude":"49.97218010","longitude":"16.39966170"},{"name":"Česká Lípa","countryCode":"CZ","fipsCode":"82","iso":"511","latitude":"50.67852010","longitude":"14.53969910"},{"name":"České Budějovice","countryCode":"CZ","fipsCode":"88","iso":"311","latitude":"48.97755530","longitude":"14.51507470"},{"name":"Český Krumlov","countryCode":"CZ","fipsCode":"79","iso":"312","latitude":"48.81273540","longitude":"14.31746570"},{"name":"Šumperk","countryCode":"CZ","fipsCode":"79","iso":"715","latitude":"49.97784070","longitude":"16.97177540"},{"name":"Žďár nad Sázavou","countryCode":"CZ","fipsCode":"79","iso":"635","latitude":"49.56430120","longitude":"15.93910300"}]