[{"name":"Acul du Nord","latitude":"19.66667000","longitude":"-72.28333000"},{"name":"Arrondissement de Plaisance","latitude":"19.66756000","longitude":"-72.54908000"},{"name":"Arrondissement de la Grande Rivière du Nord","latitude":"19.51667000","longitude":"-72.16667000"},{"name":"Arrondissement du Borgne","latitude":"19.75000000","longitude":"-72.50000000"},{"name":"Bahon","latitude":"19.46959000","longitude":"-72.11466000"},{"name":"Borgne","latitude":"19.84507000","longitude":"-72.52349000"},{"name":"Dondon","latitude":"19.52734000","longitude":"-72.24337000"},{"name":"Grande Rivière du Nord","latitude":"19.57744000","longitude":"-72.16872000"},{"name":"Lenbe","latitude":"19.70603000","longitude":"-72.40336000"},{"name":"Limonade","latitude":"19.67014000","longitude":"-72.12430000"},{"name":"Milot","latitude":"19.60837000","longitude":"-72.21319000"},{"name":"Okap","latitude":"19.75938000","longitude":"-72.19815000"},{"name":"Pignon","latitude":"19.33594000","longitude":"-72.11662000"},{"name":"Pilate","latitude":"19.66745000","longitude":"-72.55229000"},{"name":"Plaine du Nord","latitude":"19.67707000","longitude":"-72.26969000"},{"name":"Plaisance","latitude":"19.59795000","longitude":"-72.46994000"},{"name":"Port-Margot","latitude":"19.75180000","longitude":"-72.43006000"},{"name":"Quartier Morin","latitude":"19.69696000","longitude":"-72.15712000"},{"name":"Ranquitte","latitude":"19.41327000","longitude":"-72.08077000"},{"name":"Saint-Raphaël","latitude":"19.43877000","longitude":"-72.19910000"}]