[{"name":"Armenia","latitude":"4.53307000","longitude":"-75.70438000"},{"name":"Buenavista","latitude":"4.35969000","longitude":"-75.73888000"},{"name":"Calarca","latitude":"4.50000000","longitude":"-75.63333000"},{"name":"Circasia","latitude":"4.59940000","longitude":"-75.68536000"},{"name":"Córdoba","latitude":"4.38055000","longitude":"-75.66685000"},{"name":"Filandia","latitude":"4.67525000","longitude":"-75.67142000"},{"name":"Génova","latitude":"4.22743000","longitude":"-75.75480000"},{"name":"La Tebaida","latitude":"4.43353000","longitude":"-75.81476000"},{"name":"Montenegro","latitude":"4.52676000","longitude":"-75.82265000"},{"name":"Pijao","latitude":"4.33350000","longitude":"-75.70463000"},{"name":"Quimbaya","latitude":"4.59342000","longitude":"-75.83758000"},{"name":"Salento","latitude":"4.63643000","longitude":"-75.56740000"}]