[{"name":"Changhua County","countryCode":"TW","fipsCode":"03","iso":"CHA","latitude":"24.05179630","longitude":"120.51613520"},{"name":"Chiayi City","countryCode":"TW","fipsCode":"02","iso":"CYQ","latitude":"23.48007510","longitude":"120.44911130"},{"name":"Chiayi County","countryCode":"TW","fipsCode":"03","iso":"CYI","latitude":"23.45184280","longitude":"120.25546150"},{"name":"Hsinchu","countryCode":"TW","fipsCode":"02","iso":"HSZ","latitude":"24.81382870","longitude":"120.96747980"},{"name":"Hsinchu County","countryCode":"TW","fipsCode":"03","iso":"HSQ","latitude":"24.83872260","longitude":"121.01772460"},{"name":"Hualien County","countryCode":"TW","fipsCode":"03","iso":"HUA","latitude":"23.98715890","longitude":"121.60157140"},{"name":"Kaohsiung","countryCode":"TW","fipsCode":"02","iso":"KHH","latitude":"22.62727840","longitude":"120.30143530"},{"name":"Kaohsiung County","countryCode":"TW","fipsCode":"03","iso":"KHQ","latitude":"22.62727840","longitude":"120.30143530"},{"name":"Kinmen","countryCode":"TW","fipsCode":"02","iso":"KIN","latitude":"24.34877920","longitude":"118.32856440"},{"name":"Lienchiang County","countryCode":"TW","fipsCode":"02","iso":"LIE","latitude":"26.15055560","longitude":"119.92888890"},{"name":"Miaoli County","countryCode":"TW","fipsCode":"02","iso":"MIA","latitude":"24.56015900","longitude":"120.82142650"},{"name":"Nantou County","countryCode":"TW","fipsCode":"03","iso":"NAN","latitude":"23.96099810","longitude":"120.97186380"},{"name":"Penghu County","countryCode":"TW","fipsCode":"03","iso":"PEN","latitude":"23.57118990","longitude":"119.57931570"},{"name":"Pingtung County","countryCode":"TW","fipsCode":"03","iso":"PIF","latitude":"22.55197590","longitude":"120.54875970"},{"name":"Taichung","countryCode":"TW","fipsCode":"03","iso":"TXG","latitude":"24.14773580","longitude":"120.67364820"},{"name":"Taichung County","countryCode":"TW","fipsCode":"02","iso":"TXQ","latitude":"24.14773580","longitude":"120.67364820"},{"name":"Tainan","countryCode":"TW","fipsCode":"02","iso":"TNN","latitude":"22.99972810","longitude":"120.22702770"},{"name":"Tainan County","countryCode":"TW","fipsCode":"03","iso":"TNQ","latitude":"22.99972810","longitude":"120.22702770"},{"name":"Taipei","countryCode":"TW","fipsCode":"03","iso":"TPE","latitude":"25.03296940","longitude":"121.56541770"},{"name":"Taitung County","countryCode":"TW","fipsCode":"03","iso":"TTT","latitude":"22.79724470","longitude":"121.07137020"},{"name":"Taoyuan City","countryCode":"TW","fipsCode":"02","iso":"TAO","latitude":"24.99362810","longitude":"121.30097980"},{"name":"Yilan County","countryCode":"TW","fipsCode":"03","iso":"ILA","latitude":"24.70210730","longitude":"121.73775020"},{"name":"Yunlin County","countryCode":"TW","fipsCode":"02","iso":"YUN","latitude":"23.70920330","longitude":"120.43133730"}]