[{"name":"Al ‘Amādīyah","latitude":"37.09214000","longitude":"43.48769000"},{"name":"Batifa","latitude":"37.17454000","longitude":"43.01233000"},{"name":"Dihok","latitude":"36.86709000","longitude":"42.98845000"},{"name":"Sīnah","latitude":"36.80851000","longitude":"43.03935000"},{"name":"Zaxo","latitude":"37.14871000","longitude":"42.68591000"}]