[{"name":"Abram","latitude":"47.31667000","longitude":"22.38333000"},{"name":"Abrămuţ","latitude":"47.31667000","longitude":"22.25000000"},{"name":"Albiș","latitude":"47.39024000","longitude":"22.24528000"},{"name":"Aleşd","latitude":"47.06667000","longitude":"22.41667000"},{"name":"Alparea","latitude":"47.03054000","longitude":"22.04812000"},{"name":"Auşeu","latitude":"47.03333000","longitude":"22.50000000"},{"name":"Avram Iancu","latitude":"46.66944000","longitude":"21.52417000"},{"name":"Aştileu","latitude":"47.03333000","longitude":"22.38333000"},{"name":"Balc","latitude":"47.28333000","longitude":"22.53333000"},{"name":"Batăr","latitude":"46.70000000","longitude":"21.81667000"},{"name":"Beiuş","latitude":"46.66667000","longitude":"22.35000000"},{"name":"Beznea","latitude":"46.95967000","longitude":"22.61954000"},{"name":"Biharia","latitude":"47.15000000","longitude":"21.91667000"},{"name":"Bistra","latitude":"47.25478000","longitude":"22.42295000"},{"name":"Bogei","latitude":"47.26550000","longitude":"22.36079000"},{"name":"Boianu Mare","latitude":"47.38333000","longitude":"22.53333000"},{"name":"Borod","latitude":"46.98333000","longitude":"22.63333000"},{"name":"Borş","latitude":"47.11667000","longitude":"21.81667000"},{"name":"Bratca","latitude":"46.93333000","longitude":"22.61667000"},{"name":"Brusturi","latitude":"47.15000000","longitude":"22.25000000"},{"name":"Budureasa","latitude":"46.66667000","longitude":"22.50000000"},{"name":"Buduslău","latitude":"47.40000000","longitude":"22.26667000"},{"name":"Bulz","latitude":"46.91667000","longitude":"22.68333000"},{"name":"Bunteşti","latitude":"46.61667000","longitude":"22.46667000"},{"name":"Burzuc","latitude":"47.15552000","longitude":"22.17096000"},{"name":"Bălnaca","latitude":"46.94384000","longitude":"22.57206000"},{"name":"Cadea","latitude":"47.31185000","longitude":"22.06225000"},{"name":"Cefa","latitude":"46.91667000","longitude":"21.73333000"},{"name":"Ceica","latitude":"46.85000000","longitude":"22.18333000"},{"name":"Cetariu","latitude":"47.13333000","longitude":"22.01667000"},{"name":"Cherechiu","latitude":"47.38333000","longitude":"22.13333000"},{"name":"Cheșereu","latitude":"47.42779000","longitude":"22.11416000"},{"name":"Cheț","latitude":"47.41943000","longitude":"22.33877000"},{"name":"Chişlaz","latitude":"47.28333000","longitude":"22.23333000"},{"name":"Ciumeghiu","latitude":"46.73333000","longitude":"21.58333000"},{"name":"Ciutelec","latitude":"47.26200000","longitude":"22.38690000"},{"name":"Cociuba Mare","latitude":"46.73333000","longitude":"22.00000000"},{"name":"Comuna Abram","latitude":"47.32443000","longitude":"22.42023000"},{"name":"Comuna Abrămuţ","latitude":"47.33346000","longitude":"22.25607000"},{"name":"Comuna Auşeu","latitude":"47.04398000","longitude":"22.50835000"},{"name":"Comuna Avram Iancu","latitude":"46.66944000","longitude":"21.52417000"},{"name":"Comuna Aştileu","latitude":"47.02217000","longitude":"22.38444000"},{"name":"Comuna Balc","latitude":"47.31135000","longitude":"22.49954000"},{"name":"Comuna Batăr","latitude":"46.71431000","longitude":"21.79161000"},{"name":"Comuna Biharia","latitude":"47.16001000","longitude":"21.93299000"},{"name":"Comuna Boianu Mare","latitude":"47.37481000","longitude":"22.52507000"},{"name":"Comuna Borod","latitude":"47.00503000","longitude":"22.60907000"},{"name":"Comuna Borş","latitude":"47.13073000","longitude":"21.83139000"},{"name":"Comuna Bratca","latitude":"46.91794000","longitude":"22.61825000"},{"name":"Comuna Brusturi","latitude":"47.14410000","longitude":"22.26514000"},{"name":"Comuna Budureasa","latitude":"46.66968000","longitude":"22.46418000"},{"name":"Comuna Buduslău","latitude":"47.39559000","longitude":"22.25387000"},{"name":"Comuna Bulz","latitude":"46.85280000","longitude":"22.66659000"},{"name":"Comuna Bunteşti","latitude":"46.60703000","longitude":"22.50202000"},{"name":"Comuna Cefa","latitude":"46.90898000","longitude":"21.69410000"},{"name":"Comuna Ceica","latitude":"46.86444000","longitude":"22.18165000"},{"name":"Comuna Cetariu","latitude":"47.15015000","longitude":"22.05458000"},{"name":"Comuna Cherechiu","latitude":"47.39930000","longitude":"22.13550000"},{"name":"Comuna Chişlaz","latitude":"47.26657000","longitude":"22.23300000"},{"name":"Comuna Ciumeghiu","latitude":"46.71025000","longitude":"21.62604000"},{"name":"Comuna Cociuba Mare","latitude":"46.72899000","longitude":"22.03966000"},{"name":"Comuna Copăcel","latitude":"46.97234000","longitude":"22.16731000"},{"name":"Comuna Criștioru de Jos","latitude":"46.42333000","longitude":"22.56565000"},{"name":"Comuna Curtuişeni","latitude":"47.53247000","longitude":"22.22961000"},{"name":"Comuna Curăţele","latitude":"46.70310000","longitude":"22.43719000"},{"name":"Comuna Câmpani","latitude":"46.52443000","longitude":"22.52744000"},{"name":"Comuna Cãpâlna","latitude":"46.73682000","longitude":"22.11114000"},{"name":"Comuna Căbeşti","latitude":"46.76593000","longitude":"22.37157000"},{"name":"Comuna Cărpinet","latitude":"46.44163000","longitude":"22.48917000"},{"name":"Comuna Derna","latitude":"47.20800000","longitude":"22.28821000"},{"name":"Comuna Diosig","latitude":"47.29561000","longitude":"21.99354000"},{"name":"Comuna Dobreşti","latitude":"46.84465000","longitude":"22.26931000"},{"name":"Comuna Drăgeşti","latitude":"46.90374000","longitude":"22.12533000"},{"name":"Comuna Drăgăneşti","latitude":"46.63469000","longitude":"22.40824000"},{"name":"Comuna Finiş","latitude":"46.64312000","longitude":"22.27621000"},{"name":"Comuna Gepiu","latitude":"46.91616000","longitude":"21.78903000"},{"name":"Comuna Girişu de Criş","latitude":"47.07118000","longitude":"21.76861000"},{"name":"Comuna Hidişelu De Sus","latitude":"46.92893000","longitude":"22.02467000"},{"name":"Comuna Holod","latitude":"46.79584000","longitude":"22.11471000"},{"name":"Comuna Husasău de Tinca","latitude":"46.84896000","longitude":"21.91914000"},{"name":"Comuna Ineu","latitude":"47.09119000","longitude":"22.10816000"},{"name":"Comuna Lazuri de Beiuş","latitude":"46.59381000","longitude":"22.39675000"},{"name":"Comuna Lugaşu De Jos","latitude":"47.06992000","longitude":"22.32929000"},{"name":"Comuna Lunca","latitude":"46.51645000","longitude":"22.45486000"},{"name":"Comuna Lăzăreni","latitude":"46.85956000","longitude":"22.06685000"},{"name":"Comuna Mădăraş","latitude":"46.84296000","longitude":"21.72080000"},{"name":"Comuna Măgeşti","latitude":"47.00929000","longitude":"22.45330000"},{"name":"Comuna Nojorid","latitude":"46.97144000","longitude":"21.87747000"},{"name":"Comuna Olcea","latitude":"46.66090000","longitude":"21.98452000"},{"name":"Comuna Oşorhei","latitude":"47.02748000","longitude":"22.04490000"},{"name":"Comuna Paleu","latitude":"47.10762000","longitude":"21.97748000"},{"name":"Comuna Pietroasa","latitude":"46.58383000","longitude":"22.63371000"},{"name":"Comuna Pocola","latitude":"46.69894000","longitude":"22.29593000"},{"name":"Comuna Pomezeu","latitude":"46.79113000","longitude":"22.30018000"},{"name":"Comuna Popeşti","latitude":"47.22088000","longitude":"22.41515000"},{"name":"Comuna Remetea","latitude":"46.72956000","longitude":"22.35276000"},{"name":"Comuna Rieni","latitude":"46.56878000","longitude":"22.44508000"},{"name":"Comuna Roşia","latitude":"46.79896000","longitude":"22.40529000"},{"name":"Comuna Roşiori","latitude":"47.25579000","longitude":"21.96166000"},{"name":"Comuna Răbăgani","latitude":"46.75432000","longitude":"22.24302000"},{"name":"Comuna Spinuş","latitude":"47.20209000","longitude":"22.20217000"},{"name":"Comuna Suplacu de Barcău","latitude":"47.24335000","longitude":"22.49235000"},{"name":"Comuna Sâmbăta","latitude":"46.79819000","longitude":"22.20489000"},{"name":"Comuna Sâniob","latitude":"47.24558000","longitude":"22.12533000"},{"name":"Comuna Sânmartin","latitude":"46.99058000","longitude":"21.98565000"},{"name":"Comuna Sânnicolau-Român","latitude":"46.96414000","longitude":"21.71886000"},{"name":"Comuna Sântandrei","latitude":"47.06498000","longitude":"21.83947000"},{"name":"Comuna Sârbi","latitude":"47.19030000","longitude":"22.13789000"},{"name":"Comuna Săcădat","latitude":"47.04710000","longitude":"22.15892000"},{"name":"Comuna Sălacea","latitude":"47.44844000","longitude":"22.27208000"},{"name":"Comuna Sălard","latitude":"47.23151000","longitude":"22.02068000"},{"name":"Comuna Tarcea","latitude":"47.45767000","longitude":"22.18937000"},{"name":"Comuna Tileagd","latitude":"47.06556000","longitude":"22.20707000"},{"name":"Comuna Tinca","latitude":"46.76310000","longitude":"21.93640000"},{"name":"Comuna Toboliu","latitude":"47.04042000","longitude":"21.70320000"},{"name":"Comuna Tulca","latitude":"46.78881000","longitude":"21.79763000"},{"name":"Comuna Tãmãşeu","latitude":"47.22096000","longitude":"21.90399000"},{"name":"Comuna Tărcaia","latitude":"46.61041000","longitude":"22.36364000"},{"name":"Comuna Tăuteu","latitude":"47.28131000","longitude":"22.35612000"},{"name":"Comuna Uileacu de Beiuş","latitude":"46.70215000","longitude":"22.22417000"},{"name":"Comuna Vadu Crişului","latitude":"46.97192000","longitude":"22.50274000"},{"name":"Comuna Viişoara","latitude":"47.38333000","longitude":"22.45000000"},{"name":"Comuna Vârciorog","latitude":"46.96551000","longitude":"22.29681000"},{"name":"Comuna Şimian","latitude":"47.46477000","longitude":"22.05881000"},{"name":"Comuna Şinteu","latitude":"47.14585000","longitude":"22.50629000"},{"name":"Comuna Şoimi","latitude":"46.67063000","longitude":"22.13427000"},{"name":"Comuna Şuncuiuş","latitude":"46.92521000","longitude":"22.53323000"},{"name":"Comuna Ţeţchea","latitude":"47.03659000","longitude":"22.29798000"},{"name":"Copăcel","latitude":"46.98333000","longitude":"22.16667000"},{"name":"Cordău","latitude":"46.95000000","longitude":"21.98333000"},{"name":"Criştioru de Jos","latitude":"46.41937000","longitude":"22.53457000"},{"name":"Cubulcut","latitude":"47.32270000","longitude":"22.18648000"},{"name":"Curtuișeni","latitude":"47.54633000","longitude":"22.20263000"},{"name":"Curăţele","latitude":"46.70000000","longitude":"22.41667000"},{"name":"Cuzap","latitude":"47.20288000","longitude":"22.41523000"},{"name":"Câmpani","latitude":"46.51415000","longitude":"22.52186000"},{"name":"Câmpani de Pomezeu","latitude":"46.80000000","longitude":"22.31667000"},{"name":"Căbeşti","latitude":"46.76667000","longitude":"22.36667000"},{"name":"Călacea","latitude":"46.67687000","longitude":"21.93292000"},{"name":"Căpâlna","latitude":"46.73333000","longitude":"22.10000000"},{"name":"Cărpinet","latitude":"46.45000000","longitude":"22.48333000"},{"name":"Derna","latitude":"47.20000000","longitude":"22.30000000"},{"name":"Diosig","latitude":"47.30000000","longitude":"22.00000000"},{"name":"Dobreşti","latitude":"46.85000000","longitude":"22.30000000"},{"name":"Drăgeşti","latitude":"46.88333000","longitude":"22.13333000"},{"name":"Drăgăneşti","latitude":"46.61667000","longitude":"22.38333000"},{"name":"Finiş","latitude":"46.63333000","longitude":"22.31667000"},{"name":"Foglaş","latitude":"47.25000000","longitude":"22.53333000"},{"name":"Forău","latitude":"46.71070000","longitude":"22.20113000"},{"name":"Galoșpetreu","latitude":"47.48345000","longitude":"22.21730000"},{"name":"Gepiu","latitude":"46.93034000","longitude":"21.79016000"},{"name":"Ghighișeni","latitude":"46.55141000","longitude":"22.43148000"},{"name":"Ghiorac","latitude":"46.71340000","longitude":"21.68309000"},{"name":"Girișu de Criș","latitude":"47.06416000","longitude":"21.76108000"},{"name":"Groși","latitude":"47.04525000","longitude":"22.47965000"},{"name":"Gurbediu","latitude":"46.79379000","longitude":"21.86480000"},{"name":"Hidişelu de Sus","latitude":"46.95000000","longitude":"22.05000000"},{"name":"Holod","latitude":"46.78333000","longitude":"22.13333000"},{"name":"Hotar","latitude":"47.01967000","longitude":"22.28515000"},{"name":"Husasău de Tinca","latitude":"46.81667000","longitude":"21.91667000"},{"name":"Ianoșda","latitude":"46.83791000","longitude":"21.80778000"},{"name":"Ineu","latitude":"47.08333000","longitude":"22.11667000"},{"name":"Lazuri de Beiuş","latitude":"46.58333000","longitude":"22.40000000"},{"name":"Livada de Bihor","latitude":"47.01039000","longitude":"21.80836000"},{"name":"Lugaşu de Jos","latitude":"47.06667000","longitude":"22.35000000"},{"name":"Lunca","latitude":"46.51667000","longitude":"22.46667000"},{"name":"Luncșoara","latitude":"47.03663000","longitude":"22.54213000"},{"name":"Lăzăreni","latitude":"46.86667000","longitude":"22.06667000"},{"name":"Marghita","latitude":"47.35000000","longitude":"22.33333000"},{"name":"Meziad","latitude":"46.74090000","longitude":"22.42846000"},{"name":"Mihai Bravu","latitude":"47.25780000","longitude":"21.93811000"},{"name":"Mișca","latitude":"47.26291000","longitude":"22.25914000"},{"name":"Municipiul Beiuş","latitude":"46.68074000","longitude":"22.34566000"},{"name":"Municipiul Marghita","latitude":"47.34534000","longitude":"22.33452000"},{"name":"Municipiul Oradea","latitude":"47.05353000","longitude":"21.93633000"},{"name":"Municipiul Salonta","latitude":"46.80283000","longitude":"21.66415000"},{"name":"Mădăraş","latitude":"46.83333000","longitude":"21.68333000"},{"name":"Măgeşti","latitude":"47.01667000","longitude":"22.45000000"},{"name":"Nojorid","latitude":"46.98333000","longitude":"21.88333000"},{"name":"Nucet","latitude":"46.48732000","longitude":"22.55850000"},{"name":"Olcea","latitude":"46.68333000","longitude":"21.98333000"},{"name":"Oradea","latitude":"47.04580000","longitude":"21.91833000"},{"name":"Oraş Nucet","latitude":"46.48496000","longitude":"22.58901000"},{"name":"Oraş Sãcueni","latitude":"47.32996000","longitude":"22.11802000"},{"name":"Oraş Valea Lui Mihai","latitude":"47.52099000","longitude":"22.13196000"},{"name":"Oraş Vaşcãu","latitude":"46.47493000","longitude":"22.46292000"},{"name":"Oraş Ştei","latitude":"46.53767000","longitude":"22.45795000"},{"name":"Oraș Aleşd","latitude":"47.08772000","longitude":"22.41384000"},{"name":"Oșorhei","latitude":"47.03333000","longitude":"22.05000000"},{"name":"Paleu","latitude":"47.11531000","longitude":"21.95929000"},{"name":"Petreu","latitude":"47.33738000","longitude":"22.29607000"},{"name":"Peștiș","latitude":"47.07252000","longitude":"22.41226000"},{"name":"Pietroasa","latitude":"46.58333000","longitude":"22.55000000"},{"name":"Pocola","latitude":"46.68333000","longitude":"22.28333000"},{"name":"Pomezeu","latitude":"46.78333000","longitude":"22.28333000"},{"name":"Popeşti","latitude":"47.23333000","longitude":"22.41667000"},{"name":"Pădurea Neagră","latitude":"47.16554000","longitude":"22.41323000"},{"name":"Remetea","latitude":"46.73333000","longitude":"22.35000000"},{"name":"Rieni","latitude":"46.57485000","longitude":"22.44584000"},{"name":"Roşia","latitude":"46.80000000","longitude":"22.40000000"},{"name":"Roșiori","latitude":"47.25677000","longitude":"21.95209000"},{"name":"Răbăgani","latitude":"46.75000000","longitude":"22.23333000"},{"name":"Salonta","latitude":"46.80000000","longitude":"21.65000000"},{"name":"Spinuş","latitude":"47.20000000","longitude":"22.20000000"},{"name":"Suplacu de Barcău","latitude":"47.25729000","longitude":"22.53195000"},{"name":"Sâmbăta","latitude":"46.80173000","longitude":"22.20357000"},{"name":"Sâniob","latitude":"47.26461000","longitude":"22.12778000"},{"name":"Sânnicolau Român","latitude":"46.96101000","longitude":"21.71466000"},{"name":"Tămașda","latitude":"46.64453000","longitude":"21.55685000"},{"name":"Tămășeu","latitude":"47.22116000","longitude":"21.92760000"},{"name":"Tărcaia","latitude":"46.63333000","longitude":"22.36667000"},{"name":"Tăut","latitude":"46.71990000","longitude":"21.83845000"},{"name":"Tăuteu","latitude":"47.26667000","longitude":"22.33333000"},{"name":"Tășad","latitude":"46.93773000","longitude":"22.12516000"},{"name":"Uileacu de Beiuș","latitude":"46.68532000","longitude":"22.22148000"},{"name":"Vadu Crişului","latitude":"46.98333000","longitude":"22.51667000"},{"name":"Valea lui Mihai","latitude":"47.51667000","longitude":"22.15000000"},{"name":"Vaşcău","latitude":"46.46667000","longitude":"22.46667000"},{"name":"Viişoara","latitude":"47.38333000","longitude":"22.45000000"},{"name":"Vintere","latitude":"46.76883000","longitude":"22.14652000"},{"name":"Voivozi","latitude":"47.21562000","longitude":"22.39024000"},{"name":"Vârciorog","latitude":"46.96667000","longitude":"22.30000000"},{"name":"Vășad","latitude":"47.51860000","longitude":"22.25660000"},{"name":"Şimian","latitude":"47.48333000","longitude":"22.10000000"},{"name":"Şinteu","latitude":"47.15000000","longitude":"22.48333000"},{"name":"Şoimi","latitude":"46.68333000","longitude":"22.11667000"},{"name":"Şuncuiuş","latitude":"46.93333000","longitude":"22.53333000"},{"name":"Șilindru","latitude":"47.43725000","longitude":"22.04683000"},{"name":"Ștei","latitude":"46.53333000","longitude":"22.45000000"},{"name":"Sântandrei","latitude":"47.06615000","longitude":"21.85352000"},{"name":"Sântion","latitude":"47.09634000","longitude":"21.83660000"},{"name":"Sârbi","latitude":"47.19315000","longitude":"22.12215000"},{"name":"Sînmartin","latitude":"47.00726000","longitude":"21.97418000"},{"name":"Săcueni","latitude":"47.35000000","longitude":"22.10000000"},{"name":"Săcădat","latitude":"47.03333000","longitude":"22.15000000"},{"name":"Sălacea","latitude":"47.46667000","longitude":"22.31667000"},{"name":"Sălard","latitude":"47.21667000","longitude":"22.05000000"},{"name":"Talpoș","latitude":"46.69124000","longitude":"21.80335000"},{"name":"Tarcea","latitude":"47.45000000","longitude":"22.18333000"},{"name":"Tileagd","latitude":"47.06667000","longitude":"22.20000000"},{"name":"Tinca","latitude":"46.77529000","longitude":"21.93300000"},{"name":"Toboliu","latitude":"47.04182000","longitude":"21.71946000"},{"name":"Tulca","latitude":"46.78333000","longitude":"21.78333000"}]