[{"name":"Agadez","latitude":"16.97333000","longitude":"7.99111000"},{"name":"Alaghsas","latitude":"17.01870000","longitude":"8.01680000"},{"name":"Arlit","latitude":"18.83409000","longitude":"7.43327000"},{"name":"Bilma","latitude":"18.68532000","longitude":"12.91643000"},{"name":"Département de Bilma","latitude":"20.50000000","longitude":"13.25000000"},{"name":"Département de Tchirozérine","latitude":"17.43293000","longitude":"7.89321000"}]