[{"name":"Carmelo","latitude":"-34.00023000","longitude":"-58.28402000"},{"name":"Colonia del Sacramento","latitude":"-34.46262000","longitude":"-57.83976000"},{"name":"Florencio Sánchez","latitude":"-33.87785000","longitude":"-57.37166000"},{"name":"Juan L. Lacaze","latitude":"-34.41888000","longitude":"-57.45285000"},{"name":"Nueva Helvecia","latitude":"-34.30000000","longitude":"-57.23333000"},{"name":"Nueva Palmira","latitude":"-33.87031000","longitude":"-58.41176000"},{"name":"Ombúes de Lavalle","latitude":"-33.93783000","longitude":"-57.80959000"},{"name":"Rosario","latitude":"-34.31667000","longitude":"-57.35000000"},{"name":"Tarariras","latitude":"-34.26555000","longitude":"-57.61866000"}]