[{"name":"El Rosario","latitude":"13.49778000","longitude":"-89.02972000"},{"name":"Olocuilta","latitude":"13.56972000","longitude":"-89.11722000"},{"name":"San Pedro Masahuat","latitude":"13.54361000","longitude":"-89.03861000"},{"name":"Santiago Nonualco","latitude":"13.51667000","longitude":"-88.95000000"},{"name":"Zacatecoluca","latitude":"13.50000000","longitude":"-88.86667000"}]