[{"name":"AL-khashā upper","latitude":"14.34044000","longitude":"46.71365000"},{"name":"Ain","latitude":"14.95030000","longitude":"45.60040000"},{"name":"Al Talh","latitude":"15.08260000","longitude":"47.35140000"},{"name":"Al ‘Āqir","latitude":"14.56816000","longitude":"45.91156000"},{"name":"Ar Rawdah","latitude":"14.49560000","longitude":"47.27460000"},{"name":"Arma","latitude":"15.41270000","longitude":"47.23450000"},{"name":"As Said","latitude":"14.27660000","longitude":"46.86930000"},{"name":"Ataq","latitude":"14.53767000","longitude":"46.83187000"},{"name":"Bayhan","latitude":"14.76190000","longitude":"45.74820000"},{"name":"Dhar","latitude":"15.50360000","longitude":"47.60580000"},{"name":"Habban","latitude":"14.28780000","longitude":"47.13610000"},{"name":"Hatib","latitude":"14.18020000","longitude":"46.44390000"},{"name":"Jardan","latitude":"15.19000000","longitude":"46.73380000"},{"name":"Khimār","latitude":"14.31980000","longitude":"46.73922000"},{"name":"Mayfa'a","latitude":"14.39780000","longitude":"47.74040000"},{"name":"Merkhah Al Ulya","latitude":"14.48470000","longitude":"45.92990000"},{"name":"Merkhah As Sufla","latitude":"14.69990000","longitude":"46.15630000"},{"name":"Nisab","latitude":"14.52570000","longitude":"46.44770000"},{"name":"Rudum","latitude":"14.03759000","longitude":"47.83824000"},{"name":"Usaylan","latitude":"15.17030000","longitude":"46.02740000"}]