[{"name":"Alajuela","latitude":"10.01625000","longitude":"-84.21163000"},{"name":"Atenas","latitude":"9.98333000","longitude":"-84.38333000"},{"name":"Bijagua","latitude":"10.73279000","longitude":"-85.05676000"},{"name":"Carrillos","latitude":"10.02918000","longitude":"-84.27403000"},{"name":"Desamparados","latitude":"9.94727000","longitude":"-84.50626000"},{"name":"Esquipulas","latitude":"10.05676000","longitude":"-84.42337000"},{"name":"Grecia","latitude":"10.06892000","longitude":"-84.31458000"},{"name":"Guatuso","latitude":"10.66667000","longitude":"-84.83333000"},{"name":"La Fortuna","latitude":"10.47089000","longitude":"-84.64535000"},{"name":"Los Chiles","latitude":"10.86667000","longitude":"-84.66667000"},{"name":"Naranjo","latitude":"10.11667000","longitude":"-84.40000000"},{"name":"Orotina","latitude":"9.90000000","longitude":"-84.56667000"},{"name":"Palmares","latitude":"10.03333000","longitude":"-84.43333000"},{"name":"Pital","latitude":"10.45056000","longitude":"-84.27406000"},{"name":"Pocosol","latitude":"10.36667000","longitude":"-84.61667000"},{"name":"Poás","latitude":"10.08333000","longitude":"-84.23333000"},{"name":"Quesada","latitude":"10.32381000","longitude":"-84.42714000"},{"name":"Río Segundo","latitude":"10.24138000","longitude":"-84.27933000"},{"name":"Sabanilla","latitude":"10.07404000","longitude":"-84.21551000"},{"name":"San Carlos","latitude":"10.58333000","longitude":"-84.41667000"},{"name":"San José","latitude":"10.95173000","longitude":"-85.13610000"},{"name":"San Juan","latitude":"10.10248000","longitude":"-84.31694000"},{"name":"San Mateo","latitude":"9.95000000","longitude":"-84.51667000"},{"name":"San Rafael","latitude":"10.06403000","longitude":"-84.47281000"},{"name":"San Ramón","latitude":"10.08718000","longitude":"-84.47044000"},{"name":"Santiago","latitude":"10.02275000","longitude":"-84.44420000"},{"name":"Upala","latitude":"10.85000000","longitude":"-85.16667000"},{"name":"Valverde Vega","latitude":"10.18721000","longitude":"-84.30290000"},{"name":"Zarcero","latitude":"10.20000000","longitude":"-84.40000000"}]