[{"name":"Amphoe Bang Pla Ma","latitude":"14.34985000","longitude":"100.14479000"},{"name":"Amphoe Dan Chang","latitude":"14.88388000","longitude":"99.51642000"},{"name":"Amphoe Doembang Nangbuat","latitude":"14.87394000","longitude":"100.04669000"},{"name":"Amphoe Don Chedi","latitude":"14.64804000","longitude":"99.94734000"},{"name":"Amphoe Mueang Suphan Buri","latitude":"14.49189000","longitude":"100.07458000"},{"name":"Amphoe Nong Yasai","latitude":"14.77644000","longitude":"99.85751000"},{"name":"Amphoe Si Prachan","latitude":"14.63810000","longitude":"100.15050000"},{"name":"Amphoe Song Phi Nong","latitude":"14.18895000","longitude":"99.97580000"},{"name":"Amphoe U Thong","latitude":"14.41093000","longitude":"99.88949000"},{"name":"Ban Sam Chuk","latitude":"14.74219000","longitude":"100.09531000"},{"name":"Doembang Nangbuat","latitude":"14.83333000","longitude":"100.10000000"},{"name":"Suphan Buri","latitude":"14.47418000","longitude":"100.12218000"}]