[{"name":"Amphoe Chiang Khan","latitude":"17.82441000","longitude":"101.73424000"},{"name":"Amphoe Dan Sai","latitude":"17.22101000","longitude":"101.22373000"},{"name":"Amphoe Erawan","latitude":"17.28823000","longitude":"101.97443000"},{"name":"Amphoe Mueang Loei","latitude":"17.54211000","longitude":"101.71932000"},{"name":"Amphoe Na Duang","latitude":"17.53833000","longitude":"101.99639000"},{"name":"Amphoe Na Haeo","latitude":"17.43942000","longitude":"100.99654000"},{"name":"Amphoe Nong Hin","latitude":"17.08087000","longitude":"101.82643000"},{"name":"Amphoe Pak Chom","latitude":"17.91100000","longitude":"101.95777000"},{"name":"Amphoe Pha Khao","latitude":"17.05638000","longitude":"102.01575000"},{"name":"Amphoe Phu Kradueng","latitude":"16.90190000","longitude":"101.84562000"},{"name":"Amphoe Phu Luang","latitude":"17.09782000","longitude":"101.64413000"},{"name":"Amphoe Phu Ruea","latitude":"17.35076000","longitude":"101.41329000"},{"name":"Amphoe Tha Li","latitude":"17.61279000","longitude":"101.44141000"},{"name":"Amphoe Wang Saphung","latitude":"17.28028000","longitude":"101.73342000"},{"name":"Loei","latitude":"17.49052000","longitude":"101.72749000"},{"name":"Phu Kradueng","latitude":"16.88425000","longitude":"101.88467000"},{"name":"Wang Saphung","latitude":"17.30097000","longitude":"101.76850000"}]