[
    {
        "name": "Andaman and Nicobar Islands",
        "countryCode": "IN",
        "fipsCode": "01",
        "iso": "AN",
        "latitude": "11.74008670",
        "longitude": "92.65864010"
    },
    {
        "name": "Andhra Pradesh",
        "countryCode": "IN",
        "fipsCode": "02",
        "iso": "AP",
        "latitude": "15.91289980",
        "longitude": "79.73998750"
    },
    {
        "name": "Arunachal Pradesh",
        "countryCode": "IN",
        "fipsCode": "30",
        "iso": "AR",
        "latitude": "28.21799940",
        "longitude": "94.72775280"
    },
    {
        "name": "Assam",
        "countryCode": "IN",
        "fipsCode": "03",
        "iso": "AS",
        "latitude": "26.20060430",
        "longitude": "92.93757390"
    },
    {
        "name": "Bihar",
        "countryCode": "IN",
        "fipsCode": "34",
        "iso": "BR",
        "latitude": "25.09607420",
        "longitude": "85.31311940"
    },
    {
        "name": "Chandigarh",
        "countryCode": "IN",
        "fipsCode": "05",
        "iso": "CH",
        "latitude": "30.73331480",
        "longitude": "76.77941790"
    },
    {
        "name": "Chhattisgarh",
        "countryCode": "IN",
        "fipsCode": "37",
        "iso": "CT",
        "latitude": "21.27865670",
        "longitude": "81.86614420"
    },
    {
        "name": "Dadra and Nagar Haveli and Daman and Diu",
        "countryCode": "IN",
        "fipsCode": "32",
        "iso": "DH",
        "latitude": "20.39737360",
        "longitude": "72.83279910"
    },
    {
        "name": "Delhi",
        "countryCode": "IN",
        "fipsCode": "07",
        "iso": "DL",
        "latitude": "28.70405920",
        "longitude": "77.10249020"
    },
    {
        "name": "Goa",
        "countryCode": "IN",
        "fipsCode": "33",
        "iso": "GA",
        "latitude": "15.29932650",
        "longitude": "74.12399600"
    },
    {
        "name": "Gujarat",
        "countryCode": "IN",
        "fipsCode": "09",
        "iso": "GJ",
        "latitude": "22.25865200",
        "longitude": "71.19238050"
    },
    {
        "name": "Haryana",
        "countryCode": "IN",
        "fipsCode": "10",
        "iso": "HR",
        "latitude": "29.05877570",
        "longitude": "76.08560100"
    },
    {
        "name": "Himachal Pradesh",
        "countryCode": "IN",
        "fipsCode": "11",
        "iso": "HP",
        "latitude": "31.10482940",
        "longitude": "77.17339010"
    },
    {
        "name": "Jammu and Kashmir",
        "countryCode": "IN",
        "fipsCode": "12",
        "iso": "JK",
        "latitude": "33.27783900",
        "longitude": "75.34121790"
    },
    {
        "name": "Jharkhand",
        "countryCode": "IN",
        "fipsCode": "38",
        "iso": "JH",
        "latitude": "23.61018080",
        "longitude": "85.27993540"
    },
    {
        "name": "Karnataka",
        "countryCode": "IN",
        "fipsCode": "19",
        "iso": "KA",
        "latitude": "15.31727750",
        "longitude": "75.71388840"
    },
    {
        "name": "Kerala",
        "countryCode": "IN",
        "fipsCode": "13",
        "iso": "KL",
        "latitude": "10.85051590",
        "longitude": "76.27108330"
    },
    {
        "name": "Ladakh",
        "countryCode": "IN",
        "fipsCode": null,
        "iso": "LA",
        "latitude": "34.22684750",
        "longitude": "77.56194190"
    },
    {
        "name": "Lakshadweep",
        "countryCode": "IN",
        "fipsCode": "14",
        "iso": "LD",
        "latitude": "10.32802650",
        "longitude": "72.78463360"
    },
    {
        "name": "Madhya Pradesh",
        "countryCode": "IN",
        "fipsCode": "35",
        "iso": "MP",
        "latitude": "22.97342290",
        "longitude": "78.65689420"
    },
    {
        "name": "Maharashtra",
        "countryCode": "IN",
        "fipsCode": "16",
        "iso": "MH",
        "latitude": "19.75147980",
        "longitude": "75.71388840"
    },
    {
        "name": "Manipur",
        "countryCode": "IN",
        "fipsCode": "17",
        "iso": "MN",
        "latitude": "24.66371730",
        "longitude": "93.90626880"
    },
    {
        "name": "Meghalaya",
        "countryCode": "IN",
        "fipsCode": "18",
        "iso": "ML",
        "latitude": "25.46703080",
        "longitude": "91.36621600"
    },
    {
        "name": "Mizoram",
        "countryCode": "IN",
        "fipsCode": "31",
        "iso": "MZ",
        "latitude": "23.16454300",
        "longitude": "92.93757390"
    },
    {
        "name": "Nagaland",
        "countryCode": "IN",
        "fipsCode": "20",
        "iso": "NL",
        "latitude": "26.15843540",
        "longitude": "94.56244260"
    },
    {
        "name": "Odisha",
        "countryCode": "IN",
        "fipsCode": "21",
        "iso": "OR",
        "latitude": "20.95166580",
        "longitude": "85.09852360"
    },
    {
        "name": "Puducherry",
        "countryCode": "IN",
        "fipsCode": "22",
        "iso": "PY",
        "latitude": "11.94159150",
        "longitude": "79.80831330"
    },
    {
        "name": "Punjab",
        "countryCode": "IN",
        "fipsCode": "23",
        "iso": "PB",
        "latitude": null,
        "longitude": null
    },
    {
        "name": "Rajasthan",
        "countryCode": "IN",
        "fipsCode": "24",
        "iso": "RJ",
        "latitude": "27.02380360",
        "longitude": "74.21793260"
    },
    {
        "name": "Sikkim",
        "countryCode": "IN",
        "fipsCode": "29",
        "iso": "SK",
        "latitude": "27.53297180",
        "longitude": "88.51221780"
    },
    {
        "name": "Tamil Nadu",
        "countryCode": "IN",
        "fipsCode": "25",
        "iso": "TN",
        "latitude": "11.12712250",
        "longitude": "78.65689420"
    },
    {
        "name": "Telangana",
        "countryCode": "IN",
        "fipsCode": "40",
        "iso": "TG",
        "latitude": "18.11243720",
        "longitude": "79.01929970"
    },
    {
        "name": "Tripura",
        "countryCode": "IN",
        "fipsCode": "26",
        "iso": "TR",
        "latitude": "23.94084820",
        "longitude": "91.98815270"
    },
    {
        "name": "Uttar Pradesh",
        "countryCode": "IN",
        "fipsCode": "36",
        "iso": "UP",
        "latitude": "26.84670880",
        "longitude": "80.94615920"
    },
    {
        "name": "Uttarakhand",
        "countryCode": "IN",
        "fipsCode": "39",
        "iso": "UT",
        "latitude": "30.06675300",
        "longitude": "79.01929970"
    },
    {
        "name": "West Bengal",
        "countryCode": "IN",
        "fipsCode": "28",
        "iso": "WB",
        "latitude": "22.98675690",
        "longitude": "87.85497550"
    }
]