[{"name":"Arys","latitude":"42.43015000","longitude":"68.80870000"},{"name":"Ashchysay","latitude":"43.55370000","longitude":"68.89792000"},{"name":"Asyqata","latitude":"40.89460000","longitude":"68.36430000"},{"name":"Atakent","latitude":"40.84782000","longitude":"68.50643000"},{"name":"Bayzhansay","latitude":"43.16708000","longitude":"69.91459000"},{"name":"Belyye Vody","latitude":"42.42193000","longitude":"69.82709000"},{"name":"Chardara","latitude":"41.25832000","longitude":"67.96991000"},{"name":"Chayan","latitude":"43.03399000","longitude":"69.38048000"},{"name":"Chulakkurgan","latitude":"43.76453000","longitude":"69.17856000"},{"name":"Kantagi","latitude":"43.52786000","longitude":"68.58287000"},{"name":"Kentau","latitude":"43.51672000","longitude":"68.50463000"},{"name":"Kokterek","latitude":"42.49442000","longitude":"70.25478000"},{"name":"Lenger","latitude":"42.18152000","longitude":"69.88582000"},{"name":"Leninskoye","latitude":"41.75640000","longitude":"69.38390000"},{"name":"Maqtaaral Aūdany","latitude":"40.75000000","longitude":"68.58333000"},{"name":"Myrzakent","latitude":"40.66338000","longitude":"68.54510000"},{"name":"Qogham","latitude":"42.82774000","longitude":"68.28074000"},{"name":"Saryaghash","latitude":"41.46042000","longitude":"69.16791000"},{"name":"Saryaghash Aūdany","latitude":"41.66667000","longitude":"68.83333000"},{"name":"Sastobe","latitude":"42.55330000","longitude":"69.99835000"},{"name":"Sozaq Aūdany","latitude":"44.83333000","longitude":"68.50000000"},{"name":"Temirlanovka","latitude":"42.59998000","longitude":"69.25836000"},{"name":"Turar Ryskulov","latitude":"42.53340000","longitude":"70.34960000"},{"name":"Turkestan","latitude":"43.29733000","longitude":"68.25175000"},{"name":"Tyul’kubas","latitude":"42.48578000","longitude":"70.29601000"},{"name":"Zhabagly","latitude":"42.43781000","longitude":"70.47841000"}]