[{"name":"Dolores","latitude":"16.51178000","longitude":"-89.41704000"},{"name":"Flores","latitude":"16.92258000","longitude":"-89.89941000"},{"name":"La Libertad","latitude":"16.78850000","longitude":"-90.11698000"},{"name":"Melchor de Mencos","latitude":"17.06606000","longitude":"-89.15229000"},{"name":"Municipio de Flores","latitude":"16.92381000","longitude":"-89.89709000"},{"name":"Municipio de Poptún","latitude":"16.35687000","longitude":"-89.58912000"},{"name":"Municipio de San Andrés","latitude":"17.49541000","longitude":"-90.39883000"},{"name":"Municipio de San Benito","latitude":"16.91289000","longitude":"-89.90979000"},{"name":"Municipio de San Francisco","latitude":"16.72425000","longitude":"-89.90877000"},{"name":"Municipio de Santa Ana","latitude":"16.77305000","longitude":"-89.66878000"},{"name":"Municipio de Sayaxché","latitude":"16.33160000","longitude":"-90.16339000"},{"name":"Poptún","latitude":"16.33111000","longitude":"-89.41694000"},{"name":"San Andrés","latitude":"16.96667000","longitude":"-89.91667000"},{"name":"San Benito","latitude":"16.91675000","longitude":"-89.91898000"},{"name":"San Francisco","latitude":"16.80000000","longitude":"-89.93333000"},{"name":"San José","latitude":"16.98333000","longitude":"-89.90000000"},{"name":"San Luis","latitude":"16.19889000","longitude":"-89.44028000"},{"name":"Santa Ana","latitude":"16.80000000","longitude":"-89.83333000"},{"name":"Sayaxché","latitude":"16.52446000","longitude":"-90.18801000"}]