[{"name":"Algarrobo","latitude":"10.18553000","longitude":"-74.06158000"},{"name":"Aracataca","latitude":"10.59181000","longitude":"-74.18983000"},{"name":"Ariguaní","latitude":"9.89383000","longitude":"-74.13583000"},{"name":"Buenavista","latitude":"9.21433000","longitude":"-74.31363000"},{"name":"Cerro San Antonio","latitude":"10.29063000","longitude":"-74.82173000"},{"name":"Cerro de San Antonio","latitude":"10.32585000","longitude":"-74.86933000"},{"name":"Chibolo","latitude":"10.08250000","longitude":"-74.50696000"},{"name":"Chivolo","latitude":"10.02502000","longitude":"-74.62279000"},{"name":"Ciénaga","latitude":"10.83333000","longitude":"-74.08333000"},{"name":"Concordia","latitude":"9.83545000","longitude":"-74.45548000"},{"name":"El Banco","latitude":"9.00114000","longitude":"-73.97581000"},{"name":"El Piñon","latitude":"10.33333000","longitude":"-74.66667000"},{"name":"El Retén","latitude":"10.61135000","longitude":"-74.26824000"},{"name":"Fundación","latitude":"10.52066000","longitude":"-74.18504000"},{"name":"Guamal","latitude":"9.14334000","longitude":"-74.22384000"},{"name":"Nueva Granada","latitude":"9.80168000","longitude":"-74.39304000"},{"name":"Pedraza","latitude":"10.18739000","longitude":"-74.91504000"},{"name":"Pijiño del Carmen","latitude":"9.32908000","longitude":"-74.45302000"},{"name":"Pivijay","latitude":"10.46167000","longitude":"-74.61621000"},{"name":"Plato","latitude":"9.77267000","longitude":"-74.74548000"},{"name":"Puebloviejo","latitude":"10.84239000","longitude":"-74.38538000"},{"name":"Remolino","latitude":"10.65048000","longitude":"-74.58442000"},{"name":"Sabanas de San Angel","latitude":"10.11072000","longitude":"-74.26007000"},{"name":"Salamina","latitude":"10.49027000","longitude":"-74.79463000"},{"name":"San Antonio","latitude":"9.93303000","longitude":"-74.69346000"},{"name":"San Zenón","latitude":"9.32686000","longitude":"-74.32914000"},{"name":"Santa Ana","latitude":"9.51484000","longitude":"-74.34330000"},{"name":"Santa Bárbara de Pinto","latitude":"9.52107000","longitude":"-74.64912000"},{"name":"Santa Marta","latitude":"11.24348000","longitude":"-74.20835000"},{"name":"Sitionuevo","latitude":"10.77737000","longitude":"-74.72049000"},{"name":"Tenerife","latitude":"9.93201000","longitude":"-74.73465000"},{"name":"Zapayán","latitude":"10.11846000","longitude":"-74.69143000"},{"name":"Zona Bananera","latitude":"10.76417000","longitude":"-74.15722000"}]