[{"name":"As-Suwayda","latitude":"32.70896000","longitude":"36.56951000"},{"name":"As-Suwayda District","latitude":"32.78127000","longitude":"36.86502000"},{"name":"Salkhad District","latitude":"32.51779000","longitude":"36.91954000"},{"name":"Shahba District","latitude":"33.04282000","longitude":"36.72034000"},{"name":"Shahbā","latitude":"32.85514000","longitude":"36.62896000"},{"name":"Şalkhad","latitude":"32.49200000","longitude":"36.71114000"},{"name":"Şalākhid","latitude":"32.87271000","longitude":"36.57271000"}]