[{"name":"Gornomariyskiy Rayon","latitude":"56.41667000","longitude":"46.75000000"},{"name":"Kilemarskiy Rayon","latitude":"56.75000000","longitude":"46.91667000"},{"name":"Kilemary","latitude":"56.77825000","longitude":"46.86594000"},{"name":"Koz’modem’yansk","latitude":"56.34190000","longitude":"46.56353000"},{"name":"Krasnogorskiy","latitude":"56.15250000","longitude":"48.32583000"},{"name":"Kuzhener","latitude":"56.81111000","longitude":"48.91278000"},{"name":"Kuzhenerskiy Rayon","latitude":"56.75000000","longitude":"49.00000000"},{"name":"Mari-Turek","latitude":"56.78946000","longitude":"49.62349000"},{"name":"Mari-Turekskiy Rayon","latitude":"56.75000000","longitude":"49.83333000"},{"name":"Medvedevo","latitude":"56.63388000","longitude":"47.80405000"},{"name":"Medvedevskiy Rayon","latitude":"56.66667000","longitude":"47.75000000"},{"name":"Mochalishche","latitude":"56.33060000","longitude":"48.35470000"},{"name":"Morki","latitude":"56.43028000","longitude":"48.99472000"},{"name":"Morkinskiy Rayon","latitude":"56.50000000","longitude":"49.00000000"},{"name":"Novotor”yal’skiy Rayon","latitude":"57.08333000","longitude":"48.66667000"},{"name":"Orshanka","latitude":"56.91607000","longitude":"47.89335000"},{"name":"Orshanskiy Rayon","latitude":"56.91667000","longitude":"47.91667000"},{"name":"Paran’ga","latitude":"56.70389000","longitude":"49.40472000"},{"name":"Paran’ginskiy Rayon","latitude":"56.66667000","longitude":"49.41667000"},{"name":"Pomary","latitude":"55.96815000","longitude":"48.35072000"},{"name":"Privolzhskiy","latitude":"55.96135000","longitude":"48.41512000"},{"name":"Sernur","latitude":"56.93333000","longitude":"49.15361000"},{"name":"Sernurskiy Rayon","latitude":"57.00000000","longitude":"49.25000000"},{"name":"Sovetskiy","latitude":"56.75833000","longitude":"48.47611000"},{"name":"Sovetskiy Rayon","latitude":"56.66667000","longitude":"48.50000000"},{"name":"Surok","latitude":"56.44694000","longitude":"48.12139000"},{"name":"Suslonger","latitude":"56.31556000","longitude":"48.25306000"},{"name":"Vilovatovo","latitude":"56.17240000","longitude":"46.60134000"},{"name":"Volzhsk","latitude":"55.86638000","longitude":"48.35940000"},{"name":"Volzhskiy Rayon","latitude":"56.08333000","longitude":"48.58333000"},{"name":"Yoshkar-Ola","latitude":"56.63877000","longitude":"47.89078000"},{"name":"Yurino","latitude":"56.29417000","longitude":"46.30392000"},{"name":"Yurinskiy Rayon","latitude":"56.30000000","longitude":"46.30000000"},{"name":"Zvenigovo","latitude":"55.97539000","longitude":"48.01304000"},{"name":"Zvenigovskiy Rayon","latitude":"56.25000000","longitude":"47.75000000"}]