[{"name":"Anderslöv","latitude":"55.43836000","longitude":"13.31966000"},{"name":"Arlöv","latitude":"55.63248000","longitude":"13.07141000"},{"name":"Asmundtorp","latitude":"55.88333000","longitude":"12.93333000"},{"name":"Bara","latitude":"55.58155000","longitude":"13.17862000"},{"name":"Billeberga","latitude":"55.88333000","longitude":"13.00000000"},{"name":"Billesholm","latitude":"56.05000000","longitude":"13.00000000"},{"name":"Bjuv","latitude":"56.08372000","longitude":"12.91914000"},{"name":"Bjuvs Kommun","latitude":"56.05409000","longitude":"12.96542000"},{"name":"Bjärnum","latitude":"56.29032000","longitude":"13.71128000"},{"name":"Bjärred","latitude":"55.71667000","longitude":"13.01667000"},{"name":"Blentarp","latitude":"55.58333000","longitude":"13.60000000"},{"name":"Broby","latitude":"56.25521000","longitude":"14.07797000"},{"name":"Bromölla","latitude":"56.07551000","longitude":"14.46958000"},{"name":"Bromölla Kommun","latitude":"56.11934000","longitude":"14.51150000"},{"name":"Bunkeflostrand","latitude":"55.54478000","longitude":"12.92375000"},{"name":"Burlövs Kommun","latitude":"55.63873000","longitude":"13.09473000"},{"name":"Bårslöv","latitude":"56.00910000","longitude":"12.80580000"},{"name":"Båstad","latitude":"56.42689000","longitude":"12.85339000"},{"name":"Båstads Kommun","latitude":"56.40102000","longitude":"12.79912000"},{"name":"Dalby","latitude":"55.66655000","longitude":"13.34976000"},{"name":"Degeberga","latitude":"55.83333000","longitude":"14.08333000"},{"name":"Ekeby","latitude":"56.00000000","longitude":"12.96667000"},{"name":"Eslöv","latitude":"55.83928000","longitude":"13.30393000"},{"name":"Eslövs Kommun","latitude":"55.83607000","longitude":"13.37522000"},{"name":"Fjälkinge","latitude":"56.04364000","longitude":"14.27562000"},{"name":"Furulund","latitude":"55.77380000","longitude":"13.09022000"},{"name":"Färlöv","latitude":"56.06667000","longitude":"14.08333000"},{"name":"Förslöv","latitude":"56.35000000","longitude":"12.81667000"},{"name":"Gantofta","latitude":"55.98729000","longitude":"12.80482000"},{"name":"Genarp","latitude":"55.59907000","longitude":"13.39820000"},{"name":"Glimåkra","latitude":"56.30000000","longitude":"14.13333000"},{"name":"Glumslöv","latitude":"55.94091000","longitude":"12.80929000"},{"name":"Gärsnäs","latitude":"55.54949000","longitude":"14.17923000"},{"name":"Hammar","latitude":"56.01667000","longitude":"14.21667000"},{"name":"Hanaskog","latitude":"56.16061000","longitude":"14.09307000"},{"name":"Helsingborg","latitude":"56.05648000","longitude":"12.78718000"},{"name":"Hittarp","latitude":"56.10000000","longitude":"12.63333000"},{"name":"Hjärnarp","latitude":"56.31667000","longitude":"12.91667000"},{"name":"Hjärup","latitude":"55.66880000","longitude":"13.13931000"},{"name":"Hofterup","latitude":"55.80485000","longitude":"12.97970000"},{"name":"Hyllinge","latitude":"56.10000000","longitude":"12.85000000"},{"name":"Häljarp","latitude":"55.85000000","longitude":"12.91667000"},{"name":"Hässleholm","latitude":"56.15905000","longitude":"13.76638000"},{"name":"Hässleholms Kommun","latitude":"56.20687000","longitude":"13.72374000"},{"name":"Hästveda","latitude":"56.28468000","longitude":"13.93547000"},{"name":"Höganäs","latitude":"56.19971000","longitude":"12.55795000"},{"name":"Höganäs Kommun","latitude":"56.22517000","longitude":"12.59701000"},{"name":"Hököpinge","latitude":"55.49411000","longitude":"13.00782000"},{"name":"Höllviken","latitude":"55.40982000","longitude":"12.95580000"},{"name":"Hörby","latitude":"55.85238000","longitude":"13.66094000"},{"name":"Hörby Kommun","latitude":"55.83766000","longitude":"13.74284000"},{"name":"Höör","latitude":"55.93444000","longitude":"13.53850000"},{"name":"Höörs Kommun","latitude":"55.94588000","longitude":"13.51686000"},{"name":"Jonstorp","latitude":"56.23380000","longitude":"12.67184000"},{"name":"Klippan","latitude":"56.13559000","longitude":"13.13086000"},{"name":"Klippans Kommun","latitude":"56.11138000","longitude":"13.23836000"},{"name":"Klågerup","latitude":"55.59416000","longitude":"13.24574000"},{"name":"Knislinge","latitude":"56.18333000","longitude":"14.08333000"},{"name":"Kristianstad","latitude":"56.03129000","longitude":"14.15242000"},{"name":"Kristianstads kommun","latitude":"56.00000000","longitude":"14.15000000"},{"name":"Kvidinge","latitude":"56.13386000","longitude":"13.04678000"},{"name":"Kävlinge","latitude":"55.79188000","longitude":"13.11021000"},{"name":"Kävlinge Kommun","latitude":"55.79469000","longitude":"13.07364000"},{"name":"Kågeröd","latitude":"55.99976000","longitude":"13.08795000"},{"name":"Köpingebro","latitude":"55.45526000","longitude":"13.93453000"},{"name":"Landskrona","latitude":"55.88620000","longitude":"12.85880000"},{"name":"Ljungbyhed","latitude":"56.07437000","longitude":"13.24010000"},{"name":"Ljunghusen","latitude":"55.39793000","longitude":"12.92486000"},{"name":"Lomma","latitude":"55.67244000","longitude":"13.06849000"},{"name":"Lomma Kommun","latitude":"55.70358000","longitude":"13.07324000"},{"name":"Lund","latitude":"55.70584000","longitude":"13.19321000"},{"name":"Lunds Kommun","latitude":"55.66897000","longitude":"13.36408000"},{"name":"Löberöd","latitude":"55.77610000","longitude":"13.52414000"},{"name":"Löddeköpinge","latitude":"55.76667000","longitude":"13.01667000"},{"name":"Lönsboda","latitude":"56.40000000","longitude":"14.31667000"},{"name":"Malmö","latitude":"55.60587000","longitude":"13.00073000"},{"name":"Marieholm","latitude":"55.86667000","longitude":"13.15000000"},{"name":"Munka-Ljungby","latitude":"56.25000000","longitude":"12.96667000"},{"name":"Mörarp","latitude":"56.05749000","longitude":"12.88018000"},{"name":"Norra Åsum","latitude":"55.98333000","longitude":"14.15000000"},{"name":"Näsum","latitude":"56.17693000","longitude":"14.49706000"},{"name":"Osby","latitude":"56.38165000","longitude":"13.99364000"},{"name":"Osby kommun","latitude":"56.44081000","longitude":"14.11842000"},{"name":"Oxie","latitude":"55.54014000","longitude":"13.09605000"},{"name":"Perstorp","latitude":"56.13829000","longitude":"13.39476000"},{"name":"Perstorps Kommun","latitude":"56.18857000","longitude":"13.37681000"},{"name":"Påarp","latitude":"56.03333000","longitude":"12.81667000"},{"name":"Rydebäck","latitude":"55.96667000","longitude":"12.76667000"},{"name":"Rydsgård","latitude":"55.47285000","longitude":"13.58829000"},{"name":"Saxtorpsskogen","latitude":"55.83208000","longitude":"12.94429000"},{"name":"Sibbhult","latitude":"56.26667000","longitude":"14.20000000"},{"name":"Simrishamn","latitude":"55.55653000","longitude":"14.35037000"},{"name":"Simrishamns kommun","latitude":"55.58621000","longitude":"14.23778000"},{"name":"Sjöbo","latitude":"55.63135000","longitude":"13.70622000"},{"name":"Sjöbo Kommun","latitude":"55.65146000","longitude":"13.75557000"},{"name":"Skanör med Falsterbo","latitude":"55.40000000","longitude":"12.85000000"},{"name":"Skegrie","latitude":"55.40633000","longitude":"13.07693000"},{"name":"Skivarp","latitude":"55.41667000","longitude":"13.56667000"},{"name":"Skurup","latitude":"55.47839000","longitude":"13.50186000"},{"name":"Skurups Kommun","latitude":"55.47322000","longitude":"13.54550000"},{"name":"Skåre","latitude":"55.38333000","longitude":"13.05000000"},{"name":"Smygehamn","latitude":"55.34337000","longitude":"13.36989000"},{"name":"Staffanstorp","latitude":"55.64277000","longitude":"13.20638000"},{"name":"Staffanstorps Kommun","latitude":"55.65000000","longitude":"13.20000000"},{"name":"Stehag","latitude":"55.90188000","longitude":"13.39577000"},{"name":"Strövelstorp","latitude":"56.16979000","longitude":"12.83925000"},{"name":"Stångby","latitude":"55.75030000","longitude":"13.19797000"},{"name":"Svalöv","latitude":"55.91340000","longitude":"13.10762000"},{"name":"Svalövs Kommun","latitude":"55.96497000","longitude":"13.13173000"},{"name":"Svedala","latitude":"55.50788000","longitude":"13.23515000"},{"name":"Svedala Kommun","latitude":"55.54324000","longitude":"13.26859000"},{"name":"Sätofta","latitude":"55.91667000","longitude":"13.55000000"},{"name":"Södra Sandby","latitude":"55.71677000","longitude":"13.34659000"},{"name":"Sösdala","latitude":"56.03992000","longitude":"13.67811000"},{"name":"Teckomatorp","latitude":"55.86667000","longitude":"13.08333000"},{"name":"Tollarp","latitude":"55.93333000","longitude":"13.98333000"},{"name":"Tollarp1","latitude":"56.16667000","longitude":"14.28333000"},{"name":"Tomelilla","latitude":"55.54293000","longitude":"13.95460000"},{"name":"Tomelilla Kommun","latitude":"55.61963000","longitude":"14.01975000"},{"name":"Torekov","latitude":"56.42500000","longitude":"12.63333000"},{"name":"Tormestorp","latitude":"56.11350000","longitude":"13.74516000"},{"name":"Trelleborg","latitude":"55.37514000","longitude":"13.15691000"},{"name":"Trelleborgs Kommun","latitude":"55.41274000","longitude":"13.26859000"},{"name":"Tygelsjö","latitude":"55.51667000","longitude":"13.00000000"},{"name":"Tyringe","latitude":"56.16037000","longitude":"13.59811000"},{"name":"Valje","latitude":"56.06279000","longitude":"14.54388000"},{"name":"Veberöd","latitude":"55.63333000","longitude":"13.48333000"},{"name":"Vejbystrand","latitude":"56.31778000","longitude":"12.76722000"},{"name":"Vellinge","latitude":"55.47124000","longitude":"13.01971000"},{"name":"Vellinge Kommun","latitude":"55.44776000","longitude":"13.00919000"},{"name":"Viken","latitude":"56.15063000","longitude":"12.57429000"},{"name":"Vinslöv","latitude":"56.10000000","longitude":"13.91667000"},{"name":"Vittsjö","latitude":"56.34366000","longitude":"13.66081000"},{"name":"Ystad","latitude":"55.42966000","longitude":"13.82041000"},{"name":"Ystads Kommun","latitude":"55.46367000","longitude":"13.91153000"},{"name":"Ängelholm","latitude":"56.24280000","longitude":"12.86219000"},{"name":"Ängelholms Kommun","latitude":"56.26814000","longitude":"12.96622000"},{"name":"Åhus","latitude":"55.91667000","longitude":"14.28333000"},{"name":"Åkarp","latitude":"55.65396000","longitude":"13.11107000"},{"name":"Åstorp","latitude":"56.13566000","longitude":"12.94430000"},{"name":"Åstorps Kommun","latitude":"56.14003000","longitude":"12.97259000"},{"name":"Ödåkra","latitude":"56.10412000","longitude":"12.74770000"},{"name":"Önnestad","latitude":"56.05747000","longitude":"14.02233000"},{"name":"Örkelljunga","latitude":"56.28338000","longitude":"13.27773000"},{"name":"Örkelljunga Kommun","latitude":"56.32464000","longitude":"13.33941000"},{"name":"Östra Göinge Kommun","latitude":"56.27212000","longitude":"14.15980000"},{"name":"Östra Ljungby","latitude":"56.19601000","longitude":"13.09199000"}]