[{"name":"Muang Khôngxédôn","latitude":"15.54626000","longitude":"105.77051000"},{"name":"Muang Lakhonphéng","latitude":"15.83308000","longitude":"105.59745000"},{"name":"Muang Laongam","latitude":"15.47745000","longitude":"106.14111000"},{"name":"Muang Samouay","latitude":"16.35868000","longitude":"106.87480000"},{"name":"Muang Saravan","latitude":"15.71587000","longitude":"106.36158000"},{"name":"Muang Ta-Ôy","latitude":"16.07765000","longitude":"106.70304000"},{"name":"Muang Toumlan","latitude":"16.02236000","longitude":"106.23837000"},{"name":"Muang Vapi","latitude":"15.75005000","longitude":"105.95529000"},{"name":"Salavan","latitude":"15.71652000","longitude":"106.41744000"}]