[{"name":"Aldeia de Joanes","latitude":"40.13905000","longitude":"-7.51694000"},{"name":"Belmonte","latitude":"40.36181000","longitude":"-7.35157000"},{"name":"Castelo Branco","latitude":"39.82219000","longitude":"-7.49087000"},{"name":"Covilhã","latitude":"40.28106000","longitude":"-7.50504000"},{"name":"Fundão","latitude":"40.12412000","longitude":"-7.49542000"},{"name":"Idanha-A-Nova","latitude":"39.92957000","longitude":"-7.23690000"},{"name":"Oleiros","latitude":"39.94948000","longitude":"-7.88592000"},{"name":"Penamacor","latitude":"40.15495000","longitude":"-7.17149000"},{"name":"Proença-a-Nova","latitude":"39.75700000","longitude":"-7.92595000"},{"name":"Sertã","latitude":"39.80205000","longitude":"-8.09589000"},{"name":"Teixoso","latitude":"40.31448000","longitude":"-7.45759000"},{"name":"Vila Velha de Ródão","latitude":"39.68709000","longitude":"-7.65987000"},{"name":"Vila de Rei","latitude":"39.70685000","longitude":"-8.12836000"}]