[{"name":"Arizona","latitude":"15.63333000","longitude":"-87.31667000"},{"name":"Atenas de San Cristóbal","latitude":"15.68333000","longitude":"-87.31667000"},{"name":"Corozal","latitude":"15.80000000","longitude":"-86.71667000"},{"name":"El Pino","latitude":"15.70000000","longitude":"-86.93333000"},{"name":"El Porvenir","latitude":"15.75000000","longitude":"-86.93333000"},{"name":"El Triunfo de la Cruz","latitude":"15.76667000","longitude":"-87.43333000"},{"name":"Esparta","latitude":"15.66291000","longitude":"-87.25622000"},{"name":"Jutiapa","latitude":"15.69586000","longitude":"-86.50414000"},{"name":"La Ceiba","latitude":"15.75971000","longitude":"-86.78221000"},{"name":"La Masica","latitude":"15.59865000","longitude":"-87.13500000"},{"name":"La Unión","latitude":"15.71667000","longitude":"-87.00000000"},{"name":"Mezapa","latitude":"15.58333000","longitude":"-87.65000000"},{"name":"Nueva Armenia","latitude":"15.79556000","longitude":"-86.49845000"},{"name":"Sambo Creek","latitude":"15.81667000","longitude":"-86.68333000"},{"name":"San Antonio","latitude":"15.60000000","longitude":"-87.15000000"},{"name":"San Francisco","latitude":"15.65246000","longitude":"-87.01736000"},{"name":"San Juan Pueblo","latitude":"15.58333000","longitude":"-87.23333000"},{"name":"Santa Ana","latitude":"15.65000000","longitude":"-87.06667000"},{"name":"Tela","latitude":"15.77425000","longitude":"-87.46731000"},{"name":"Tornabé","latitude":"15.75000000","longitude":"-87.55000000"}]