[{"name":"Akureyri","latitude":"65.68353000","longitude":"-18.08780000"},{"name":"Dalvík","latitude":"65.97018000","longitude":"-18.52861000"},{"name":"Dalvíkurbyggð","latitude":"65.87318000","longitude":"-18.60844000"},{"name":"Eyjafjarðarsveit","latitude":"65.33333000","longitude":"-18.16667000"},{"name":"Fjallabyggð","latitude":"66.05962000","longitude":"-18.78220000"},{"name":"Grýtubakkahreppur","latitude":"65.98333000","longitude":"-18.11667000"},{"name":"Hörgársveit","latitude":"65.64828000","longitude":"-18.49599000"},{"name":"Húsavík","latitude":"66.04148000","longitude":"-17.33834000"},{"name":"Langanesbyggð","latitude":"66.05186000","longitude":"-15.18969000"},{"name":"Laugar","latitude":"65.72159000","longitude":"-17.37352000"},{"name":"Siglufjörður","latitude":"66.15198000","longitude":"-18.90815000"},{"name":"Skútustaðahreppur","latitude":"65.17177000","longitude":"-16.77890000"},{"name":"Svalbarðsstrandarhreppur","latitude":"65.74138000","longitude":"-18.03513000"},{"name":"Tjörneshreppur","latitude":"66.11667000","longitude":"-17.20000000"},{"name":"Þingeyjarsveit","latitude":"65.37229000","longitude":"-17.59927000"}]