[{"name":"Afega","latitude":"-13.79726000","longitude":"-171.85308000"},{"name":"Apia","latitude":"-13.83333000","longitude":"-171.76666000"},{"name":"Malie","latitude":"-13.80044000","longitude":"-171.84690000"},{"name":"Vailima","latitude":"-13.86417000","longitude":"-171.76126000"},{"name":"Vaiusu","latitude":"-13.82678000","longitude":"-171.79333000"}]