[{"name":"Acahuasco","latitude":"20.96254000","longitude":"-98.59656000"},{"name":"Acatepec","latitude":"20.95367000","longitude":"-98.27373000"},{"name":"Acatlán","latitude":"20.14562000","longitude":"-98.43959000"},{"name":"Acaxochitlán","latitude":"20.16674000","longitude":"-98.18971000"},{"name":"Acayuca","latitude":"20.02567000","longitude":"-98.84110000"},{"name":"Acoapa","latitude":"21.12116000","longitude":"-98.48701000"},{"name":"Acoxcatlán","latitude":"20.97343000","longitude":"-98.77793000"},{"name":"Acoyotla","latitude":"21.12551000","longitude":"-98.77729000"},{"name":"Actopan","latitude":"20.28451000","longitude":"-98.91525000"},{"name":"Ahuatitla","latitude":"21.16495000","longitude":"-98.66594000"},{"name":"Ahuehuetitla","latitude":"20.08444000","longitude":"-98.41667000"},{"name":"Ajacuba","latitude":"20.14326000","longitude":"-99.06141000"},{"name":"Alfajayucan","latitude":"20.41183000","longitude":"-99.38388000"},{"name":"Almoloya","latitude":"19.74335000","longitude":"-98.33939000"},{"name":"Apan","latitude":"19.71128000","longitude":"-98.45086000"},{"name":"Atengo","latitude":"20.17526000","longitude":"-99.32714000"},{"name":"Atitalaquia","latitude":"20.05691000","longitude":"-99.21779000"},{"name":"Atlapexco","latitude":"21.02507000","longitude":"-98.36834000"},{"name":"Atotonilco de Tula","latitude":"19.97025000","longitude":"-99.23866000"},{"name":"Atotonilco el Grande","latitude":"20.28632000","longitude":"-98.66850000"},{"name":"Bangandhó","latitude":"20.48277000","longitude":"-99.14901000"},{"name":"Barrio Aztlán","latitude":"20.46562000","longitude":"-98.08553000"},{"name":"Benito Juárez","latitude":"20.16047000","longitude":"-98.82606000"},{"name":"Bomanxotha","latitude":"20.51542000","longitude":"-99.66679000"},{"name":"Bomintzha","latitude":"20.01400000","longitude":"-99.27277000"},{"name":"Bondojito","latitude":"20.44395000","longitude":"-99.70022000"},{"name":"Calnali","latitude":"20.90221000","longitude":"-98.57029000"},{"name":"Caltimacan","latitude":"20.53672000","longitude":"-99.37000000"},{"name":"Camelia (Barrio la Camelia)","latitude":"20.14917000","longitude":"-98.72222000"},{"name":"Campestre Villas del Álamo","latitude":"20.10167000","longitude":"-98.70722000"},{"name":"Cantera de Villagrán","latitude":"19.84083000","longitude":"-99.30917000"},{"name":"Cantinela","latitude":"20.45778000","longitude":"-99.21028000"},{"name":"Carboneras","latitude":"20.09000000","longitude":"-98.70528000"},{"name":"Cardonal","latitude":"20.05689000","longitude":"-99.23025000"},{"name":"Carpinteros","latitude":"20.58606000","longitude":"-98.53964000"},{"name":"Caxuxi","latitude":"20.30522000","longitude":"-98.99067000"},{"name":"Cañada","latitude":"19.99798000","longitude":"-99.23947000"},{"name":"Cañada de Madero","latitude":"19.96528000","longitude":"-99.39389000"},{"name":"Cerritos","latitude":"20.35306000","longitude":"-99.01222000"},{"name":"Chachahuantla","latitude":"20.20182000","longitude":"-98.13261000"},{"name":"Chalahuiyapa","latitude":"21.15088000","longitude":"-98.36429000"},{"name":"Chapantongo","latitude":"20.28635000","longitude":"-99.41319000"},{"name":"Chapulhuacanito","latitude":"21.20911000","longitude":"-98.67016000"},{"name":"Chapulhuacán","latitude":"21.15731000","longitude":"-98.90361000"},{"name":"Chatipán","latitude":"21.02006000","longitude":"-98.52731000"},{"name":"Chicavasco","latitude":"20.19715000","longitude":"-98.95386000"},{"name":"Chichatla","latitude":"20.95833000","longitude":"-98.62946000"},{"name":"Chilcuautla","latitude":"20.33059000","longitude":"-99.23117000"},{"name":"Chililico","latitude":"21.13444000","longitude":"-98.43556000"},{"name":"Chimalapa","latitude":"20.18806000","longitude":"-98.16000000"},{"name":"Chimalpa y Tlalayote","latitude":"19.66522000","longitude":"-98.51224000"},{"name":"Cipreses","latitude":"20.05889000","longitude":"-98.76750000"},{"name":"Ciudad Sahagun","latitude":"19.77557000","longitude":"-98.57471000"},{"name":"Coacuilco","latitude":"21.10377000","longitude":"-98.58643000"},{"name":"Colinas de Plata","latitude":"20.07833000","longitude":"-98.72667000"},{"name":"Colonia 28 de Mayo (Santa Rosa)","latitude":"20.16611000","longitude":"-98.39000000"},{"name":"Colonia Benito Juárez","latitude":"19.88985000","longitude":"-98.80661000"},{"name":"Colonia Felipe Ángeles","latitude":"20.05417000","longitude":"-98.41861000"},{"name":"Colonia Guadalupe","latitude":"19.93917000","longitude":"-98.76556000"},{"name":"Colonia Militar","latitude":"20.11139000","longitude":"-98.70306000"},{"name":"Colonia Morelos","latitude":"19.89056000","longitude":"-98.81667000"},{"name":"Colonia Morelos (El Nueve)","latitude":"20.22500000","longitude":"-99.14111000"},{"name":"Colonia San Juan","latitude":"20.19028000","longitude":"-99.28278000"},{"name":"Colonia Sesenta y Dos","latitude":"20.00528000","longitude":"-99.34583000"},{"name":"Colonia Teñhe","latitude":"20.19291000","longitude":"-99.17866000"},{"name":"Conejos","latitude":"19.97570000","longitude":"-99.24337000"},{"name":"Coyotillos","latitude":"19.99980000","longitude":"-99.15817000"},{"name":"Cuapaxtitla","latitude":"21.13292000","longitude":"-98.55264000"},{"name":"Cuatolol","latitude":"21.11967000","longitude":"-98.82563000"},{"name":"Cuautepec de Hinojosa","latitude":"20.03557000","longitude":"-98.31015000"},{"name":"Cuazahuatl","latitude":"21.01637000","longitude":"-98.88691000"},{"name":"Dajiedi","latitude":"20.31114000","longitude":"-98.94006000"},{"name":"Dantzibojay","latitude":"20.43934000","longitude":"-99.58587000"},{"name":"Daxtha","latitude":"20.27994000","longitude":"-98.97964000"},{"name":"Dengantzha","latitude":"20.27211000","longitude":"-99.12098000"},{"name":"Dios Padre","latitude":"20.46469000","longitude":"-99.20132000"},{"name":"Don Antonio","latitude":"19.87444000","longitude":"-98.93472000"},{"name":"Doxey","latitude":"20.09169000","longitude":"-99.24362000"},{"name":"Déxtho de Victoria","latitude":"20.32528000","longitude":"-99.02389000"},{"name":"El Arenal","latitude":"20.22258000","longitude":"-98.90957000"},{"name":"El Barrido","latitude":"20.45028000","longitude":"-99.19083000"},{"name":"El Bingú","latitude":"20.59296000","longitude":"-99.14315000"},{"name":"El Boxtha","latitude":"20.25972000","longitude":"-98.97417000"},{"name":"El Capulín","latitude":"20.00898000","longitude":"-98.27613000"},{"name":"El Cid","latitude":"19.86722000","longitude":"-98.92694000"},{"name":"El Colorado","latitude":"20.21528000","longitude":"-99.00222000"},{"name":"El Huaxtho","latitude":"20.23444000","longitude":"-98.96222000"},{"name":"El Huixmí","latitude":"20.07569000","longitude":"-98.81972000"},{"name":"El Jagüey","latitude":"20.24691000","longitude":"-99.61516000"},{"name":"El Jiadi","latitude":"20.24842000","longitude":"-98.92815000"},{"name":"El Llano","latitude":"20.06537000","longitude":"-99.31976000"},{"name":"El Mirador","latitude":"20.03000000","longitude":"-98.81056000"},{"name":"El Moreno (San Miguel Moreno)","latitude":"20.30139000","longitude":"-99.17361000"},{"name":"El Nith","latitude":"20.48778000","longitude":"-99.19194000"},{"name":"El Olvera","latitude":"20.27000000","longitude":"-99.02556000"},{"name":"El Paredón","latitude":"19.86686000","longitude":"-98.25224000"},{"name":"El Pintor","latitude":"21.15932000","longitude":"-98.41284000"},{"name":"El Refugio","latitude":"20.00480000","longitude":"-99.18835000"},{"name":"El Rincón","latitude":"20.27334000","longitude":"-98.90431000"},{"name":"El Roble","latitude":"20.05806000","longitude":"-98.75833000"},{"name":"El Rosario","latitude":"20.24842000","longitude":"-99.02539000"},{"name":"El Saucillo","latitude":"20.07694000","longitude":"-98.73722000"},{"name":"El Saucillo (Fraccionamiento)","latitude":"20.06778000","longitude":"-98.73194000"},{"name":"El Susto","latitude":"20.05905000","longitude":"-98.49303000"},{"name":"El Tepeyac","latitude":"20.05073000","longitude":"-98.31063000"},{"name":"El Tephé","latitude":"20.44861000","longitude":"-99.17500000"},{"name":"El Venado","latitude":"20.06291000","longitude":"-98.76018000"},{"name":"Eloxochitlán","latitude":"20.72703000","longitude":"-98.87693000"},{"name":"Emiliano Zapata","latitude":"19.65490000","longitude":"-98.54497000"},{"name":"Epazoyucan","latitude":"20.02654000","longitude":"-98.63802000"},{"name":"Estación de Apulco","latitude":"20.28611000","longitude":"-98.34750000"},{"name":"Fontezuelas","latitude":"20.48853000","longitude":"-98.87164000"},{"name":"Forjadores de Pachuca","latitude":"20.05500000","longitude":"-98.76333000"},{"name":"Fraccionamiento Carlos Salinas de Gortari","latitude":"20.11028000","longitude":"-98.43028000"},{"name":"Fraccionamiento del Magisterio Tulancinguense","latitude":"20.07639000","longitude":"-98.39972000"},{"name":"Gandhó","latitude":"20.54525000","longitude":"-99.68737000"},{"name":"General Felipe Ángeles (Los Ángeles)","latitude":"19.89750000","longitude":"-98.92611000"},{"name":"General Pedro María Anaya","latitude":"20.15600000","longitude":"-99.34800000"},{"name":"Guadalupe Minerva","latitude":"20.12583000","longitude":"-98.71389000"},{"name":"Guadalupe Victoria","latitude":"20.03748000","longitude":"-98.26864000"},{"name":"Hualula","latitude":"20.70877000","longitude":"-98.83688000"},{"name":"Huasca de Ocampo","latitude":"20.20357000","longitude":"-98.57603000"},{"name":"Huautla","latitude":"21.03105000","longitude":"-98.28685000"},{"name":"Huehuetla","latitude":"20.53204000","longitude":"-98.03311000"},{"name":"Huejutla de Reyes","latitude":"21.14000000","longitude":"-98.41944000"},{"name":"Hueyapa","latitude":"21.08506000","longitude":"-98.68871000"},{"name":"Huichapan","latitude":"20.37593000","longitude":"-99.64869000"},{"name":"Huitel","latitude":"20.16707000","longitude":"-99.27860000"},{"name":"Huitepec","latitude":"21.05451000","longitude":"-98.72291000"},{"name":"Huitzila","latitude":"19.81137000","longitude":"-98.95583000"},{"name":"Huitzitzilingo","latitude":"21.17295000","longitude":"-98.65693000"},{"name":"Ignacio Zaragoza","latitude":"20.01574000","longitude":"-99.32101000"},{"name":"Irolo","latitude":"19.73452000","longitude":"-98.59641000"},{"name":"Ixcatlán","latitude":"21.08134000","longitude":"-98.53468000"},{"name":"Ixcuinquitlapilco","latitude":"20.11091000","longitude":"-98.93980000"},{"name":"Ixmiquilpan","latitude":"20.47841000","longitude":"-99.21697000"},{"name":"Ixtlahuaca","latitude":"20.88368000","longitude":"-98.70379000"},{"name":"Jacala","latitude":"21.00952000","longitude":"-99.19134000"},{"name":"Jagüey Blanco","latitude":"20.27639000","longitude":"-99.15222000"},{"name":"Jagüey de Téllez (Estación Téllez)","latitude":"19.98056000","longitude":"-98.78833000"},{"name":"Jalpa","latitude":"21.10908000","longitude":"-98.71313000"},{"name":"Jaltepec","latitude":"20.11552000","longitude":"-98.41712000"},{"name":"Jaltocan","latitude":"21.13284000","longitude":"-98.53898000"},{"name":"Javier Rojo Gómez","latitude":"20.06972000","longitude":"-98.41778000"},{"name":"Jonacapa","latitude":"20.43358000","longitude":"-99.53306000"},{"name":"José María Morelos (San José)","latitude":"19.68250000","longitude":"-98.57639000"},{"name":"José María Pino Suárez","latitude":"20.24722000","longitude":"-99.42111000"},{"name":"Julián Villagrán","latitude":"20.39645000","longitude":"-99.10431000"},{"name":"La Amistad","latitude":"20.00833000","longitude":"-99.32028000"},{"name":"La Boveda","latitude":"20.12496000","longitude":"-98.12468000"},{"name":"La Colonia","latitude":"20.05472000","longitude":"-98.77028000"},{"name":"La Cruz","latitude":"20.17603000","longitude":"-99.24156000"},{"name":"La Esquina","latitude":"20.54712000","longitude":"-99.70770000"},{"name":"La Estancia","latitude":"20.29889000","longitude":"-98.68944000"},{"name":"La Estanzuela","latitude":"20.17828000","longitude":"-98.75703000"},{"name":"La Laguna","latitude":"19.73447000","longitude":"-98.49989000"},{"name":"La Lagunilla","latitude":"20.06787000","longitude":"-98.47801000"},{"name":"La Loma","latitude":"20.16959000","longitude":"-99.37882000"},{"name":"La Mesilla","latitude":"20.48949000","longitude":"-99.67676000"},{"name":"La Providencia Siglo XXI","latitude":"20.06417000","longitude":"-98.71722000"},{"name":"La Reforma","latitude":"21.07327000","longitude":"-98.87057000"},{"name":"La Sabinita","latitude":"20.36286000","longitude":"-99.63423000"},{"name":"La Sala (La Caliente)","latitude":"20.20722000","longitude":"-98.87250000"},{"name":"La Trinidad","latitude":"19.95975000","longitude":"-98.70942000"},{"name":"Lagunilla","latitude":"20.34306000","longitude":"-99.02737000"},{"name":"Lindavista","latitude":"20.02611000","longitude":"-98.79778000"},{"name":"Llano Largo","latitude":"20.30111000","longitude":"-99.76556000"},{"name":"Lolotla","latitude":"21.00922000","longitude":"-98.73116000"},{"name":"Los Cides","latitude":"19.80439000","longitude":"-98.51870000"},{"name":"Los Reyes","latitude":"20.15529000","longitude":"-98.16424000"},{"name":"Los Romeros","latitude":"20.02976000","longitude":"-98.41496000"},{"name":"Los Sabinos","latitude":"20.31535000","longitude":"-98.64862000"},{"name":"Los Tuzos","latitude":"20.05389000","longitude":"-98.75639000"},{"name":"Lázaro Cárdenas","latitude":"19.64032000","longitude":"-98.47166000"},{"name":"Machetla","latitude":"21.05946000","longitude":"-98.49445000"},{"name":"Magisterio Digno","latitude":"20.05694000","longitude":"-98.76889000"},{"name":"Maguey Blanco","latitude":"20.42357000","longitude":"-99.17032000"},{"name":"Mamithi","latitude":"20.41003000","longitude":"-99.65797000"},{"name":"Mangas","latitude":"20.18647000","longitude":"-99.24799000"},{"name":"Manuel Ávila Camacho","latitude":"20.11194000","longitude":"-98.70694000"},{"name":"Mecatlán","latitude":"20.93573000","longitude":"-98.40305000"},{"name":"Melchor Ocampo","latitude":"19.94540000","longitude":"-99.28171000"},{"name":"Metepec","latitude":"20.26375000","longitude":"-98.34366000"},{"name":"Metepec Primero","latitude":"20.14167000","longitude":"-98.43222000"},{"name":"Metztitlán","latitude":"20.56753000","longitude":"-98.79696000"},{"name":"Mezquititlán","latitude":"20.53307000","longitude":"-98.63749000"},{"name":"Michimaloya","latitude":"20.09151000","longitude":"-99.39885000"},{"name":"Mineral del Monte","latitude":"20.13830000","longitude":"-98.67364000"},{"name":"Mixquiahuala de Juarez","latitude":"20.23031000","longitude":"-99.21396000"},{"name":"Molango","latitude":"20.78693000","longitude":"-98.72878000"},{"name":"Monte Alegre","latitude":"19.98250000","longitude":"-99.34139000"},{"name":"Motovatha","latitude":"20.18377000","longitude":"-99.20514000"},{"name":"Munitepec de Madero","latitude":"20.12858000","longitude":"-99.19948000"},{"name":"Nantzha","latitude":"20.05317000","longitude":"-99.36856000"},{"name":"Nopala de Villagran","latitude":"20.25198000","longitude":"-99.64541000"},{"name":"Nuevo Centro de Población Agrícola el Chacón","latitude":"20.07028000","longitude":"-98.73944000"},{"name":"Ocampo","latitude":"20.00896000","longitude":"-99.23926000"},{"name":"Ohuatipa","latitude":"20.89308000","longitude":"-98.26197000"},{"name":"Ojo de Agua","latitude":"19.97635000","longitude":"-99.44498000"},{"name":"Omitlán de Juárez","latitude":"20.16980000","longitude":"-98.64842000"},{"name":"Oriental de Zapata","latitude":"19.98528000","longitude":"-99.03167000"},{"name":"Orizabita","latitude":"20.58338000","longitude":"-99.20874000"},{"name":"Oxeloco","latitude":"20.91889000","longitude":"-98.32556000"},{"name":"PRI Chacón","latitude":"20.08139000","longitude":"-98.73694000"},{"name":"Pachiquita","latitude":"20.84608000","longitude":"-98.33478000"},{"name":"Pachuca de Soto","latitude":"20.11697000","longitude":"-98.73329000"},{"name":"Pachuquilla","latitude":"20.07099000","longitude":"-98.69572000"},{"name":"Pahactla","latitude":"20.97440000","longitude":"-98.35634000"},{"name":"Pahuatlán","latitude":"21.06940000","longitude":"-98.47667000"},{"name":"Palmillas","latitude":"20.21859000","longitude":"-99.19840000"},{"name":"Panales","latitude":"20.46965000","longitude":"-99.26674000"},{"name":"Panuaya","latitude":"20.19500000","longitude":"-99.27083000"},{"name":"Papatlatla","latitude":"20.90154000","longitude":"-98.45192000"},{"name":"Parque Urbano Napateco","latitude":"20.14278000","longitude":"-98.34083000"},{"name":"Parque de Poblamiento Solidaridad","latitude":"21.15194000","longitude":"-98.38611000"},{"name":"Paseos de la Pradera","latitude":"19.89111000","longitude":"-99.23806000"},{"name":"Patria Nueva","latitude":"20.37151000","longitude":"-99.05172000"},{"name":"Paxtepec","latitude":"20.05278000","longitude":"-98.43139000"},{"name":"Pañhé","latitude":"20.52167000","longitude":"-99.69667000"},{"name":"Pedregal de San José","latitude":"20.06616000","longitude":"-98.40703000"},{"name":"Pino Suárez","latitude":"20.24577000","longitude":"-99.42107000"},{"name":"Pisaflores","latitude":"21.19417000","longitude":"-99.00551000"},{"name":"Portezuelo","latitude":"20.48687000","longitude":"-99.30610000"},{"name":"Pozuelos","latitude":"20.49271000","longitude":"-99.05974000"},{"name":"Praderas del Potrero","latitude":"19.88472000","longitude":"-99.23028000"},{"name":"Presas","latitude":"20.15946000","longitude":"-99.25242000"},{"name":"Privada del Álamo","latitude":"20.09833000","longitude":"-98.70028000"},{"name":"Progreso","latitude":"20.01972000","longitude":"-99.23861000"},{"name":"Progreso de Alvaro Obregon","latitude":"20.24929000","longitude":"-99.18988000"},{"name":"Pueblo Hidalgo","latitude":"21.11447000","longitude":"-98.67817000"},{"name":"Pueblo Nuevo","latitude":"20.45511000","longitude":"-99.16652000"},{"name":"Residencial Arboledas","latitude":"20.06444000","longitude":"-99.30167000"},{"name":"Rinconada de los Ángeles","latitude":"20.02611000","longitude":"-98.71139000"},{"name":"Rinconadas de San Francisco","latitude":"20.06611000","longitude":"-98.76806000"},{"name":"Rinconadas del Venado I","latitude":"20.06361000","longitude":"-98.76333000"},{"name":"Rincones de la Hacienda","latitude":"20.12000000","longitude":"-98.40167000"},{"name":"Rio de la Soledad","latitude":"20.11500000","longitude":"-98.71194000"},{"name":"Río Seco Puente de Doria","latitude":"20.21094000","longitude":"-98.50077000"},{"name":"Salitrillo","latitude":"19.82937000","longitude":"-99.21594000"},{"name":"San Agustín Tlaxiaca","latitude":"20.11510000","longitude":"-98.88640000"},{"name":"San Agustín Zapotlán","latitude":"19.87550000","longitude":"-98.71426000"},{"name":"San Andrés","latitude":"20.05446000","longitude":"-99.38008000"},{"name":"San Andrés (San Andrés Chichayotla)","latitude":"20.92667000","longitude":"-98.56333000"},{"name":"San Antonio","latitude":"20.53204000","longitude":"-99.71038000"},{"name":"San Antonio Zaragoza","latitude":"20.25497000","longitude":"-98.99828000"},{"name":"San Antonio el Grande","latitude":"20.45683000","longitude":"-98.03484000"},{"name":"San Antonio el Paso","latitude":"20.14722000","longitude":"-98.61611000"},{"name":"San Bartolo Ozocalpan","latitude":"20.22336000","longitude":"-99.48906000"},{"name":"San Bartolo Tutotepec","latitude":"20.39841000","longitude":"-98.20080000"},{"name":"San Buenaventura","latitude":"19.82083000","longitude":"-99.32209000"},{"name":"San Cristóbal Chacón","latitude":"20.08028000","longitude":"-98.73278000"},{"name":"San Esteban","latitude":"20.54452000","longitude":"-98.06004000"},{"name":"San Felipe Orizatlán","latitude":"21.17109000","longitude":"-98.60744000"},{"name":"San Francisco","latitude":"21.01819000","longitude":"-98.48699000"},{"name":"San Francisco Atotonilco","latitude":"20.19472000","longitude":"-98.15167000"},{"name":"San Gabriel","latitude":"20.17154000","longitude":"-99.33502000"},{"name":"San Gabriel Azteca","latitude":"19.88039000","longitude":"-98.61610000"},{"name":"San Gregorio","latitude":"20.49808000","longitude":"-98.01809000"},{"name":"San Ignacio Nopala","latitude":"19.83528000","longitude":"-99.34556000"},{"name":"San Ildefonso","latitude":"19.99629000","longitude":"-99.37193000"},{"name":"San Isidro","latitude":"19.78927000","longitude":"-98.59141000"},{"name":"San Joaquín","latitude":"20.50542000","longitude":"-99.77600000"},{"name":"San José","latitude":"21.06917000","longitude":"-98.59444000"},{"name":"San José Atlán","latitude":"20.33833000","longitude":"-99.67396000"},{"name":"San José Boxay","latitude":"20.26236000","longitude":"-99.10085000"},{"name":"San José Corral Blanco","latitude":"19.90884000","longitude":"-98.17811000"},{"name":"San José Ocotillos","latitude":"20.20687000","longitude":"-98.61306000"},{"name":"San Juan Achichilco","latitude":"20.17868000","longitude":"-99.31462000"},{"name":"San Juan Ahuehueco","latitude":"21.04167000","longitude":"-98.90694000"},{"name":"San Juan Hueyapan","latitude":"20.03000000","longitude":"-98.28194000"},{"name":"San Juan Solís","latitude":"20.15830000","longitude":"-98.93147000"},{"name":"San Juan Tepa","latitude":"20.21579000","longitude":"-99.06592000"},{"name":"San Juan Tilcuautla","latitude":"20.15873000","longitude":"-98.80112000"},{"name":"San Juan Tizahuapán","latitude":"20.05073000","longitude":"-98.66540000"},{"name":"San Lorenzo Achiotepec","latitude":"20.59732000","longitude":"-98.06876000"},{"name":"San Lorenzo Sayula","latitude":"19.98921000","longitude":"-98.29774000"},{"name":"San Luis Tecuhautitlán","latitude":"19.76736000","longitude":"-98.88868000"},{"name":"San Marcos","latitude":"20.03056000","longitude":"-99.33547000"},{"name":"San Marcos Guaquilpan","latitude":"19.59853000","longitude":"-98.62866000"},{"name":"San Mateo","latitude":"20.18267000","longitude":"-98.24657000"},{"name":"San Miguel Cerezo (El Cerezo)","latitude":"20.15909000","longitude":"-98.72853000"},{"name":"San Miguel Vindho","latitude":"19.99447000","longitude":"-99.31782000"},{"name":"San Nicolás","latitude":"20.32218000","longitude":"-98.18781000"},{"name":"San Nicolás Tecomatlán","latitude":"20.17944000","longitude":"-99.03639000"},{"name":"San Nicolás el Chico","latitude":"20.09580000","longitude":"-98.38776000"},{"name":"San Pablo el Grande","latitude":"20.36127000","longitude":"-98.15999000"},{"name":"San Pedro Tlachichilco","latitude":"20.16109000","longitude":"-98.26415000"},{"name":"San Pedro Tlaquilpan","latitude":"19.94514000","longitude":"-98.75293000"},{"name":"San Salvador","latitude":"20.28583000","longitude":"-99.01457000"},{"name":"San Sebastián Tenochtitlán","latitude":"20.27988000","longitude":"-99.68879000"},{"name":"Santa Ana Ahuehuepan","latitude":"20.12288000","longitude":"-99.34497000"},{"name":"Santa Ana Azcapotzaltongo","latitude":"19.94325000","longitude":"-99.38800000"},{"name":"Santa Ana Batha","latitude":"20.37944000","longitude":"-99.19186000"},{"name":"Santa Ana Hueytlalpan","latitude":"20.17484000","longitude":"-98.31209000"},{"name":"Santa Ana Tlachiahualpa","latitude":"19.76869000","longitude":"-98.90885000"},{"name":"Santa Ana Tzacuala","latitude":"20.19798000","longitude":"-98.20403000"},{"name":"Santa Ana de Allende","latitude":"21.12301000","longitude":"-98.98606000"},{"name":"Santa Bárbara","latitude":"19.66666000","longitude":"-98.56920000"},{"name":"Santa Catarina","latitude":"21.10045000","longitude":"-98.38077000"},{"name":"Santa Clara","latitude":"19.69889000","longitude":"-98.57778000"},{"name":"Santa Cruz","latitude":"21.19813000","longitude":"-98.49395000"},{"name":"Santa Elena Paliseca","latitude":"19.99805000","longitude":"-98.24144000"},{"name":"Santa Maria Amealco","latitude":"20.23771000","longitude":"-99.54963000"},{"name":"Santa Maria Macua","latitude":"20.13605000","longitude":"-99.47544000"},{"name":"Santa María Actipac","latitude":"19.85547000","longitude":"-98.74561000"},{"name":"Santa María Amajac","latitude":"20.22949000","longitude":"-98.99833000"},{"name":"Santa María Apaxco","latitude":"19.95524000","longitude":"-99.18680000"},{"name":"Santa María Asunción","latitude":"20.15508000","longitude":"-98.27037000"},{"name":"Santa María Batha","latitude":"20.22413000","longitude":"-99.25174000"},{"name":"Santa María Ilucan","latitude":"19.99222000","longitude":"-99.33951000"},{"name":"Santa María Magdalena","latitude":"19.97398000","longitude":"-99.37387000"},{"name":"Santa María Nativitas","latitude":"20.03901000","longitude":"-98.29535000"},{"name":"Santa María Quelites","latitude":"19.85391000","longitude":"-99.34773000"},{"name":"Santa María Xigui","latitude":"20.46111000","longitude":"-99.34500000"},{"name":"Santa María la Calera","latitude":"20.03072000","longitude":"-98.71929000"},{"name":"Santa Mónica","latitude":"19.98363000","longitude":"-98.62143000"},{"name":"Santa Teresa","latitude":"20.88989000","longitude":"-98.38330000"},{"name":"Santa Úrsula","latitude":"20.42030000","longitude":"-98.10478000"},{"name":"Santiago Acayutlán","latitude":"20.19719000","longitude":"-99.29534000"},{"name":"Santiago Cuaula","latitude":"19.60136000","longitude":"-98.64941000"},{"name":"Santiago Jaltepec","latitude":"20.10972000","longitude":"-98.71111000"},{"name":"Santiago Tepeyahualco","latitude":"19.84864000","longitude":"-98.66970000"},{"name":"Santiago Tezontlale","latitude":"20.16217000","longitude":"-99.09865000"},{"name":"Santiago Tlaltepoxco","latitude":"19.88365000","longitude":"-99.26046000"},{"name":"Santiago Tlapacoya","latitude":"20.10925000","longitude":"-98.83037000"},{"name":"Santiago Tlapanaloya","latitude":"19.87056000","longitude":"-99.35083000"},{"name":"Santiago Tlautla","latitude":"19.96222000","longitude":"-99.36909000"},{"name":"Santiago Tulantepec","latitude":"20.03618000","longitude":"-98.35563000"},{"name":"Santiago de Anaya","latitude":"20.38410000","longitude":"-98.96512000"},{"name":"Santo Tomas","latitude":"19.90364000","longitude":"-98.56882000"},{"name":"Singuilucan","latitude":"19.98964000","longitude":"-98.51923000"},{"name":"Talol","latitude":"21.12025000","longitude":"-98.62655000"},{"name":"Tancazahuela","latitude":"21.18300000","longitude":"-98.43483000"},{"name":"Tasquillo","latitude":"20.54698000","longitude":"-99.34562000"},{"name":"Taxadho","latitude":"20.43330000","longitude":"-99.14934000"},{"name":"Teacalco","latitude":"19.80561000","longitude":"-98.85209000"},{"name":"Tecacahuaco","latitude":"20.94133000","longitude":"-98.33889000"},{"name":"Tecozautla","latitude":"20.53302000","longitude":"-99.64662000"},{"name":"Tehuetlán","latitude":"21.05337000","longitude":"-98.50853000"},{"name":"Teltipán de Juárez","latitude":"20.11527000","longitude":"-99.20146000"},{"name":"Temango","latitude":"21.13143000","longitude":"-98.69051000"},{"name":"Tenango","latitude":"20.22714000","longitude":"-99.29068000"},{"name":"Tenango de Doria","latitude":"20.33828000","longitude":"-98.22805000"},{"name":"Teocalco","latitude":"20.08582000","longitude":"-99.28289000"},{"name":"Teofani","latitude":"20.32284000","longitude":"-99.04300000"},{"name":"Tepatepec","latitude":"20.24568000","longitude":"-99.08981000"},{"name":"Tepeapulco","latitude":"19.80470000","longitude":"-98.50153000"},{"name":"Tepehuacán de Guerrero","latitude":"21.01350000","longitude":"-98.84184000"},{"name":"Tepeitic","latitude":"20.24123000","longitude":"-99.29084000"},{"name":"Tepeji del Río de Ocampo","latitude":"19.90481000","longitude":"-99.34379000"},{"name":"Tepepa","latitude":"20.13440000","longitude":"-98.17131000"},{"name":"Tepetitla","latitude":"20.96140000","longitude":"-98.38400000"},{"name":"Tepetitlán","latitude":"20.18301000","longitude":"-99.38882000"},{"name":"Tepexititla","latitude":"21.13205000","longitude":"-98.44735000"},{"name":"Tepojaco","latitude":"19.84070000","longitude":"-98.94759000"},{"name":"Tetepango","latitude":"20.10168000","longitude":"-99.15108000"},{"name":"Texcaco","latitude":"20.83982000","longitude":"-98.61613000"},{"name":"Texcaltepec","latitude":"20.03028000","longitude":"-98.32417000"},{"name":"Texcapa","latitude":"21.09228000","longitude":"-98.85403000"},{"name":"Texcatepec","latitude":"20.27655000","longitude":"-99.25375000"},{"name":"Tezapotla","latitude":"21.17381000","longitude":"-98.81242000"},{"name":"Tezontepec","latitude":"19.88063000","longitude":"-98.81972000"},{"name":"Tezontepec de Aldama","latitude":"20.19073000","longitude":"-99.27429000"},{"name":"Tezoquipa","latitude":"20.05639000","longitude":"-99.20472000"},{"name":"Tianguistengo","latitude":"20.72796000","longitude":"-98.63209000"},{"name":"Tianguistengo (La Romera)","latitude":"19.91417000","longitude":"-99.32583000"},{"name":"Tiltepec","latitude":"20.31394000","longitude":"-98.68288000"},{"name":"Tinajas","latitude":"19.89739000","longitude":"-99.36662000"},{"name":"Tizayuca","latitude":"19.83721000","longitude":"-98.97607000"},{"name":"Tlacomulco","latitude":"20.15301000","longitude":"-98.12027000"},{"name":"Tlacpac","latitude":"20.14889000","longitude":"-98.21694000"},{"name":"Tlahuelilpan","latitude":"20.13087000","longitude":"-99.22677000"},{"name":"Tlahuelompa (San Francisco Tlahuelompa)","latitude":"20.65082000","longitude":"-98.57522000"},{"name":"Tlahuiltepa","latitude":"20.89805000","longitude":"-98.96263000"},{"name":"Tlalchiyahualica","latitude":"20.97086000","longitude":"-98.39975000"},{"name":"Tlalminulpa","latitude":"20.07491000","longitude":"-99.22220000"},{"name":"Tlamaco (San Gerónimo Tlamaco)","latitude":"20.03472000","longitude":"-99.22917000"},{"name":"Tlanalapa","latitude":"19.82525000","longitude":"-98.59449000"},{"name":"Tlanchinol","latitude":"21.03005000","longitude":"-98.64996000"},{"name":"Tlaxcalilla","latitude":"20.37731000","longitude":"-99.81545000"},{"name":"Tlaxcoapan","latitude":"20.09163000","longitude":"-99.22042000"},{"name":"Tlaxocoyucan","latitude":"20.22895000","longitude":"-98.49034000"},{"name":"Tolcayuca","latitude":"19.94112000","longitude":"-98.91908000"},{"name":"Tula de Allende","latitude":"20.05161000","longitude":"-99.34397000"},{"name":"Tulancingo","latitude":"20.08355000","longitude":"-98.36288000"},{"name":"Tulancingo de Bravo","latitude":"20.11983000","longitude":"-98.36049000"},{"name":"Tulipanes","latitude":"20.06028000","longitude":"-98.76722000"},{"name":"Tunititlán","latitude":"20.24938000","longitude":"-99.24433000"},{"name":"Unidad Habitacional Antonio Osorio de León (Bojay)","latitude":"20.04389000","longitude":"-99.24472000"},{"name":"Unidad Minera 11 de Julio","latitude":"20.10472000","longitude":"-98.72278000"},{"name":"Unidades Habitacionales","latitude":"20.06389000","longitude":"-98.42056000"},{"name":"Ventoquipa","latitude":"20.03361000","longitude":"-98.33778000"},{"name":"Vicente Guerrero","latitude":"20.16567000","longitude":"-99.05746000"},{"name":"Vicente Guerrero (San Javier)","latitude":"19.94991000","longitude":"-98.90135000"},{"name":"Vito","latitude":"19.99014000","longitude":"-99.19898000"},{"name":"Xiquila","latitude":"21.07803000","longitude":"-98.44315000"},{"name":"Xiteje de Zapata","latitude":"20.09728000","longitude":"-99.38872000"},{"name":"Xochiatipan","latitude":"20.85794000","longitude":"-98.28206000"},{"name":"Xochiatipan de Castillo","latitude":"20.83510000","longitude":"-98.28556000"},{"name":"Xochicoatlán","latitude":"20.79715000","longitude":"-98.63718000"},{"name":"Xochitlán","latitude":"20.29585000","longitude":"-99.18741000"},{"name":"Xolostitla de Morelos (Xolostitla)","latitude":"20.06639000","longitude":"-98.63861000"},{"name":"Xoxolpa","latitude":"20.87574000","longitude":"-98.42386000"},{"name":"Yahualica","latitude":"20.91485000","longitude":"-98.37868000"},{"name":"Yolotepec","latitude":"20.38767000","longitude":"-99.07307000"},{"name":"Zacacuautla","latitude":"20.21500000","longitude":"-98.22887000"},{"name":"Zacamulpa","latitude":"20.00583000","longitude":"-99.25694000"},{"name":"Zacualtipanito","latitude":"21.15407000","longitude":"-98.79997000"},{"name":"Zacualtipán","latitude":"20.65002000","longitude":"-98.65628000"},{"name":"Zapotlán de Juárez","latitude":"19.97709000","longitude":"-98.86420000"},{"name":"Zempoala","latitude":"19.93850000","longitude":"-98.66871000"},{"name":"Zimapan","latitude":"20.73814000","longitude":"-99.38180000"},{"name":"Zocea","latitude":"20.43760000","longitude":"-99.35742000"},{"name":"Zoquitipán","latitude":"20.90902000","longitude":"-98.43242000"},{"name":"Zothé","latitude":"20.36959000","longitude":"-99.71581000"},{"name":"Zotoluca","latitude":"19.61063000","longitude":"-98.51094000"},{"name":"Álvaro Obregón","latitude":"20.70662000","longitude":"-99.37323000"}]