[{"name":"Amphoe Ban Rai","latitude":"15.24921000","longitude":"99.32817000"},{"name":"Amphoe Huai Khot","latitude":"15.32761000","longitude":"99.51941000"},{"name":"Amphoe Lan Sak","latitude":"15.52289000","longitude":"99.46110000"},{"name":"Amphoe Mueang Uthai Thani","latitude":"15.40857000","longitude":"100.02794000"},{"name":"Amphoe Nong Chang","latitude":"15.36755000","longitude":"99.77273000"},{"name":"Amphoe Nong Khayang","latitude":"15.34892000","longitude":"99.94706000"},{"name":"Amphoe Sawang Arom","latitude":"15.60250000","longitude":"99.78490000"},{"name":"Amphoe Thap Than","latitude":"15.49057000","longitude":"99.82224000"},{"name":"Huai Khot","latitude":"15.29095000","longitude":"99.61661000"},{"name":"Lan Sak","latitude":"15.45289000","longitude":"99.57606000"},{"name":"Thap Than","latitude":"15.46063000","longitude":"99.89166000"},{"name":"Uthai Thani","latitude":"15.37939000","longitude":"100.02450000"}]