[{"name":"Aktau","latitude":"43.65000000","longitude":"51.16667000"},{"name":"Baūtīno","latitude":"44.54479000","longitude":"50.24629000"},{"name":"Beyneu","latitude":"45.31667000","longitude":"55.20000000"},{"name":"Fort-Shevchenko","latitude":"44.50654000","longitude":"50.26388000"},{"name":"Munayshy","latitude":"43.49111000","longitude":"52.10861000"},{"name":"Sayötesh","latitude":"44.32781000","longitude":"53.53246000"},{"name":"Shetpe","latitude":"44.16667000","longitude":"52.11667000"},{"name":"Taūshyq","latitude":"44.34678000","longitude":"51.34932000"},{"name":"Yeraliyev","latitude":"43.18032000","longitude":"51.68116000"},{"name":"Zhanaozen","latitude":"43.34116000","longitude":"52.86192000"},{"name":"Zhetibay","latitude":"43.59417000","longitude":"52.07889000"},{"name":"Ömirzaq","latitude":"43.59786000","longitude":"51.24171000"}]