[{"name":"Higashine","latitude":"38.43889000","longitude":"140.40056000"},{"name":"Higashine Shi","latitude":"38.42559000","longitude":"140.46670000"},{"name":"Kaminoyama","latitude":"38.15389000","longitude":"140.27361000"},{"name":"Kaminoyama-shi","latitude":"38.13333000","longitude":"140.33333000"},{"name":"Murayama","latitude":"38.46972000","longitude":"140.41441000"},{"name":"Murayama Shi","latitude":"38.51671000","longitude":"140.33518000"},{"name":"Nagai","latitude":"38.10361000","longitude":"140.03500000"},{"name":"Nagai-shi","latitude":"38.16667000","longitude":"140.00000000"},{"name":"Nanyō Shi","latitude":"38.10319000","longitude":"140.15609000"},{"name":"Obanazawa","latitude":"38.60333000","longitude":"140.40194000"},{"name":"Obanazawa Shi","latitude":"38.59362000","longitude":"140.47681000"},{"name":"Sagae","latitude":"38.37250000","longitude":"140.27250000"},{"name":"Sagae-shi","latitude":"38.45000000","longitude":"140.23333000"},{"name":"Sakata","latitude":"38.91667000","longitude":"139.85500000"},{"name":"Sakata Shi","latitude":"38.92490000","longitude":"139.98427000"},{"name":"Shinjō","latitude":"38.75861000","longitude":"140.30083000"},{"name":"Shinjō Shi","latitude":"38.78819000","longitude":"140.33989000"},{"name":"Takahata","latitude":"38.00250000","longitude":"140.19111000"},{"name":"Tendō","latitude":"38.35361000","longitude":"140.36972000"},{"name":"Tendō Shi","latitude":"38.35819000","longitude":"140.39652000"},{"name":"Tsuruoka","latitude":"38.72167000","longitude":"139.82167000"},{"name":"Tsuruoka Shi","latitude":"38.58507000","longitude":"139.80839000"},{"name":"Yamagata","latitude":"38.23333000","longitude":"140.36667000"},{"name":"Yamagata Shi","latitude":"38.24907000","longitude":"140.37272000"},{"name":"Yonezawa","latitude":"37.91000000","longitude":"140.11667000"},{"name":"Yonezawa Shi","latitude":"37.84998000","longitude":"140.12160000"},{"name":"Yuza","latitude":"39.01573000","longitude":"139.92909000"}]