[{"name":"Altagracia de Orituco","latitude":"9.86005000","longitude":"-66.38139000"},{"name":"Calabozo","latitude":"8.92416000","longitude":"-67.42929000"},{"name":"San Juan de los Morros","latitude":"9.91152000","longitude":"-67.35381000"},{"name":"Valle de La Pascua","latitude":"9.21554000","longitude":"-66.00734000"},{"name":"Zaraza","latitude":"9.35029000","longitude":"-65.32452000"}]