[{"name":"Bago","latitude":"17.33521000","longitude":"96.48135000"},{"name":"Letpandan","latitude":"17.78664000","longitude":"95.75076000"},{"name":"Nyaunglebin","latitude":"17.95363000","longitude":"96.72247000"},{"name":"Paungde","latitude":"18.49167000","longitude":"95.50591000"},{"name":"Pyay","latitude":"18.82464000","longitude":"95.22216000"},{"name":"Pyu","latitude":"18.48130000","longitude":"96.43742000"},{"name":"Taungoo","latitude":"18.94291000","longitude":"96.43408000"},{"name":"Thanatpin","latitude":"17.29136000","longitude":"96.57523000"},{"name":"Tharyarwady","latitude":"17.65399000","longitude":"95.78813000"}]