[{"name":"Barguna","latitude":"22.13333000","longitude":"90.13333000"},{"name":"Barisal","latitude":"22.80000000","longitude":"90.50000000"},{"name":"Bhola","latitude":"22.36667000","longitude":"90.81667000"},{"name":"Bhāndāria","latitude":"22.48898000","longitude":"90.06273000"},{"name":"Burhānuddin","latitude":"22.49518000","longitude":"90.72391000"},{"name":"Gaurnadi","latitude":"22.97372000","longitude":"90.22376000"},{"name":"Jhalokati","latitude":"22.60000000","longitude":"90.20000000"},{"name":"Lālmohan","latitude":"22.33774000","longitude":"90.73708000"},{"name":"Mathba","latitude":"22.28616000","longitude":"89.95883000"},{"name":"Mehendiganj","latitude":"22.82257000","longitude":"90.52859000"},{"name":"Nālchiti","latitude":"22.63696000","longitude":"90.27195000"},{"name":"Patuakhali","latitude":"22.33333000","longitude":"90.33333000"},{"name":"Pirojpur","latitude":"22.53671000","longitude":"90.00033000"}]