[{"name":"Hanoi","latitude":"21.02450000","longitude":"105.84117000"},{"name":"Huyện Quốc Oai","latitude":"20.97060000","longitude":"105.61127000"},{"name":"Hà Đông","latitude":"20.97136000","longitude":"105.77876000"},{"name":"Quận Ba Đình","latitude":"21.03587000","longitude":"105.82163000"},{"name":"Quận Hà Đông","latitude":"20.95482000","longitude":"105.76851000"},{"name":"Sơn Tây","latitude":"21.14053000","longitude":"105.50686000"}]