[{"name":"Altukhovo","latitude":"52.67559000","longitude":"34.36703000"},{"name":"Ardon’","latitude":"52.73524000","longitude":"32.30857000"},{"name":"Belyye Berega","latitude":"53.20851000","longitude":"34.66405000"},{"name":"Brasovskiy Rayon","latitude":"52.66667000","longitude":"34.75000000"},{"name":"Bryansk","latitude":"53.25209000","longitude":"34.37167000"},{"name":"Bryanskiy Rayon","latitude":"53.25000000","longitude":"34.41667000"},{"name":"Bytosh’","latitude":"53.81861000","longitude":"34.09116000"},{"name":"Churovichi","latitude":"52.16930000","longitude":"31.99260000"},{"name":"Dobrun’","latitude":"53.18512000","longitude":"34.24625000"},{"name":"Dubrovka","latitude":"53.69070000","longitude":"33.50710000"},{"name":"Dubrovskiy Rayon","latitude":"53.66667000","longitude":"33.41667000"},{"name":"Dyat’kovo","latitude":"53.59782000","longitude":"34.33825000"},{"name":"Dyat’kovskiy Rayon","latitude":"53.66667000","longitude":"34.25000000"},{"name":"Glinishchevo","latitude":"53.30416000","longitude":"34.06523000"},{"name":"Gordeyevka","latitude":"52.95690000","longitude":"31.97030000"},{"name":"Gordeyevskiy Rayon","latitude":"52.91667000","longitude":"31.91667000"},{"name":"Gorod Bryansk","latitude":"53.25000000","longitude":"34.41667000"},{"name":"Gorod Dyat’kovo","latitude":"53.60000000","longitude":"34.35000000"},{"name":"Ivanovka","latitude":"53.34694000","longitude":"34.21917000"},{"name":"Ivot","latitude":"53.67556000","longitude":"34.18722000"},{"name":"Karachev","latitude":"53.12292000","longitude":"34.98517000"},{"name":"Kletnya","latitude":"53.38967000","longitude":"33.21714000"},{"name":"Kletnyanskiy Rayon","latitude":"53.33333000","longitude":"33.16667000"},{"name":"Klimovo","latitude":"52.38053000","longitude":"32.19233000"},{"name":"Klimovskiy Rayon","latitude":"52.25000000","longitude":"32.16667000"},{"name":"Klintsovskiy Rayon","latitude":"52.75000000","longitude":"32.16667000"},{"name":"Klintsy","latitude":"52.76019000","longitude":"32.23935000"},{"name":"Kokino","latitude":"52.49640000","longitude":"34.78080000"},{"name":"Kokorevka","latitude":"52.58740000","longitude":"34.26920000"},{"name":"Komarichi","latitude":"52.41510000","longitude":"34.79050000"},{"name":"Komarichskiy Rayon","latitude":"52.41667000","longitude":"34.75000000"},{"name":"Korzhovka-Golubovka","latitude":"52.76742000","longitude":"32.35362000"},{"name":"Krasnaya Gora","latitude":"52.99950000","longitude":"31.60230000"},{"name":"Krasnogorskiy Rayon","latitude":"53.00000000","longitude":"31.50000000"},{"name":"Lokot’","latitude":"52.56500000","longitude":"34.57760000"},{"name":"Lopandino","latitude":"52.46660000","longitude":"34.81630000"},{"name":"Lyubokhna","latitude":"53.50332000","longitude":"34.38847000"},{"name":"Lyubovsho","latitude":"52.98510000","longitude":"31.54220000"},{"name":"Mglin","latitude":"53.05907000","longitude":"32.84753000"},{"name":"Mglinskiy Rayon","latitude":"53.16667000","longitude":"32.83333000"},{"name":"Navlinskiy Rayon","latitude":"52.83333000","longitude":"34.41667000"},{"name":"Navlya","latitude":"52.82544000","longitude":"34.49960000"},{"name":"Net’inka","latitude":"53.34778000","longitude":"34.19111000"},{"name":"Novozybkov","latitude":"52.53960000","longitude":"31.92750000"},{"name":"Novozybkovskiy Rayon","latitude":"52.58333000","longitude":"31.83333000"},{"name":"Novyy Ropsk","latitude":"52.29781000","longitude":"32.31206000"},{"name":"Pochep","latitude":"52.93360000","longitude":"33.44640000"},{"name":"Pochepskiy Rayon","latitude":"52.91667000","longitude":"33.50000000"},{"name":"Pogar","latitude":"52.55399000","longitude":"33.25907000"},{"name":"Pogarskiy Rayon","latitude":"52.50000000","longitude":"33.25000000"},{"name":"Putëvka","latitude":"53.25833000","longitude":"34.28778000"},{"name":"Raditsa-Krylovka","latitude":"53.31712000","longitude":"34.35742000"},{"name":"Rognedino","latitude":"53.80147000","longitude":"33.55760000"},{"name":"Rognedinskiy Rayon","latitude":"53.83333000","longitude":"33.66667000"},{"name":"Rzhanitsa","latitude":"53.42844000","longitude":"33.92297000"},{"name":"Sachkovichi","latitude":"52.34590000","longitude":"32.22460000"},{"name":"Sel’tso","latitude":"53.36831000","longitude":"34.10328000"},{"name":"Seshcha","latitude":"53.73610000","longitude":"33.33870000"},{"name":"Sevsk","latitude":"52.14910000","longitude":"34.49260000"},{"name":"Sevskiy Rayon","latitude":"52.08333000","longitude":"34.41667000"},{"name":"Starodub","latitude":"52.58444000","longitude":"32.76333000"},{"name":"Starodubskiy Rayon","latitude":"52.50000000","longitude":"32.75000000"},{"name":"Star’","latitude":"53.62362000","longitude":"34.15183000"},{"name":"Suponevo","latitude":"53.20492000","longitude":"34.29597000"},{"name":"Surazh","latitude":"53.01747000","longitude":"32.39178000"},{"name":"Surazhskiy Rayon","latitude":"53.08333000","longitude":"32.41667000"},{"name":"Suzemskiy Rayon","latitude":"52.41667000","longitude":"34.16667000"},{"name":"Suzëmka","latitude":"52.31834000","longitude":"34.07899000"},{"name":"Sven’","latitude":"53.18222000","longitude":"34.55111000"},{"name":"Trubchevsk","latitude":"52.57980000","longitude":"33.76440000"},{"name":"Trubchevskiy Rayon","latitude":"52.58333000","longitude":"33.75000000"},{"name":"Unecha","latitude":"52.84591000","longitude":"32.67394000"},{"name":"Unechskiy Rayon","latitude":"52.83333000","longitude":"32.83333000"},{"name":"Vygonichi","latitude":"53.09855000","longitude":"34.06728000"},{"name":"Vygonichskiy Rayon","latitude":"53.08333000","longitude":"34.00000000"},{"name":"Vyshkov","latitude":"52.47640000","longitude":"31.68730000"},{"name":"Zamishevo","latitude":"52.53950000","longitude":"32.01290000"},{"name":"Zaymishche","latitude":"52.72640000","longitude":"32.23340000"},{"name":"Zhiryatino","latitude":"53.22280000","longitude":"33.73060000"},{"name":"Zhiryatinskiy Rayon","latitude":"53.25000000","longitude":"33.58333000"},{"name":"Zhukovka","latitude":"53.53395000","longitude":"33.72798000"},{"name":"Zhukovskiy Rayon","latitude":"53.50000000","longitude":"33.83333000"},{"name":"Zlynka","latitude":"52.42670000","longitude":"31.73780000"}]