[{"name":"El Almendro","latitude":"11.67859000","longitude":"-84.70269000"},{"name":"Greytown","latitude":"10.94684000","longitude":"-83.73467000"},{"name":"Morrito","latitude":"11.62118000","longitude":"-85.08052000"},{"name":"San Carlos","latitude":"11.12360000","longitude":"-84.77795000"},{"name":"San Miguelito","latitude":"11.40255000","longitude":"-84.89991000"}]