[{"name":"Bolkhov","latitude":"53.44295000","longitude":"36.00546000"},{"name":"Bolkhovskiy Rayon","latitude":"53.41667000","longitude":"36.00000000"},{"name":"Dmitrovsk-Orlovskiy","latitude":"52.50500000","longitude":"35.14640000"},{"name":"Glazunovka","latitude":"52.50057000","longitude":"36.31997000"},{"name":"Khomutovo","latitude":"52.85386000","longitude":"37.43880000"},{"name":"Khotynets","latitude":"53.12860000","longitude":"35.39660000"},{"name":"Kolpny","latitude":"52.22823000","longitude":"37.03683000"},{"name":"Korsakovo","latitude":"53.26767000","longitude":"37.35689000"},{"name":"Krasnaya Zarya","latitude":"52.78250000","longitude":"37.68056000"},{"name":"Kromy","latitude":"52.68762000","longitude":"35.76665000"},{"name":"Livny","latitude":"52.42534000","longitude":"37.60689000"},{"name":"Maloarkhangel’sk","latitude":"52.40024000","longitude":"36.50332000"},{"name":"Mtsensk","latitude":"53.27657000","longitude":"36.57334000"},{"name":"Naryshkino","latitude":"52.96778000","longitude":"35.72677000"},{"name":"Novosil’","latitude":"52.97387000","longitude":"37.04048000"},{"name":"Orël","latitude":"52.96508000","longitude":"36.07849000"},{"name":"Pokrovskoye","latitude":"52.60968000","longitude":"36.87124000"},{"name":"Shablykino","latitude":"52.85661000","longitude":"35.19637000"},{"name":"Soskovo","latitude":"52.74752000","longitude":"35.38277000"},{"name":"Spasskoye-Lutovinovo","latitude":"53.37012000","longitude":"36.62297000"},{"name":"Trosna","latitude":"52.44460000","longitude":"35.77910000"},{"name":"Verkhov’ye","latitude":"52.81165000","longitude":"37.24215000"},{"name":"Vyshneye Dolgoye","latitude":"52.06302000","longitude":"37.40518000"},{"name":"Zalegoshch’","latitude":"52.89890000","longitude":"36.89093000"},{"name":"Zmiyëvka","latitude":"52.66697000","longitude":"36.37426000"},{"name":"Znamenka","latitude":"52.89789000","longitude":"35.97703000"},{"name":"Znamenskoye","latitude":"53.27869000","longitude":"35.69055000"}]