[{"name":"Antropovo","latitude":"58.39876000","longitude":"43.00659000"},{"name":"Antropovskiy Rayon","latitude":"58.16667000","longitude":"43.00000000"},{"name":"Bogovarovo","latitude":"58.97849000","longitude":"47.02462000"},{"name":"Buy","latitude":"58.48067000","longitude":"41.53699000"},{"name":"Buyskiy Rayon","latitude":"58.50000000","longitude":"41.50000000"},{"name":"Chistyye Bory","latitude":"58.36472000","longitude":"41.62778000"},{"name":"Chukhloma","latitude":"58.75375000","longitude":"42.68318000"},{"name":"Galich","latitude":"58.37884000","longitude":"42.34633000"},{"name":"Galichskiy Rayon","latitude":"58.33333000","longitude":"42.25000000"},{"name":"Georgiyevskoye","latitude":"58.73101000","longitude":"45.02404000"},{"name":"Kadyy","latitude":"57.78704000","longitude":"43.19029000"},{"name":"Kadyyskiy Rayon","latitude":"57.75000000","longitude":"43.25000000"},{"name":"Kologriv","latitude":"58.82748000","longitude":"44.31777000"},{"name":"Kosmynino","latitude":"57.58183000","longitude":"40.76434000"},{"name":"Kostroma","latitude":"57.76647000","longitude":"40.92686000"},{"name":"Kostromskoy Rayon","latitude":"57.83333000","longitude":"41.00000000"},{"name":"Krasnosel’skiy Rayon","latitude":"57.58333000","longitude":"41.33333000"},{"name":"Krasnoye-na-Volge","latitude":"57.51483000","longitude":"41.23900000"},{"name":"Makar’yev","latitude":"57.88501000","longitude":"43.80490000"},{"name":"Manturovo","latitude":"58.32889000","longitude":"44.76406000"},{"name":"Manturovskiy Rayon","latitude":"58.25000000","longitude":"44.75000000"},{"name":"Nerekhta","latitude":"57.45881000","longitude":"40.57471000"},{"name":"Nerekhtskiy Rayon","latitude":"57.41667000","longitude":"40.75000000"},{"name":"Neya","latitude":"58.29719000","longitude":"43.86808000"},{"name":"Neyskiy Rayon","latitude":"58.30000000","longitude":"43.90000000"},{"name":"Ostrovskiy Rayon","latitude":"57.66667000","longitude":"42.25000000"},{"name":"Ostrovskoye","latitude":"57.80574000","longitude":"42.24332000"},{"name":"Parfen’yevo","latitude":"58.48396000","longitude":"43.40876000"},{"name":"Parfen’yevskiy Rayon","latitude":"58.66667000","longitude":"43.50000000"},{"name":"Pavino","latitude":"59.11390000","longitude":"46.14142000"},{"name":"Ponazyrevo","latitude":"58.35784000","longitude":"46.31421000"},{"name":"Ponazyrevskiy Rayon","latitude":"58.70000000","longitude":"46.31667000"},{"name":"Pyshchug","latitude":"58.88726000","longitude":"45.71341000"},{"name":"Shar’inskiy Rayon","latitude":"58.50000000","longitude":"45.58333000"},{"name":"Shar’ya","latitude":"58.36909000","longitude":"45.51558000"},{"name":"Soligalich","latitude":"59.07960000","longitude":"42.28526000"},{"name":"Soligalichskiy Rayon","latitude":"59.00000000","longitude":"42.25000000"},{"name":"Sudislavl’","latitude":"57.88175000","longitude":"41.70829000"},{"name":"Sudislavskiy Rayon","latitude":"57.83333000","longitude":"41.66667000"},{"name":"Susanino","latitude":"58.14881000","longitude":"41.59483000"},{"name":"Vetluzhskiy","latitude":"58.39016000","longitude":"45.46543000"},{"name":"Vokhma","latitude":"58.93030000","longitude":"46.75859000"},{"name":"Vokhomskiy Rayon","latitude":"58.91667000","longitude":"46.58333000"},{"name":"Volgorechensk","latitude":"57.43931000","longitude":"41.15553000"}]