[{"name":"Ben Gardane","latitude":"33.13783000","longitude":"11.21965000"},{"name":"Beni Kheddache","latitude":"33.25279000","longitude":"10.19883000"},{"name":"Erriadh","latitude":"33.82063000","longitude":"10.85394000"},{"name":"Houmt El Souk","latitude":"33.87576000","longitude":"10.85745000"},{"name":"Jerba Midoun","latitude":"33.77918000","longitude":"10.95215000"},{"name":"Medenine","latitude":"33.35495000","longitude":"10.50548000"},{"name":"Midoun","latitude":"33.80813000","longitude":"10.99228000"},{"name":"Zarzis","latitude":"33.50398000","longitude":"11.11215000"}]