[{"name":"Abiko","latitude":"35.86667000","longitude":"140.01667000"},{"name":"Abiko-shi","latitude":"35.86947000","longitude":"140.06510000"},{"name":"Asahi-shi","latitude":"35.73443000","longitude":"140.65549000"},{"name":"Chiba","latitude":"35.60000000","longitude":"140.11667000"},{"name":"Chōshi-shi","latitude":"35.74303000","longitude":"140.77552000"},{"name":"Funabashi-shi","latitude":"35.69455000","longitude":"139.98255000"},{"name":"Futtsu","latitude":"35.31080000","longitude":"139.81877000"},{"name":"Hasaki","latitude":"35.73333000","longitude":"140.83333000"},{"name":"Honchō","latitude":"35.70129000","longitude":"139.98648000"},{"name":"Ichihara","latitude":"35.51667000","longitude":"140.08333000"},{"name":"Ichihara Shi","latitude":"35.42484000","longitude":"140.13725000"},{"name":"Ichikawa Shi","latitude":"35.71865000","longitude":"139.93294000"},{"name":"Inzai-shi","latitude":"35.81207000","longitude":"140.14098000"},{"name":"Isumi","latitude":"35.23005000","longitude":"140.40492000"},{"name":"Isumi Shi","latitude":"35.27777000","longitude":"140.34335000"},{"name":"Kamagaya Shi","latitude":"35.77289000","longitude":"139.99883000"},{"name":"Kamogawa","latitude":"35.09690000","longitude":"140.10030000"},{"name":"Kamogawa-shi","latitude":"35.10000000","longitude":"140.10000000"},{"name":"Kashiwa","latitude":"35.86224000","longitude":"139.97732000"},{"name":"Kashiwa Shi","latitude":"35.86017000","longitude":"139.99386000"},{"name":"Katori-shi","latitude":"35.88333000","longitude":"140.51667000"},{"name":"Katsuura","latitude":"35.14621000","longitude":"140.31507000"},{"name":"Katsuura-shi","latitude":"35.17535000","longitude":"140.26760000"},{"name":"Kimitsu","latitude":"35.35043000","longitude":"139.87029000"},{"name":"Kisarazu","latitude":"35.38329000","longitude":"139.93254000"},{"name":"Kisarazu Shi","latitude":"35.36981000","longitude":"139.98749000"},{"name":"Matsudo Shi","latitude":"35.79574000","longitude":"139.92908000"},{"name":"Minamibōsō Shi","latitude":"35.03657000","longitude":"139.92847000"},{"name":"Mobara","latitude":"35.42583000","longitude":"140.29608000"},{"name":"Mobara Shi","latitude":"35.44981000","longitude":"140.30163000"},{"name":"Nagareyama","latitude":"35.85630000","longitude":"139.90266000"},{"name":"Nagareyama-shi","latitude":"35.85631000","longitude":"139.90266000"},{"name":"Narashino-shi","latitude":"35.68091000","longitude":"140.03418000"},{"name":"Narita","latitude":"35.78333000","longitude":"140.31667000"},{"name":"Narita-shi","latitude":"35.81547000","longitude":"140.35757000"},{"name":"Narutō","latitude":"35.60000000","longitude":"140.41667000"},{"name":"Noda","latitude":"35.94897000","longitude":"139.86793000"},{"name":"Noda-shi","latitude":"35.98516000","longitude":"139.86215000"},{"name":"Omigawa","latitude":"35.85000000","longitude":"140.61667000"},{"name":"Sakura","latitude":"35.71667000","longitude":"140.23333000"},{"name":"Sakura-shi","latitude":"35.70619000","longitude":"140.21326000"},{"name":"Sambu-gun","latitude":"35.68843000","longitude":"140.45346000"},{"name":"Sanmu","latitude":"35.62756000","longitude":"140.41762000"},{"name":"Sanmu-shi","latitude":"35.62397000","longitude":"140.42079000"},{"name":"Sawara","latitude":"35.88333000","longitude":"140.50000000"},{"name":"Shiroi","latitude":"35.80000000","longitude":"140.06667000"},{"name":"Shiroi-shi","latitude":"35.80164000","longitude":"140.06005000"},{"name":"Shisui","latitude":"35.71667000","longitude":"140.26667000"},{"name":"Sodegaura-shi","latitude":"35.41642000","longitude":"140.01771000"},{"name":"Sōsa-shi","latitude":"35.69983000","longitude":"140.55366000"},{"name":"Tateyama","latitude":"34.98333000","longitude":"139.86667000"},{"name":"Tateyama-shi","latitude":"34.97156000","longitude":"139.86163000"},{"name":"Tomisato-shi","latitude":"35.72024000","longitude":"140.34080000"},{"name":"Tōgane","latitude":"35.55000000","longitude":"140.36667000"},{"name":"Tōgane-shi","latitude":"35.56517000","longitude":"140.36707000"},{"name":"Urayasu-shi","latitude":"35.64250000","longitude":"139.90192000"},{"name":"Yachimata","latitude":"35.65000000","longitude":"140.31667000"},{"name":"Yachimata-shi","latitude":"35.64241000","longitude":"140.29686000"},{"name":"Yachiyo-shi","latitude":"35.73921000","longitude":"140.10502000"},{"name":"Yotsukaidō","latitude":"35.65000000","longitude":"140.16667000"},{"name":"Yotsukaidō-shi","latitude":"35.67167000","longitude":"140.17912000"},{"name":"Yōkaichiba","latitude":"35.70000000","longitude":"140.55000000"},{"name":"Ōami","latitude":"35.51667000","longitude":"140.31667000"},{"name":"Ōamishirasato-shi","latitude":"35.51279000","longitude":"140.34295000"},{"name":"Ōhara","latitude":"35.24761000","longitude":"140.39289000"}]