[{"name":"Baroueli","latitude":"13.07489000","longitude":"-6.57171000"},{"name":"Cercle de San","latitude":"13.17895000","longitude":"-5.01617000"},{"name":"Kinmparana","latitude":"12.84217000","longitude":"-4.92450000"},{"name":"Ké-Macina","latitude":"13.96410000","longitude":"-5.35791000"},{"name":"Markala","latitude":"13.70210000","longitude":"-6.06590000"},{"name":"San","latitude":"13.30335000","longitude":"-4.89562000"},{"name":"Sokolo","latitude":"14.73280000","longitude":"-6.12190000"},{"name":"Ségou","latitude":"13.43170000","longitude":"-6.21570000"}]