[{"name":"Borgarfjarðarhreppur","latitude":"65.43401000","longitude":"-13.82933000"},{"name":"Breiðdalshreppur","latitude":"64.83333000","longitude":"-14.25000000"},{"name":"Egilsstaðir","latitude":"65.26687000","longitude":"-14.39485000"},{"name":"Eskifjörður","latitude":"65.07306000","longitude":"-14.01525000"},{"name":"Fjarðabyggð","latitude":"65.08333000","longitude":"-14.00000000"},{"name":"Fljótsdalshreppur","latitude":"64.85275000","longitude":"-15.25680000"},{"name":"Fljótsdalshérað","latitude":"65.25020000","longitude":"-15.37211000"},{"name":"Höfn","latitude":"64.25388000","longitude":"-15.21212000"},{"name":"Neskaupstaður","latitude":"65.14819000","longitude":"-13.68368000"},{"name":"Reyðarfjörður","latitude":"65.03164000","longitude":"-14.21832000"}]