[{"name":"Achalpur","latitude":"21.25665000","longitude":"77.51006000"},{"name":"Ahiri","latitude":"19.41386000","longitude":"80.00359000"},{"name":"Ahmadnagar","latitude":"19.09457000","longitude":"74.73843000"},{"name":"Ahmadpur","latitude":"18.70622000","longitude":"76.93731000"},{"name":"Airoli","latitude":"19.15096000","longitude":"72.99625000"},{"name":"Ajra","latitude":"16.11601000","longitude":"74.21097000"},{"name":"Akalkot","latitude":"17.52532000","longitude":"76.20611000"},{"name":"Akola","latitude":"20.50000000","longitude":"77.16667000"},{"name":"Akot","latitude":"21.09630000","longitude":"77.05880000"},{"name":"Alandi","latitude":"18.67756000","longitude":"73.89868000"},{"name":"Allapalli","latitude":"19.43172000","longitude":"80.06377000"},{"name":"Alibag","latitude":"18.64813000","longitude":"72.87579000"},{"name":"Amalner","latitude":"21.03983000","longitude":"75.05887000"},{"name":"Amarnath","latitude":"19.20000000","longitude":"73.16667000"},{"name":"Ambad","latitude":"19.61301000","longitude":"75.78906000"},{"name":"Ambajogai","latitude":"18.73312000","longitude":"76.38616000"},{"name":"Amravati Division","latitude":"20.93483000","longitude":"77.75694000"},{"name":"Amravati","latitude":"20.93333000","longitude":"77.75000000"},{"name":"Anjangaon","latitude":"21.16516000","longitude":"77.30910000"},{"name":"Anshing","latitude":"20.04090000","longitude":"77.31501000"},{"name":"Artist Village","latitude":"19.03227000","longitude":"73.04276000"},{"name":"Ashta","latitude":"16.94943000","longitude":"74.40936000"},{"name":"Ashti","latitude":"19.37671000","longitude":"76.22520000"},{"name":"Aurangabad","latitude":"19.88467000","longitude":"75.33986000"},{"name":"Ausa","latitude":"18.24728000","longitude":"76.49930000"},{"name":"Badlapur","latitude":"19.15516000","longitude":"73.26553000"},{"name":"Ballalpur","latitude":"19.84696000","longitude":"79.34578000"},{"name":"Basmat","latitude":"19.32872000","longitude":"77.15746000"},{"name":"Beed","latitude":"18.98921000","longitude":"75.75634000"},{"name":"Bhandara","latitude":"21.18333000","longitude":"80.00000000"},{"name":"Bhayandar","latitude":"19.30157000","longitude":"72.85107000"},{"name":"Bhigvan","latitude":"18.30070000","longitude":"74.76701000"},{"name":"Bhiwandi","latitude":"19.30023000","longitude":"73.05881000"},{"name":"Bhor","latitude":"18.14861000","longitude":"73.84336000"},{"name":"Bhudgaon","latitude":"16.90742000","longitude":"74.59954000"},{"name":"Bhusaval","latitude":"21.04365000","longitude":"75.78506000"},{"name":"Bhum","latitude":"18.45908000","longitude":"75.65877000"},{"name":"Bid","latitude":"18.83333000","longitude":"75.75000000"},{"name":"Biloli","latitude":"18.77385000","longitude":"77.72463000"},{"name":"Boisar","latitude":"19.80362000","longitude":"72.75598000"},{"name":"Borivli","latitude":"19.23496000","longitude":"72.85976000"},{"name":"Buldana","latitude":"20.58333000","longitude":"76.41667000"},{"name":"Balapur","latitude":"20.66612000","longitude":"76.77386000"},{"name":"Barsi","latitude":"18.23454000","longitude":"75.69275000"},{"name":"Baramati","latitude":"18.15174000","longitude":"74.57767000"},{"name":"Chandrapur","latitude":"20.11793000","longitude":"79.44377000"},{"name":"Chicholi","latitude":"21.46926000","longitude":"79.70151000"},{"name":"Chikhli (Buldhana)","latitude":"20.35046000","longitude":"76.25774000"},{"name":"Chinchani","latitude":"19.87458000","longitude":"72.68510000"},{"name":"Chiplun","latitude":"17.53339000","longitude":"73.50935000"},{"name":"Chopda","latitude":"21.24578000","longitude":"75.29946000"},{"name":"Chakan","latitude":"18.76059000","longitude":"73.86351000"},{"name":"Chalisgaon","latitude":"20.45781000","longitude":"75.01596000"},{"name":"Chanda","latitude":"19.95076000","longitude":"79.29523000"},{"name":"Chandor","latitude":"20.33060000","longitude":"74.24467000"},{"name":"Chandur","latitude":"19.73444000","longitude":"79.17167000"},{"name":"Chandur Bazar","latitude":"21.23853000","longitude":"77.74713000"},{"name":"Daryapur","latitude":"20.92489000","longitude":"77.32644000"},{"name":"Dattapur","latitude":"20.78075000","longitude":"78.14070000"},{"name":"Daulatabad","latitude":"19.93611000","longitude":"75.22148000"},{"name":"Daund","latitude":"18.46515000","longitude":"74.58375000"},{"name":"Dehu","latitude":"18.71851000","longitude":"73.76635000"},{"name":"Deoli","latitude":"20.64920000","longitude":"78.48023000"},{"name":"Deolali","latitude":"19.94404000","longitude":"73.83441000"},{"name":"Deulgaon Raja","latitude":"20.01757000","longitude":"76.03755000"},{"name":"Dharangaon","latitude":"21.01187000","longitude":"75.27407000"},{"name":"Dharmabad","latitude":"18.89116000","longitude":"77.84940000"},{"name":"Dhule","latitude":"21.06852000","longitude":"74.58837000"},{"name":"Dharur","latitude":"18.82017000","longitude":"76.10937000"},{"name":"Dhulia","latitude":"20.90130000","longitude":"74.77737000"},{"name":"Digras","latitude":"20.10350000","longitude":"77.71846000"},{"name":"Dombivli","latitude":"19.21667000","longitude":"73.08333000"},{"name":"Dondaicha","latitude":"21.32360000","longitude":"74.56804000"},{"name":"Dudhani","latitude":"17.35792000","longitude":"76.36688000"},{"name":"Durgapur","latitude":"20.00540000","longitude":"79.30273000"},{"name":"Dabhol","latitude":"17.58971000","longitude":"73.18001000"},{"name":"Dahanu","latitude":"19.96778000","longitude":"72.71263000"},{"name":"Darwha","latitude":"20.31017000","longitude":"77.77257000"},{"name":"Diglur","latitude":"18.54829000","longitude":"77.57695000"},{"name":"Erandol","latitude":"20.92206000","longitude":"75.32641000"},{"name":"Faizpur","latitude":"21.16766000","longitude":"75.86006000"},{"name":"Gadchiroli","latitude":"19.80000000","longitude":"80.20000000"},{"name":"Gadhinglaj","latitude":"16.22291000","longitude":"74.35010000"},{"name":"Gangakher","latitude":"18.96962000","longitude":"76.74946000"},{"name":"Gangapur","latitude":"19.69718000","longitude":"75.01045000"},{"name":"Gevrai","latitude":"19.26372000","longitude":"75.75007000"},{"name":"Ghoti Budrukh","latitude":"19.71641000","longitude":"73.62821000"},{"name":"Ghugus","latitude":"19.93810000","longitude":"79.11192000"},{"name":"Ghatanji","latitude":"20.14183000","longitude":"78.31333000"},{"name":"Gondiya","latitude":"21.05000000","longitude":"80.25000000"},{"name":"Goregaon","latitude":"18.15483000","longitude":"73.29147000"},{"name":"Guhagar","latitude":"17.48415000","longitude":"73.19289000"},{"name":"Hadgaon","latitude":"19.49552000","longitude":"77.65863000"},{"name":"Harnai","latitude":"17.81340000","longitude":"73.09668000"},{"name":"Hinganghat","latitude":"20.54875000","longitude":"78.83978000"},{"name":"Hingoli","latitude":"19.70000000","longitude":"77.15000000"},{"name":"Hirapur Hamesha","latitude":"21.55546000","longitude":"79.78581000"},{"name":"Ichalkaranji","latitude":"16.69117000","longitude":"74.46054000"},{"name":"Igatpuri","latitude":"19.69522000","longitude":"73.56260000"},{"name":"Indapur","latitude":"18.30000000","longitude":"73.25000000"},{"name":"Jaisingpur","latitude":"16.77639000","longitude":"74.55361000"},{"name":"Jalgaon","latitude":"21.00292000","longitude":"75.56602000"},{"name":"Jalgaon Jamod","latitude":"21.05194000","longitude":"76.53464000"},{"name":"Jalna","latitude":"19.80000000","longitude":"75.90000000"},{"name":"Jawhar","latitude":"19.91213000","longitude":"73.22679000"},{"name":"Jejuri","latitude":"18.27658000","longitude":"74.16008000"},{"name":"Jintur","latitude":"19.61186000","longitude":"76.68740000"},{"name":"Junnar","latitude":"19.20815000","longitude":"73.87520000"},{"name":"Kalamb","latitude":"19.04437000","longitude":"73.95554000"},{"name":"Kalamnuri","latitude":"19.67386000","longitude":"77.31149000"},{"name":"Kalas","latitude":"18.17241000","longitude":"74.79045000"},{"name":"Kalmeshwar","latitude":"21.23219000","longitude":"78.91988000"},{"name":"Kalyan","latitude":"19.24370000","longitude":"73.13554000"},{"name":"Kankauli","latitude":"16.26609000","longitude":"73.71217000"},{"name":"Kannad","latitude":"20.25684000","longitude":"75.13786000"},{"name":"Karjat","latitude":"18.91070000","longitude":"73.32354000"},{"name":"Karmala","latitude":"18.40770000","longitude":"75.19386000"},{"name":"Karad","latitude":"17.28937000","longitude":"74.18183000"},{"name":"Khadki","latitude":"18.56350000","longitude":"73.85205000"},{"name":"Kharakvasla","latitude":"18.43997000","longitude":"73.77545000"},{"name":"Khed","latitude":"17.71888000","longitude":"73.39693000"},{"name":"Khetia","latitude":"21.67124000","longitude":"74.58535000"},{"name":"Khopoli","latitude":"18.78562000","longitude":"73.34589000"},{"name":"Khuldabad","latitude":"20.00671000","longitude":"75.19245000"},{"name":"Khamgaon","latitude":"20.70738000","longitude":"76.56827000"},{"name":"Khapa","latitude":"21.42243000","longitude":"78.98168000"},{"name":"Kinwat","latitude":"19.62557000","longitude":"78.19870000"},{"name":"Kodoli","latitude":"16.87639000","longitude":"74.19090000"},{"name":"Kolhapur","latitude":"16.69013000","longitude":"74.22981000"},{"name":"Kondalwadi","latitude":"18.80727000","longitude":"77.77031000"},{"name":"Kopargaon","latitude":"19.88239000","longitude":"74.47605000"},{"name":"Koregaon","latitude":"18.64573000","longitude":"74.05909000"},{"name":"Koradi","latitude":"21.24758000","longitude":"79.10575000"},{"name":"Koynanagar","latitude":"17.40000000","longitude":"73.76667000"},{"name":"Kudal","latitude":"16.01148000","longitude":"73.68867000"},{"name":"Kurandvad","latitude":"16.68317000","longitude":"74.58892000"},{"name":"Kurduvadi","latitude":"18.09339000","longitude":"75.41567000"},{"name":"Kagal","latitude":"16.57702000","longitude":"74.31544000"},{"name":"Kalundri","latitude":"18.98020000","longitude":"73.12708000"},{"name":"Kamthi","latitude":"21.21615000","longitude":"79.19730000"},{"name":"Kandri","latitude":"21.42030000","longitude":"79.27663000"},{"name":"Karanja","latitude":"20.48273000","longitude":"77.48857000"},{"name":"Kati","latitude":"17.96137000","longitude":"75.88895000"},{"name":"Katol","latitude":"21.27388000","longitude":"78.58580000"},{"name":"Latur","latitude":"18.40000000","longitude":"76.80000000"},{"name":"Lohogaon","latitude":"18.59921000","longitude":"73.92701000"},{"name":"Lonavla","latitude":"18.75275000","longitude":"73.40575000"},{"name":"Lonar","latitude":"19.98533000","longitude":"76.52046000"},{"name":"Lanja","latitude":"16.86086000","longitude":"73.54993000"},{"name":"Lasalgaon","latitude":"20.14270000","longitude":"74.23946000"},{"name":"Mahabaleshwar","latitude":"17.56000000","longitude":"73.40000000"},{"name":"Mahad","latitude":"18.08333000","longitude":"73.41667000"},{"name":"Maindargi","latitude":"17.45739000","longitude":"76.29320000"},{"name":"Malkapur","latitude":"17.26214000","longitude":"74.17574000"},{"name":"Manchar","latitude":"19.00436000","longitude":"73.94346000"},{"name":"Mangrul Pir","latitude":"20.31379000","longitude":"77.34178000"},{"name":"Manmad","latitude":"20.25334000","longitude":"74.43755000"},{"name":"Manor","latitude":"19.72440000","longitude":"72.90966000"},{"name":"Mansar","latitude":"21.39602000","longitude":"79.26350000"},{"name":"Mehekar","latitude":"20.15050000","longitude":"76.56841000"},{"name":"Mhasla","latitude":"18.13340000","longitude":"73.11162000"},{"name":"Mhasvad","latitude":"17.63359000","longitude":"74.78773000"},{"name":"Mohpa","latitude":"21.31012000","longitude":"78.82969000"},{"name":"Moram","latitude":"17.78812000","longitude":"76.47077000"},{"name":"Morsi","latitude":"21.34030000","longitude":"78.01258000"},{"name":"Mowad","latitude":"21.46475000","longitude":"78.45103000"},{"name":"Mudkhed","latitude":"19.15657000","longitude":"77.50304000"},{"name":"Mukher","latitude":"18.70636000","longitude":"77.36795000"},{"name":"Mumbai","latitude":"19.07283000","longitude":"72.88261000"},{"name":"Mumbai Suburban","latitude":"19.12636000","longitude":"72.84897000"},{"name":"Murbad","latitude":"19.25395000","longitude":"73.38993000"},{"name":"Murgud","latitude":"16.39604000","longitude":"74.19142000"},{"name":"Murtajapur","latitude":"20.73299000","longitude":"77.36694000"},{"name":"Murud (Raigad)","latitude":"18.32817000","longitude":"72.96210000"},{"name":"Majalgaon","latitude":"19.15988000","longitude":"76.20832000"},{"name":"Makhjan","latitude":"17.26980000","longitude":"73.50031000"},{"name":"Malegaon","latitude":"20.54966000","longitude":"74.53462000"},{"name":"Malvan","latitude":"16.05981000","longitude":"73.46290000"},{"name":"Manwat","latitude":"19.30133000","longitude":"76.49735000"},{"name":"Matheran","latitude":"18.98281000","longitude":"73.26520000"},{"name":"Mul","latitude":"20.06987000","longitude":"79.67826000"},{"name":"Nagpur","latitude":"21.14631000","longitude":"79.08491000"},{"name":"Nagpur Division","latitude":"21.14911000","longitude":"79.10748000"},{"name":"Naldurg","latitude":"17.81667000","longitude":"76.28182000"},{"name":"Nanded","latitude":"18.91667000","longitude":"77.50000000"},{"name":"Nandurbar","latitude":"21.37000000","longitude":"74.20000000"},{"name":"Nashik","latitude":"19.99727000","longitude":"73.79096000"},{"name":"Nashik Division","latitude":"19.98295000","longitude":"73.78942000"},{"name":"Navi Mumbai","latitude":"19.03681000","longitude":"73.01582000"},{"name":"Neral","latitude":"19.02475000","longitude":"73.31688000"},{"name":"Nilanga","latitude":"18.11675000","longitude":"76.75279000"},{"name":"Nipani","latitude":"16.39900000","longitude":"74.38285000"},{"name":"Nagothana","latitude":"18.54225000","longitude":"73.13493000"},{"name":"Nandgaon","latitude":"20.30680000","longitude":"74.65501000"},{"name":"Nandura Buzurg","latitude":"20.83417000","longitude":"76.45924000"},{"name":"Osmanabad","latitude":"18.25000000","longitude":"76.16667000"},{"name":"Ozar","latitude":"20.09473000","longitude":"73.92816000"},{"name":"Paithan","latitude":"19.47506000","longitude":"75.38558000"},{"name":"Pandharpur","latitude":"17.67924000","longitude":"75.33098000"},{"name":"Panhala","latitude":"16.81210000","longitude":"74.11007000"},{"name":"Panvel","latitude":"18.98878000","longitude":"73.11013000"},{"name":"Parbhani","latitude":"19.50000000","longitude":"76.75000000"},{"name":"Parli Vaijnath","latitude":"18.85057000","longitude":"76.53163000"},{"name":"Parola","latitude":"20.88098000","longitude":"75.11937000"},{"name":"Partur","latitude":"19.59925000","longitude":"76.21541000"},{"name":"Pawni","latitude":"20.79229000","longitude":"79.63644000"},{"name":"Pen","latitude":"18.73734000","longitude":"73.09603000"},{"name":"Phaltan","latitude":"17.99113000","longitude":"74.43177000"},{"name":"Pimpri","latitude":"18.62292000","longitude":"73.80696000"},{"name":"Powai","latitude":"19.11640000","longitude":"72.90471000"},{"name":"Pulgaon","latitude":"20.72204000","longitude":"78.32056000"},{"name":"Pune","latitude":"18.51957000","longitude":"73.85535000"},{"name":"Pune Division","latitude":"18.74673000","longitude":"73.75465000"},{"name":"Pusad","latitude":"19.91274000","longitude":"77.57838000"},{"name":"Pachora","latitude":"20.66727000","longitude":"75.35305000"},{"name":"Palghar","latitude":"19.69693000","longitude":"72.76543000"},{"name":"Panchgani","latitude":"17.92449000","longitude":"73.80080000"},{"name":"Patan","latitude":"17.37513000","longitude":"73.90143000"},{"name":"Pathardi","latitude":"19.17279000","longitude":"75.17425000"},{"name":"Pathri","latitude":"19.25880000","longitude":"76.43412000"},{"name":"Patur","latitude":"20.46093000","longitude":"76.93725000"},{"name":"Pipri","latitude":"19.79371000","longitude":"75.53519000"},{"name":"Purna","latitude":"19.18170000","longitude":"77.02566000"},{"name":"Rahimatpur","latitude":"17.59210000","longitude":"74.19966000"},{"name":"Raigarh","latitude":"18.57000000","longitude":"73.13000000"},{"name":"Ratnagiri","latitude":"17.00000000","longitude":"73.50000000"},{"name":"Revadanda","latitude":"18.55363000","longitude":"72.92559000"},{"name":"Risod","latitude":"19.97671000","longitude":"76.78799000"},{"name":"Roha","latitude":"18.43687000","longitude":"73.11964000"},{"name":"Rahuri","latitude":"19.39069000","longitude":"74.64979000"},{"name":"Rajgurunagar","latitude":"18.86667000","longitude":"73.90000000"},{"name":"Rajur","latitude":"20.11087000","longitude":"78.89311000"},{"name":"Rajapur","latitude":"16.65679000","longitude":"73.51701000"},{"name":"Rajura","latitude":"19.77947000","longitude":"79.36459000"},{"name":"Ramtek","latitude":"21.39562000","longitude":"79.32725000"},{"name":"Raver","latitude":"21.24757000","longitude":"76.03509000"},{"name":"Sangamner","latitude":"19.56784000","longitude":"74.21154000"},{"name":"Sangli","latitude":"17.11202000","longitude":"74.76990000"},{"name":"Saoner","latitude":"21.38510000","longitude":"78.92155000"},{"name":"Satara","latitude":"17.68589000","longitude":"73.99333000"},{"name":"Satara Division","latitude":"17.72601000","longitude":"74.06433000"},{"name":"Satana","latitude":"20.59483000","longitude":"74.20301000"},{"name":"Selu","latitude":"19.45512000","longitude":"76.44073000"},{"name":"Shegaon","latitude":"20.79320000","longitude":"76.69921000"},{"name":"Shiraguppi","latitude":"16.61875000","longitude":"74.70907000"},{"name":"Shirdi","latitude":"19.76616000","longitude":"74.47738000"},{"name":"Shirgaon","latitude":"19.69589000","longitude":"72.71527000"},{"name":"Shirpur","latitude":"21.34821000","longitude":"74.88035000"},{"name":"Shirwal","latitude":"18.15059000","longitude":"73.97788000"},{"name":"Shivaji Nagar","latitude":"18.53017000","longitude":"73.85263000"},{"name":"Shrigonda","latitude":"18.61527000","longitude":"74.69895000"},{"name":"Shahada","latitude":"21.54538000","longitude":"74.47106000"},{"name":"Shahapur","latitude":"19.45231000","longitude":"73.32572000"},{"name":"Sillod","latitude":"20.30303000","longitude":"75.65284000"},{"name":"Sindhudurg","latitude":"16.17000000","longitude":"73.70000000"},{"name":"Sindi","latitude":"20.80509000","longitude":"78.88752000"},{"name":"Sinnar","latitude":"19.84505000","longitude":"73.99866000"},{"name":"Sirur","latitude":"18.82760000","longitude":"74.37475000"},{"name":"Solapur","latitude":"17.75000000","longitude":"75.50000000"},{"name":"Sonegaon","latitude":"20.62915000","longitude":"78.69207000"},{"name":"Soygaon","latitude":"20.59606000","longitude":"75.61765000"},{"name":"Srivardhan","latitude":"18.04592000","longitude":"73.01552000"},{"name":"Surgana","latitude":"20.55956000","longitude":"73.63747000"},{"name":"Sangola","latitude":"17.43948000","longitude":"75.19379000"},{"name":"Sasvad","latitude":"18.34351000","longitude":"74.03102000"},{"name":"Savantvadi","latitude":"15.90413000","longitude":"73.82191000"},{"name":"Savda","latitude":"21.15054000","longitude":"75.88938000"},{"name":"Talegaon Dabhade","latitude":"18.73502000","longitude":"73.67561000"},{"name":"Taloda","latitude":"21.56128000","longitude":"74.21238000"},{"name":"Telhara","latitude":"21.02694000","longitude":"76.83889000"},{"name":"Thane","latitude":"19.33333000","longitude":"73.25000000"},{"name":"Trimbak","latitude":"19.93268000","longitude":"73.52907000"},{"name":"Tuljapur","latitude":"18.00804000","longitude":"76.07011000"},{"name":"Tumsar","latitude":"21.38333000","longitude":"79.73333000"},{"name":"Tarapur","latitude":"19.86499000","longitude":"72.68426000"},{"name":"Tasgaon","latitude":"17.03700000","longitude":"74.60171000"},{"name":"Udgir","latitude":"18.39258000","longitude":"77.11756000"},{"name":"Ulhasnagar","latitude":"19.21667000","longitude":"73.15000000"},{"name":"Umarga","latitude":"17.83841000","longitude":"76.62331000"},{"name":"Umarkhed","latitude":"19.60144000","longitude":"77.68878000"},{"name":"Umred","latitude":"20.85396000","longitude":"79.32466000"},{"name":"Uran","latitude":"18.87813000","longitude":"72.93924000"},{"name":"Vaijapur","latitude":"19.92672000","longitude":"74.72750000"},{"name":"Varangaon","latitude":"21.01767000","longitude":"75.91042000"},{"name":"Vasind","latitude":"19.40844000","longitude":"73.26285000"},{"name":"Vengurla","latitude":"15.86125000","longitude":"73.63182000"},{"name":"Virar","latitude":"19.45591000","longitude":"72.81136000"},{"name":"Vite","latitude":"17.27343000","longitude":"74.53792000"},{"name":"Vada","latitude":"19.65347000","longitude":"73.14811000"},{"name":"Wadgaon","latitude":"18.73920000","longitude":"73.63945000"},{"name":"Wai","latitude":"17.95276000","longitude":"73.89058000"},{"name":"Wani","latitude":"20.05507000","longitude":"78.95313000"},{"name":"Wardha","latitude":"20.73933000","longitude":"78.59784000"},{"name":"Warora","latitude":"20.22885000","longitude":"79.00277000"},{"name":"Warud","latitude":"21.47101000","longitude":"78.26965000"},{"name":"Washim","latitude":"20.20000000","longitude":"77.20000000"},{"name":"Yavatmal","latitude":"20.15000000","longitude":"78.35000000"},{"name":"Yeola","latitude":"20.04240000","longitude":"74.48944000"},{"name":"Yaval","latitude":"21.16772000","longitude":"75.69762000"},{"name":"Arangaon","latitude":"19.02681000","longitude":"74.71487000"},{"name":"Arvi","latitude":"20.99585000","longitude":"78.22914000"},{"name":"Adawad","latitude":"21.21666667","longitude":"75.45000000"},{"name":"Agar Panchaitan","latitude":"18.17369200","longitude":"72.98853300"},{"name":"Aheri","latitude":"19.41166667","longitude":"80.00388889"},{"name":"Ahmednagar","latitude":"19.08333333","longitude":"74.73333333"},{"name":"Akkalkot","latitude":"17.51666667","longitude":"76.20000000"},{"name":"Akluj","latitude":"17.88333333","longitude":"75.01666667"},{"name":"Akolner","latitude":"18.98333333","longitude":"74.66666667"},{"name":"Akrani","latitude":"21.82423611","longitude":"74.21687222"},{"name":"Ale","latitude":"19.17000000","longitude":"74.12000000"},{"name":"Alkuti","latitude":"19.05000000","longitude":"74.23000000"},{"name":"Ambarnath","latitude":"19.20900000","longitude":"73.18600000"},{"name":"Ambegaon","latitude":"19.11666667","longitude":"73.73333333"},{"name":"Amgaon","latitude":"20.65000000","longitude":"79.95000000"},{"name":"Andheri","latitude":"19.11916667","longitude":"72.84694444"},{"name":"Andura","latitude":"20.88333333","longitude":"76.86666667"},{"name":"Anjarle","latitude":"17.85000000","longitude":"73.09000000"},{"name":"Arag","latitude":"16.78000000","longitude":"74.80000000"},{"name":"Ardhapur","latitude":"19.28333333","longitude":"77.38333333"},{"name":"Argaon","latitude":"16.77899900","longitude":"73.64553000"},{"name":"Asoda","latitude":"21.03333333","longitude":"75.60000000"},{"name":"Assaye","latitude":"20.24512778","longitude":"75.88739722"},{"name":"Astagaon","latitude":"19.66666667","longitude":"74.50000000"},{"name":"Aundh, Satara","latitude":"17.54583333","longitude":"74.37500000"},{"name":"Badnapur","latitude":"19.86666667","longitude":"75.73333333"},{"name":"Badnera","latitude":"20.85463056","longitude":"77.72931111"},{"name":"Bagewadi","latitude":"16.29000000","longitude":"74.60000000"},{"name":"Balapur, Akola district","latitude":"20.66612000","longitude":"76.77386000"},{"name":"Ballard Estate","latitude":"18.95000000","longitude":"72.84000000"},{"name":"Ballarpur","latitude":"19.83333333","longitude":"79.35000000"},{"name":"Banda, Maharashtra","latitude":"15.81273611","longitude":"73.86132778"},{"name":"Bandra","latitude":"19.05444444","longitude":"72.84055556"},{"name":"Baner","latitude":"18.56000000","longitude":"73.79027778"},{"name":"Bankot","latitude":"17.98333333","longitude":"73.05000000"},{"name":"Basmath","latitude":"19.31670000","longitude":"77.16670000"},{"name":"Bavdhan","latitude":"18.53527778","longitude":"73.78277778"},{"name":"Bawanbir","latitude":"21.08333333","longitude":"76.71666667"},{"name":"Bhadgaon, Maharashtra","latitude":"20.16666667","longitude":"75.23333333"},{"name":"Bhandardara","latitude":"19.52916667","longitude":"73.75138889"},{"name":"Bhandup","latitude":"19.14000000","longitude":"72.93000000"},{"name":"Bhiwapur","latitude":"20.83555556","longitude":"79.50111111"},{"name":"Bhokar","latitude":"19.21780300","longitude":"77.66939200"},{"name":"Bhokardan","latitude":"20.27000000","longitude":"75.77000000"},{"name":"Bhoom","latitude":"18.45972222","longitude":"75.66083333"},{"name":"Bhugaon","latitude":"18.50128400","longitude":"73.75016100"},{"name":"Bhusawal","latitude":"21.05000000","longitude":"75.77000000"},{"name":"Bijur","latitude":"13.84388889","longitude":"74.63972222"},{"name":"Bilashi","latitude":"16.98333000","longitude":"74.03333000"},{"name":"Borgaon Manju","latitude":"20.71944444","longitude":"77.15277778"},{"name":"Borivali","latitude":"19.23000000","longitude":"72.86000000"},{"name":"Brahmapuri","latitude":"20.60840000","longitude":"79.85590000"},{"name":"Breach Candy","latitude":"18.96700000","longitude":"72.80500000"},{"name":"Buldhana","latitude":"20.53333333","longitude":"76.18333333"},{"name":"Byculla","latitude":"18.98000000","longitude":"72.83500000"},{"name":"Chakur","latitude":"18.51305556","longitude":"76.87527778"},{"name":"Chandgad","latitude":"15.00000000","longitude":"74.00000000"},{"name":"Chausala","latitude":"18.70869200","longitude":"75.69159500"},{"name":"Chembur","latitude":"19.05871111","longitude":"72.89969444"},{"name":"Chichondi Patil","latitude":"19.00000000","longitude":"74.91666667"},{"name":"Chikhli (Jalna)","latitude":"20.02193000","longitude":"75.78544000"},{"name":"Chimur","latitude":"20.49694444","longitude":"79.37666667"},{"name":"Chinchpokli","latitude":"18.98333333","longitude":"72.83333333"},{"name":"Colaba","latitude":"18.91000000","longitude":"72.81000000"},{"name":"Daddi","latitude":"16.06666667","longitude":"74.43333333"},{"name":"Dahivel","latitude":"21.06666667","longitude":"74.16666667"},{"name":"Dapoli","latitude":"17.75888889","longitude":"73.18555556"},{"name":"Deccan Gymkhana","latitude":"18.51840000","longitude":"73.84060000"},{"name":"Deglur","latitude":"18.54777778","longitude":"77.57722222"},{"name":"Deolapar","latitude":"21.58611111","longitude":"79.36944444"},{"name":"Deoni","latitude":"18.26388889","longitude":"77.08222222"},{"name":"Devrukh","latitude":"17.06500000","longitude":"73.61583333"},{"name":"Dharavi","latitude":"19.05000000","longitude":"72.86667000"},{"name":"Dhawalpuri","latitude":"19.16666667","longitude":"74.51666667"},{"name":"Dighori","latitude":"20.88620000","longitude":"79.93420000"},{"name":"Dindori, Maharashtra","latitude":"20.20000000","longitude":"73.83305556"},{"name":"Diveagar","latitude":"18.17333333","longitude":"72.99166667"},{"name":"Dongri","latitude":"19.28333333","longitude":"72.78333333"},{"name":"Durgapur, Chandrapur","latitude":"20.00000000","longitude":"79.30000000"},{"name":"Fort","latitude":"18.93500000","longitude":"72.83590000"},{"name":"Ganpatipule","latitude":"17.14480000","longitude":"73.26660000"},{"name":"Ghargaon","latitude":"18.74868400","longitude":"74.63673400"},{"name":"Ghatkopar","latitude":"19.08000000","longitude":"72.91000000"},{"name":"Girgaon","latitude":"18.95300000","longitude":"72.81300000"},{"name":"Gondia","latitude":"21.45000000","longitude":"80.20000000"},{"name":"Gorai","latitude":"19.25005700","longitude":"72.78202100"},{"name":"Hadapsar, Pune","latitude":"18.49666667","longitude":"73.94166667"},{"name":"Halkarni","latitude":"16.16666667","longitude":"74.46666667"},{"name":"Harangul","latitude":"18.90000000","longitude":"76.66666667"},{"name":"Helwak","latitude":"17.38500000","longitude":"73.73500000"},{"name":"Hirapur","latitude":"21.53000000","longitude":"79.77000000"},{"name":"Hotgi","latitude":"17.58333333","longitude":"75.98333333"},{"name":"Jaitapur","latitude":"16.59000000","longitude":"73.35000000"},{"name":"Jakhangaon","latitude":"17.64639000","longitude":"74.32111000"},{"name":"Jalkot","latitude":"18.62916667","longitude":"77.18111111"},{"name":"Jamkhed","latitude":"18.72000000","longitude":"75.32000000"},{"name":"Jamod","latitude":"21.10000000","longitude":"76.60000000"},{"name":"Janephal","latitude":"20.29361111","longitude":"76.57583333"},{"name":"Jaoli","latitude":"17.90000000","longitude":"76.40000000"},{"name":"Jat, Sangli","latitude":"17.05000000","longitude":"75.21666667"},{"name":"Jategaon","latitude":"19.91666667","longitude":"73.65000000"},{"name":"Jaysingpur","latitude":"16.78350556","longitude":"74.56644167"},{"name":"Jogeshwari","latitude":"19.12000000","longitude":"72.85000000"},{"name":"Juhu","latitude":"19.10000000","longitude":"72.83000000"},{"name":"Kachurwahi","latitude":"21.33330000","longitude":"79.38330000"},{"name":"Kadegaon","latitude":"17.30000000","longitude":"74.35000000"},{"name":"Kadus","latitude":"18.88333333","longitude":"73.81666667"},{"name":"Kaij","latitude":"18.70000000","longitude":"76.08333333"},{"name":"Kalamb, Osmanabad","latitude":"18.57416667","longitude":"76.02166667"},{"name":"Kalamboli","latitude":"19.03333000","longitude":"73.10000000"},{"name":"Kali(DK)","latitude":"19.93877800","longitude":"77.73285700"},{"name":"Kalyani Nagar","latitude":"18.54810000","longitude":"73.90330000"},{"name":"Kamargaon","latitude":"20.61666667","longitude":"77.50000000"},{"name":"Kamatgi","latitude":"16.11900000","longitude":"75.84820000"},{"name":"Kamptee","latitude":"21.23330000","longitude":"79.20000000"},{"name":"Kankavli","latitude":"16.28551111","longitude":"73.68446111"},{"name":"Karajagi","latitude":"17.11666667","longitude":"75.58333333"},{"name":"Karanja Lad","latitude":"20.48330000","longitude":"77.48330000"},{"name":"Karkamb","latitude":"17.86530000","longitude":"75.29640000"},{"name":"Kasara","latitude":"19.63330000","longitude":"73.48330000"},{"name":"Kasoda","latitude":"20.81666667","longitude":"75.30000000"},{"name":"Katral","latitude":"17.16666667","longitude":"75.63333333"},{"name":"Khalapur","latitude":"18.81666667","longitude":"73.26666667"},{"name":"Khallar","latitude":"21.04028690","longitude":"77.46562960"},{"name":"Khanapur","latitude":"17.26111111","longitude":"74.70166667"},{"name":"Khandala","latitude":"18.05918056","longitude":"74.01262778"},{"name":"Khangaon","latitude":"20.50000000","longitude":"78.61666667"},{"name":"Kharda","latitude":"18.63753000","longitude":"75.47513000"},{"name":"Kharghar","latitude":"19.03614722","longitude":"73.06172222"},{"name":"Kharsundi","latitude":"17.34158500","longitude":"74.77599600"},{"name":"Khede","latitude":"20.91000000","longitude":"74.63000000"},{"name":"Khoni","latitude":"19.31130000","longitude":"73.05440000"},{"name":"Kondhali","latitude":"21.15000000","longitude":"78.61666667"},{"name":"Kopar Khairane","latitude":"19.10305556","longitude":"73.01055556"},{"name":"Kopela","latitude":"18.83000000","longitude":"80.23000000"},{"name":"Kuhi","latitude":"21.01082222","longitude":"79.35242222"},{"name":"Kurankhed","latitude":"20.70194444","longitude":"77.24972222"},{"name":"Kusumba","latitude":"20.91666667","longitude":"74.65000000"},{"name":"Lakhandur","latitude":"20.75000000","longitude":"79.88333333"},{"name":"Lavasa","latitude":"18.40528056","longitude":"73.50626944"},{"name":"Mahape","latitude":"19.11776000","longitude":"73.02693800"},{"name":"Mahim","latitude":"19.03500000","longitude":"72.84000000"},{"name":"Malabar Hill","latitude":"18.95000000","longitude":"72.79500000"},{"name":"Malad","latitude":"19.18611111","longitude":"72.84861111"},{"name":"Mandangad","latitude":"17.98333333","longitude":"73.25000000"},{"name":"Mandhal","latitude":"20.95000000","longitude":"79.46666667"},{"name":"Mandwa","latitude":"18.80300000","longitude":"72.88200000"},{"name":"Mangaon","latitude":"18.23333333","longitude":"73.28333333"},{"name":"Manjlegaon","latitude":"19.15000000","longitude":"76.23000000"},{"name":"Mankeshwar","latitude":"18.35416667","longitude":"75.63916667"},{"name":"Mankhurd","latitude":"19.05000000","longitude":"72.93000000"},{"name":"Manwath","latitude":"19.30000000","longitude":"76.50000000"},{"name":"Maregaon","latitude":"20.10000000","longitude":"78.81666667"},{"name":"Mastiholi","latitude":"16.08333333","longitude":"74.55000000"},{"name":"Masur, India","latitude":"17.40000000","longitude":"74.15000000"},{"name":"Matunga","latitude":"19.01798056","longitude":"72.84476389"},{"name":"Mazagaon","latitude":"18.97000000","longitude":"72.85000000"},{"name":"Mehergaon","latitude":"20.96666667","longitude":"74.63333333"},{"name":"Mehkar","latitude":"20.15000000","longitude":"76.57500000"},{"name":"Miraj","latitude":"16.83000000","longitude":"74.63000000"},{"name":"Mohadi","latitude":"21.30833333","longitude":"79.67500000"},{"name":"Mohol","latitude":"17.81670000","longitude":"75.66670000"},{"name":"Mokhada taluka","latitude":"19.93333333","longitude":"73.33333333"},{"name":"Mora, Maharashtra","latitude":"18.88900000","longitude":"72.93400000"},{"name":"Mulher","latitude":"20.78138889","longitude":"74.06388889"},{"name":"Mulund","latitude":"19.17168056","longitude":"72.95600000"},{"name":"Murud (Ratnagiri)","latitude":"17.77494444","longitude":"73.11815000"},{"name":"Murum","latitude":"17.78777778","longitude":"76.47000000"},{"name":"Nadgaon","latitude":"20.90101389","longitude":"76.01396389"},{"name":"Nagapur","latitude":"18.87000000","longitude":"76.43000000"},{"name":"Nala Sopara","latitude":"19.41540000","longitude":"72.86130000"},{"name":"Nalegaon","latitude":"18.41666667","longitude":"76.81666667"},{"name":"Nampur","latitude":"20.72861111","longitude":"74.31083333"},{"name":"Nandnee","latitude":"17.45500000","longitude":"75.84555556"},{"name":"Nandura","latitude":"20.83333333","longitude":"76.45972222"},{"name":"Narayangaon","latitude":"19.07000000","longitude":"73.97000000"},{"name":"Nardana","latitude":"21.20000000","longitude":"74.81666667"},{"name":"Nariman Point","latitude":"18.92000000","longitude":"72.83000000"},{"name":"Narkhed","latitude":"21.47000000","longitude":"78.53000000"},{"name":"Navapur","latitude":"21.17000000","longitude":"73.78000000"},{"name":"Nerur","latitude":"15.98333333","longitude":"73.65000000"},{"name":"Nevasa","latitude":"19.53333333","longitude":"74.93333333"},{"name":"Nighoj","latitude":"18.95972222","longitude":"74.27694444"},{"name":"Niphad","latitude":"20.08330000","longitude":"73.80000000"},{"name":"Nira Narsingpur","latitude":"17.98350000","longitude":"75.12396000"},{"name":"Pabal","latitude":"18.83083333","longitude":"74.05277778"},{"name":"Pahur, Maharashtra","latitude":"20.70000000","longitude":"75.68333333"},{"name":"Pali, Raigad","latitude":"18.54138400","longitude":"73.21996500"},{"name":"Palso","latitude":"20.76666667","longitude":"77.23333333"},{"name":"Pandhurli","latitude":"19.82905200","longitude":"73.85474500"},{"name":"Parel","latitude":"18.99000000","longitude":"72.84000000"},{"name":"Parner","latitude":"19.00300000","longitude":"74.43800000"},{"name":"Parseoni","latitude":"21.38333333","longitude":"79.15000000"},{"name":"Paturda","latitude":"20.95000000","longitude":"76.71666667"},{"name":"Paud","latitude":"18.52416667","longitude":"73.61583333"},{"name":"Pauni","latitude":"20.78000000","longitude":"79.63000000"},{"name":"Pedgaon","latitude":"18.51166667","longitude":"74.70750000"},{"name":"Peint","latitude":"20.25844722","longitude":"73.50305278"},{"name":"Phulambri","latitude":"20.10000000","longitude":"75.41666667"},{"name":"Piliv","latitude":"17.67884200","longitude":"74.96641200"},{"name":"Pimpalgaon Baswant","latitude":"20.16666667","longitude":"73.98333333"},{"name":"Pimpalgaon Raja","latitude":"20.71666667","longitude":"76.43333333"},{"name":"Pimpri-Chinchwad","latitude":"18.62777778","longitude":"73.81305556"},{"name":"Prabhadevi","latitude":"19.01690500","longitude":"72.82864900"},{"name":"Prakasha","latitude":"21.51666667","longitude":"74.31666667"},{"name":"Puntamba","latitude":"19.75000000","longitude":"74.63333333"},{"name":"Pural","latitude":"16.45000000","longitude":"73.36666667"},{"name":"Radhanagari","latitude":"16.41388889","longitude":"73.99777778"},{"name":"Rahata","latitude":"19.71666667","longitude":"74.48333333"},{"name":"Raireshwar","latitude":"18.05000000","longitude":"73.73333333"},{"name":"Ralegaon","latitude":"20.25000000","longitude":"79.81000000"},{"name":"Ramewadi","latitude":"16.03333333","longitude":"74.35000000"},{"name":"Renapur","latitude":"18.51666667","longitude":"76.60000000"},{"name":"Renavi","latitude":"17.26972222","longitude":"74.61055556"},{"name":"Revdanda","latitude":"18.55000000","longitude":"72.93333333"},{"name":"Sailu","latitude":"19.47000000","longitude":"76.47000000"},{"name":"Sakol","latitude":"18.28250000","longitude":"76.88444444"},{"name":"Sakoli","latitude":"21.08000000","longitude":"79.98000000"},{"name":"Sakri","latitude":"20.99027778","longitude":"74.31444444"},{"name":"Samudrapur","latitude":"20.65000000","longitude":"78.96666667"},{"name":"Sangameshwar","latitude":"17.18694444","longitude":"73.55305556"},{"name":"Sangole","latitude":"17.43944444","longitude":"75.19388889"},{"name":"Sangrampur, Maharashtra","latitude":"21.03000000","longitude":"76.68000000"},{"name":"Saoli","latitude":"20.08133056","longitude":"79.78286111"},{"name":"Sarangkheda","latitude":"21.43327300","longitude":"74.52642100"},{"name":"Saswad","latitude":"18.55000000","longitude":"74.00000000"},{"name":"Satpati","latitude":"19.71666667","longitude":"72.70000000"},{"name":"Savlaj","latitude":"17.10000000","longitude":"74.78000000"},{"name":"Sawantvadi","latitude":"16.00000000","longitude":"73.75000000"},{"name":"Sevagram","latitude":"20.73499167","longitude":"78.66256944"},{"name":"Sewri","latitude":"19.00000000","longitude":"72.86000000"},{"name":"Shedbal","latitude":"16.68916667","longitude":"74.75425556"},{"name":"Shevgaon","latitude":"19.35000000","longitude":"75.23333333"},{"name":"Shikrapur","latitude":"18.69361111","longitude":"74.13805556"},{"name":"Shirala","latitude":"16.98401111","longitude":"74.12415278"},{"name":"Shirol","latitude":"16.73333333","longitude":"74.60000000"},{"name":"Shirud","latitude":"20.71666667","longitude":"74.90000000"},{"name":"Sindewahi","latitude":"20.28333333","longitude":"79.65000000"},{"name":"Sindkheda","latitude":"21.26666667","longitude":"74.73333333"},{"name":"Sion, Mumbai","latitude":"19.04000000","longitude":"72.86000000"},{"name":"Sironcha","latitude":"18.83000000","longitude":"79.96000000"},{"name":"Sivala, East Godavari district","latitude":"16.75722222","longitude":"82.08861111"},{"name":"Sonala","latitude":"21.11666667","longitude":"76.73333333"},{"name":"Songir","latitude":"21.08333333","longitude":"74.78333333"},{"name":"Sonvad","latitude":"21.08333333","longitude":"75.35000000"},{"name":"Taklibhan","latitude":"19.61670000","longitude":"74.80000000"},{"name":"Talbid","latitude":"17.35000000","longitude":"74.13000000"},{"name":"Talegaon Dhamdhere","latitude":"18.66780000","longitude":"74.15360000"},{"name":"Talode","latitude":"21.56074167","longitude":"74.83000000"},{"name":"Tardeo","latitude":"18.97000000","longitude":"72.81000000"},{"name":"Thalner","latitude":"21.25000000","longitude":"74.96670000"},{"name":"Trombay","latitude":"19.00000000","longitude":"72.90000000"},{"name":"Uruli Kanchan","latitude":"18.48333333","longitude":"74.13333333"},{"name":"Vadgaon","latitude":"18.74860000","longitude":"73.64100000"},{"name":"Vadner","latitude":"20.25000000","longitude":"74.03330000"},{"name":"Vairag","latitude":"18.05000000","longitude":"75.80000000"},{"name":"Valsang","latitude":"17.60000000","longitude":"76.08330000"},{"name":"Vangaon","latitude":"19.86666667","longitude":"72.75000000"},{"name":"Vashi","latitude":"19.08000000","longitude":"73.01000000"},{"name":"Vatul","latitude":"16.75000000","longitude":"73.60000000"},{"name":"Velas, Maharashtra","latitude":"17.95850000","longitude":"73.04980000"},{"name":"Velneshwar","latitude":"17.38330000","longitude":"73.20000000"},{"name":"Vijaydurg","latitude":"16.56670000","longitude":"73.33330000"},{"name":"Vikhroli","latitude":"19.11000000","longitude":"72.94000000"},{"name":"Vile Parle","latitude":"19.10000000","longitude":"72.83000000"},{"name":"Vinchur","latitude":"20.11666667","longitude":"74.28333333"},{"name":"Vita, Maharashtra","latitude":"17.27110000","longitude":"74.53780000"},{"name":"Wadala","latitude":"19.02163056","longitude":"72.86458889"},{"name":"Wadner","latitude":"20.84972222","longitude":"76.33333333"},{"name":"Wadwani","latitude":"18.98333333","longitude":"76.05000000"},{"name":"Wagholi","latitude":"17.90000000","longitude":"74.08300000"},{"name":"Wakad","latitude":"18.59930000","longitude":"73.76250000"},{"name":"Walgaon","latitude":"20.99890000","longitude":"77.70640000"},{"name":"Walki","latitude":"18.95000000","longitude":"74.75000000"},{"name":"Worli","latitude":"19.00000000","longitude":"72.81500000"}]