[{"name":"Bhadrapur","latitude":"26.54404000","longitude":"88.09436000"},{"name":"Bhojpur","latitude":"27.17150000","longitude":"87.04607000"},{"name":"Biratnagar","latitude":"26.45505000","longitude":"87.27007000"},{"name":"Dhankutā","latitude":"26.98333000","longitude":"87.33333000"},{"name":"Dharān","latitude":"26.81436000","longitude":"87.27972000"},{"name":"Ilām","latitude":"26.90943000","longitude":"87.92824000"},{"name":"Inaruwa","latitude":"26.60675000","longitude":"87.14780000"},{"name":"Khanbari","latitude":"27.37604000","longitude":"87.20767000"},{"name":"Lahān","latitude":"26.72022000","longitude":"86.48258000"},{"name":"Lobujya","latitude":"27.95000000","longitude":"86.81667000"},{"name":"Namche Bazar","latitude":"27.80528000","longitude":"86.71058000"},{"name":"Rājbirāj","latitude":"26.53968000","longitude":"86.74796000"},{"name":"Siraha","latitude":"26.65422000","longitude":"86.20795000"},{"name":"Titahari","latitude":"26.66371000","longitude":"87.27403000"},{"name":"Triyuga","latitude":"26.79190000","longitude":"86.69900000"}]