[{"name":"Chicacao","latitude":"14.54295000","longitude":"-91.32636000"},{"name":"Cuyotenango","latitude":"14.54006000","longitude":"-91.57179000"},{"name":"Mazatenango","latitude":"14.53417000","longitude":"-91.50333000"},{"name":"Municipio de San Antonio Suchitepéquez","latitude":"14.51839000","longitude":"-91.40438000"},{"name":"Municipio de San Miguel Panán","latitude":"14.50525000","longitude":"-91.35956000"},{"name":"Municipio de Santa Bárbara","latitude":"14.47317000","longitude":"-91.24688000"},{"name":"Patulul","latitude":"14.42321000","longitude":"-91.16049000"},{"name":"Pueblo Nuevo","latitude":"14.64709000","longitude":"-91.53946000"},{"name":"Río Bravo","latitude":"14.40042000","longitude":"-91.31713000"},{"name":"San Antonio Suchitepéquez","latitude":"14.53938000","longitude":"-91.41442000"},{"name":"San Bernardino","latitude":"14.54240000","longitude":"-91.45811000"},{"name":"San Francisco Zapotitlán","latitude":"14.58939000","longitude":"-91.52144000"},{"name":"San Gabriel","latitude":"14.51076000","longitude":"-91.50745000"},{"name":"San José El Ídolo","latitude":"14.45016000","longitude":"-91.42222000"},{"name":"San Juan Bautista","latitude":"14.42274000","longitude":"-91.17904000"},{"name":"San Lorenzo","latitude":"14.48606000","longitude":"-91.51263000"},{"name":"San Miguel Panán","latitude":"14.52865000","longitude":"-91.36733000"},{"name":"San Pablo Jocopilas","latitude":"14.58882000","longitude":"-91.45188000"},{"name":"Santa Bárbara","latitude":"14.43563000","longitude":"-91.22685000"},{"name":"Santo Domingo Suchitepéquez","latitude":"14.47901000","longitude":"-91.48327000"},{"name":"Santo Tomás La Unión","latitude":"14.63219000","longitude":"-91.41075000"},{"name":"Zunilito","latitude":"14.61264000","longitude":"-91.50980000"}]