[{"name":"Chibombo","latitude":"-14.65685000","longitude":"28.07057000"},{"name":"Chibombo District","latitude":"-14.65808000","longitude":"28.07376000"},{"name":"Kabwe","latitude":"-14.44690000","longitude":"28.44644000"},{"name":"Kapiri Mposhi","latitude":"-13.97147000","longitude":"28.66985000"},{"name":"Mkushi","latitude":"-13.62015000","longitude":"29.39390000"},{"name":"Mumbwa","latitude":"-14.98293000","longitude":"27.06190000"},{"name":"Serenje","latitude":"-13.23251000","longitude":"30.23522000"}]