[{"name":"Augier","latitude":"13.76669000","longitude":"-60.98063000"},{"name":"Beane Field","latitude":"13.73976000","longitude":"-60.94741000"},{"name":"Beausejour","latitude":"13.75229000","longitude":"-60.95519000"},{"name":"Belle Vue","latitude":"13.79218000","longitude":"-60.95379000"},{"name":"Black Bay","latitude":"13.74330000","longitude":"-60.98272000"},{"name":"Bruceville/Shanty Town","latitude":"13.72558000","longitude":"-60.94907000"},{"name":"Cacoa","latitude":"13.77889000","longitude":"-60.93862000"},{"name":"Cantonement","latitude":"13.75665000","longitude":"-60.97662000"},{"name":"Carierre","latitude":"13.78514000","longitude":"-60.96721000"},{"name":"Catin","latitude":"13.77694000","longitude":"-60.97973000"},{"name":"Cocoa Dan","latitude":"13.73087000","longitude":"-60.97195000"},{"name":"Coolie Town","latitude":"13.76911000","longitude":"-60.96680000"},{"name":"De Mailly","latitude":"13.79649000","longitude":"-60.94938000"},{"name":"Derierre Bois","latitude":"13.76807000","longitude":"-60.97725000"},{"name":"Derierre Morne","latitude":"13.74126000","longitude":"-60.96057000"},{"name":"Docamel/La Resource","latitude":"13.74202000","longitude":"-60.95604000"},{"name":"Eau Piquant/St Urbain","latitude":"13.76025000","longitude":"-60.94012000"},{"name":"En Bamboo","latitude":"13.78155000","longitude":"-60.94763000"},{"name":"Esperance","latitude":"13.78854000","longitude":"-60.96108000"},{"name":"Fond Capeche","latitude":"13.77449000","longitude":"-60.94835000"},{"name":"Fond Sabot","latitude":"13.77659000","longitude":"-60.95546000"},{"name":"Grace","latitude":"13.77678000","longitude":"-60.96637000"},{"name":"Hewanorra Orchard","latitude":"13.74486000","longitude":"-60.97284000"},{"name":"Hope Estate","latitude":"13.76477000","longitude":"-60.95831000"},{"name":"Industrial Estate","latitude":"13.74096000","longitude":"-60.97393000"},{"name":"Joyeux","latitude":"13.78313000","longitude":"-60.96068000"},{"name":"La Resource","latitude":"13.74799000","longitude":"-60.96237000"},{"name":"La Retraite","latitude":"13.75944000","longitude":"-60.96632000"},{"name":"La Tourney/Cedar Heights","latitude":"13.74114000","longitude":"-60.96517000"},{"name":"Maganier","latitude":"13.79450000","longitude":"-60.98513000"},{"name":"Morne Cayenne","latitude":"13.78349000","longitude":"-60.95506000"},{"name":"Morne Vert","latitude":"13.77899000","longitude":"-60.97617000"},{"name":"Moule A Chique","latitude":"13.71458000","longitude":"-60.94835000"},{"name":"Obrier","latitude":"13.76831000","longitude":"-60.97313000"},{"name":"Pierrot","latitude":"13.76857000","longitude":"-60.94381000"},{"name":"Plut","latitude":"13.77417000","longitude":"-60.96076000"},{"name":"Pomme","latitude":"13.75792000","longitude":"-60.98147000"},{"name":"St Jude'S Highway","latitude":"13.75867000","longitude":"-60.97360000"},{"name":"Tete Morne/Morne Andrew","latitude":"13.77114000","longitude":"-60.95194000"},{"name":"Town","latitude":"13.72835000","longitude":"-60.95408000"},{"name":"Vieux Fort","latitude":"13.71667000","longitude":"-60.95000000"},{"name":"Vieux Fort/Laborie Highway","latitude":"13.73197000","longitude":"-60.95477000"},{"name":"Vige'","latitude":"13.78692000","longitude":"-60.93550000"},{"name":"Westall Group/The Mangue","latitude":"13.72707000","longitude":"-60.95312000"}]