[{"name":"Adam","latitude":"22.37934000","longitude":"57.52718000"},{"name":"Bahlā’","latitude":"22.97886000","longitude":"57.30470000"},{"name":"Bidbid","latitude":"23.40787000","longitude":"58.12830000"},{"name":"Izkī","latitude":"22.93333000","longitude":"57.76667000"},{"name":"Nizwá","latitude":"22.93333000","longitude":"57.53333000"},{"name":"Sufālat Samā’il","latitude":"23.31667000","longitude":"58.01667000"}]