[{"name":"Avdiyivka","latitude":"51.77660000","longitude":"32.79988000"},{"name":"Bakhmach","latitude":"51.18144000","longitude":"32.83463000"},{"name":"Baturyn","latitude":"51.34567000","longitude":"32.87794000"},{"name":"Berezna","latitude":"51.57160000","longitude":"31.78456000"},{"name":"Bobrovytsya","latitude":"50.74693000","longitude":"31.39480000"},{"name":"Borzna","latitude":"51.25464000","longitude":"32.42690000"},{"name":"Chernihiv","latitude":"51.50551000","longitude":"31.28487000"},{"name":"Chernihiv Raion","latitude":"51.58333000","longitude":"31.33333000"},{"name":"Chernihivs’ka Mis’krada","latitude":"51.49923000","longitude":"31.28805000"},{"name":"Desna","latitude":"50.92731000","longitude":"30.76048000"},{"name":"Dihtyari","latitude":"50.58264000","longitude":"32.77012000"},{"name":"Dobryanka","latitude":"52.06314000","longitude":"31.18567000"},{"name":"Horodnya","latitude":"51.89085000","longitude":"31.59741000"},{"name":"Ichnya","latitude":"50.86258000","longitude":"32.39425000"},{"name":"Kholmy","latitude":"51.87096000","longitude":"32.60063000"},{"name":"Kobyzhcha","latitude":"50.82854000","longitude":"31.50439000"},{"name":"Korop","latitude":"51.56638000","longitude":"32.95861000"},{"name":"Koryukivka","latitude":"51.76877000","longitude":"32.24813000"},{"name":"Kozelets’","latitude":"50.91334000","longitude":"31.12140000"},{"name":"Kruty","latitude":"51.05974000","longitude":"32.10634000"},{"name":"Kulykivka","latitude":"51.37345000","longitude":"31.64661000"},{"name":"Ladan","latitude":"50.51959000","longitude":"32.58178000"},{"name":"Lisovi Sorochyntsi","latitude":"50.68920000","longitude":"32.32919000"},{"name":"Lyubech","latitude":"51.70260000","longitude":"30.65692000"},{"name":"Mena","latitude":"51.52170000","longitude":"32.21568000"},{"name":"Mens’kyy Rayon","latitude":"51.52148000","longitude":"32.02166000"},{"name":"Nizhyn","latitude":"51.04801000","longitude":"31.88688000"},{"name":"Nosivka","latitude":"50.93152000","longitude":"31.58282000"},{"name":"Novhorod-Sivers’kyy","latitude":"52.00577000","longitude":"33.26150000"},{"name":"Olyshivka","latitude":"51.22266000","longitude":"31.33314000"},{"name":"Oster","latitude":"50.95060000","longitude":"30.88229000"},{"name":"Pryluky","latitude":"50.59323000","longitude":"32.38761000"},{"name":"Ripky","latitude":"51.80105000","longitude":"31.08383000"},{"name":"Sedniv","latitude":"51.64473000","longitude":"31.56497000"},{"name":"Semenivka","latitude":"52.17827000","longitude":"32.58183000"},{"name":"Shchors","latitude":"51.81865000","longitude":"31.94504000"},{"name":"Snovs'kyy Rayon","latitude":"51.83333000","longitude":"32.00000000"},{"name":"Sosnytsya","latitude":"51.52387000","longitude":"32.49985000"},{"name":"Sribne","latitude":"50.66384000","longitude":"32.91867000"},{"name":"Varva","latitude":"50.49503000","longitude":"32.71968000"},{"name":"Zhuravka","latitude":"50.48108000","longitude":"32.59490000"}]