[{"name":"Aire-la-Ville","latitude":"46.19057000","longitude":"6.04287000"},{"name":"Anières","latitude":"46.27673000","longitude":"6.22204000"},{"name":"Bellevue","latitude":"46.25739000","longitude":"6.15475000"},{"name":"Bernex","latitude":"46.17650000","longitude":"6.07544000"},{"name":"Carouge","latitude":"46.18096000","longitude":"6.13921000"},{"name":"Chancy","latitude":"46.15003000","longitude":"5.97153000"},{"name":"Chêne-Bougeries","latitude":"46.19843000","longitude":"6.18642000"},{"name":"Chêne-Bourg","latitude":"46.19534000","longitude":"6.19406000"},{"name":"Confignon","latitude":"46.17341000","longitude":"6.08437000"},{"name":"Corsier","latitude":"46.26297000","longitude":"6.22461000"},{"name":"Dardagny","latitude":"46.19564000","longitude":"5.99497000"},{"name":"Genève","latitude":"46.20222000","longitude":"6.14569000"},{"name":"Jussy","latitude":"46.23590000","longitude":"6.26701000"},{"name":"Lancy","latitude":"46.18981000","longitude":"6.11441000"},{"name":"Le Grand-Saconnex","latitude":"46.23188000","longitude":"6.12091000"},{"name":"Les Avanchets","latitude":"46.22168000","longitude":"6.10814000"},{"name":"Meinier","latitude":"46.24706000","longitude":"6.23423000"},{"name":"Meyrin","latitude":"46.23424000","longitude":"6.08025000"},{"name":"Onex","latitude":"46.18396000","longitude":"6.10237000"},{"name":"Plan-les-Ouates","latitude":"46.16789000","longitude":"6.11664000"},{"name":"Puplinge","latitude":"46.21043000","longitude":"6.23114000"},{"name":"Satigny","latitude":"46.21462000","longitude":"6.03553000"},{"name":"Thônex","latitude":"46.18815000","longitude":"6.19904000"},{"name":"Troinex","latitude":"46.16313000","longitude":"6.14745000"},{"name":"Vandœuvres","latitude":"46.22179000","longitude":"6.20285000"},{"name":"Vernier","latitude":"46.21702000","longitude":"6.08497000"},{"name":"Versoix","latitude":"46.28382000","longitude":"6.16214000"},{"name":"Veyrier","latitude":"46.16699000","longitude":"6.18436000"}]