[{"name":"Adana Province","countryCode":"TR","fipsCode":"81","iso":"01","latitude":"37.26123150","longitude":"35.39050460"},{"name":"Adıyaman Province","countryCode":"TR","fipsCode":"02","iso":"02","latitude":"37.90782910","longitude":"38.48499230"},{"name":"Afyonkarahisar Province","countryCode":"TR","fipsCode":"03","iso":"03","latitude":"38.73910990","longitude":"30.71200230"},{"name":"Aksaray Province","countryCode":"TR","fipsCode":"75","iso":"68","latitude":"38.33520430","longitude":"33.97500180"},{"name":"Amasya Province","countryCode":"TR","fipsCode":"05","iso":"05","latitude":"40.65166080","longitude":"35.90379660"},{"name":"Ankara Province","countryCode":"TR","fipsCode":"68","iso":"06","latitude":"39.78052450","longitude":"32.71813750"},{"name":"Antalya Province","countryCode":"TR","fipsCode":"07","iso":"07","latitude":"37.09516720","longitude":"31.07937050"},{"name":"Ardahan Province","countryCode":"TR","fipsCode":"86","iso":"75","latitude":"41.11129640","longitude":"42.78316740"},{"name":"Artvin Province","countryCode":"TR","fipsCode":"08","iso":"08","latitude":"41.07866400","longitude":"41.76282230"},{"name":"Aydın Province","countryCode":"TR","fipsCode":"09","iso":"09","latitude":"37.81170330","longitude":"28.48639630"},{"name":"Ağrı Province","countryCode":"TR","fipsCode":"04","iso":"04","latitude":"39.62692180","longitude":"43.02159650"},{"name":"Balıkesir Province","countryCode":"TR","fipsCode":"10","iso":"10","latitude":"39.76167820","longitude":"28.11226790"},{"name":"Bartın Province","countryCode":"TR","fipsCode":"87","iso":"74","latitude":"41.58105090","longitude":"32.46097940"},{"name":"Batman Province","countryCode":"TR","fipsCode":"76","iso":"72","latitude":"37.83624960","longitude":"41.36057390"},{"name":"Bayburt Province","countryCode":"TR","fipsCode":"77","iso":"69","latitude":"40.26032000","longitude":"40.22804800"},{"name":"Bilecik Province","countryCode":"TR","fipsCode":"11","iso":"11","latitude":"40.05665550","longitude":"30.06652360"},{"name":"Bingöl Province","countryCode":"TR","fipsCode":"12","iso":"12","latitude":"39.06263540","longitude":"40.76960950"},{"name":"Bitlis Province","countryCode":"TR","fipsCode":"13","iso":"13","latitude":"38.65231330","longitude":"42.42020280"},{"name":"Bolu Province","countryCode":"TR","fipsCode":"14","iso":"14","latitude":"40.57597660","longitude":"31.57880860"},{"name":"Burdur Province","countryCode":"TR","fipsCode":"15","iso":"15","latitude":"37.46126690","longitude":"30.06652360"},{"name":"Bursa Province","countryCode":"TR","fipsCode":"16","iso":"16","latitude":"40.06554590","longitude":"29.23207840"},{"name":"Denizli Province","countryCode":"TR","fipsCode":"20","iso":"20","latitude":"37.61283950","longitude":"29.23207840"},{"name":"Diyarbakır Province","countryCode":"TR","fipsCode":"21","iso":"21","latitude":"38.10663720","longitude":"40.54268960"},{"name":"Düzce Province","countryCode":"TR","fipsCode":"93","iso":"81","latitude":"40.87705310","longitude":"31.31927130"},{"name":"Edirne Province","countryCode":"TR","fipsCode":"22","iso":"22","latitude":"41.15172220","longitude":"26.51379640"},{"name":"Elazığ Province","countryCode":"TR","fipsCode":"23","iso":"23","latitude":"38.49648040","longitude":"39.21990290"},{"name":"Erzincan Province","countryCode":"TR","fipsCode":"24","iso":"24","latitude":"39.76819140","longitude":"39.05013060"},{"name":"Erzurum Province","countryCode":"TR","fipsCode":"25","iso":"25","latitude":"40.07467990","longitude":"41.66945620"},{"name":"Eskişehir Province","countryCode":"TR","fipsCode":"26","iso":"26","latitude":"39.63296570","longitude":"31.26263660"},{"name":"Gaziantep Province","countryCode":"TR","fipsCode":"83","iso":"27","latitude":"37.07638820","longitude":"37.38272340"},{"name":"Giresun Province","countryCode":"TR","fipsCode":"28","iso":"28","latitude":"40.64616720","longitude":"38.59355110"},{"name":"Gümüşhane Province","countryCode":"TR","fipsCode":"69","iso":"29","latitude":"40.28036730","longitude":"39.31432530"},{"name":"Hakkâri Province","countryCode":"TR","fipsCode":"70","iso":"30","latitude":"37.44593190","longitude":"43.74498410"},{"name":"Hatay Province","countryCode":"TR","fipsCode":"31","iso":"31","latitude":"36.40184880","longitude":"36.34980970"},{"name":"Isparta Province","countryCode":"TR","fipsCode":"33","iso":"32","latitude":"38.02114640","longitude":"31.07937050"},{"name":"Istanbul Province","countryCode":"TR","fipsCode":"34","iso":"34","latitude":"41.16343020","longitude":"28.76644080"},{"name":"Iğdır Province","countryCode":"TR","fipsCode":"88","iso":"76","latitude":"39.88798410","longitude":"44.00483650"},{"name":"Kahramanmaraş Province","countryCode":"TR","fipsCode":"46","iso":"46","latitude":"37.75030360","longitude":"36.95410700"},{"name":"Karabük Province","countryCode":"TR","fipsCode":"89","iso":"78","latitude":"41.18748900","longitude":"32.74174190"},{"name":"Karaman Province","countryCode":"TR","fipsCode":"78","iso":"70","latitude":"37.24363360","longitude":"33.61757700"},{"name":"Kars Province","countryCode":"TR","fipsCode":"84","iso":"36","latitude":"40.28076360","longitude":"42.99195270"},{"name":"Kastamonu Province","countryCode":"TR","fipsCode":"37","iso":"37","latitude":"41.41038630","longitude":"33.69983340"},{"name":"Kayseri Province","countryCode":"TR","fipsCode":"38","iso":"38","latitude":"38.62568540","longitude":"35.74068820"},{"name":"Kilis Province","countryCode":"TR","fipsCode":"90","iso":"79","latitude":"36.82047750","longitude":"37.16873390"},{"name":"Kırıkkale Province","countryCode":"TR","fipsCode":"79","iso":"71","latitude":"39.88768780","longitude":"33.75552480"},{"name":"Kırklareli Province","countryCode":"TR","fipsCode":"39","iso":"39","latitude":"41.72597950","longitude":"27.48383900"},{"name":"Kırşehir Province","countryCode":"TR","fipsCode":"40","iso":"40","latitude":"39.22689050","longitude":"33.97500180"},{"name":"Kocaeli Province","countryCode":"TR","fipsCode":"41","iso":"41","latitude":"40.85327040","longitude":"29.88152030"},{"name":"Konya Province","countryCode":"TR","fipsCode":"71","iso":"42","latitude":"37.98381340","longitude":"32.71813750"},{"name":"Kütahya Province","countryCode":"TR","fipsCode":"43","iso":"43","latitude":"39.35813700","longitude":"29.60354950"},{"name":"Malatya Province","countryCode":"TR","fipsCode":"44","iso":"44","latitude":"38.40150570","longitude":"37.95362980"},{"name":"Manisa Province","countryCode":"TR","fipsCode":"45","iso":"45","latitude":"38.84193730","longitude":"28.11226790"},{"name":"Mardin Province","countryCode":"TR","fipsCode":"72","iso":"47","latitude":"37.34429290","longitude":"40.61964870"},{"name":"Mersin Province","countryCode":"TR","fipsCode":"32","iso":"33","latitude":"36.81208580","longitude":"34.64147500"},{"name":"Muğla Province","countryCode":"TR","fipsCode":"48","iso":"48","latitude":"37.18358190","longitude":"28.48639630"},{"name":"Muş Province","countryCode":"TR","fipsCode":"49","iso":"49","latitude":"38.94618880","longitude":"41.75389310"},{"name":"Nevşehir Province","countryCode":"TR","fipsCode":"50","iso":"50","latitude":"38.69393990","longitude":"34.68565090"},{"name":"Niğde Province","countryCode":"TR","fipsCode":"73","iso":"51","latitude":"38.09930860","longitude":"34.68565090"},{"name":"Ordu Province","countryCode":"TR","fipsCode":"52","iso":"52","latitude":"40.79905800","longitude":"37.38990050"},{"name":"Osmaniye Province","countryCode":"TR","fipsCode":"91","iso":"80","latitude":"37.21302580","longitude":"36.17626150"},{"name":"Rize Province","countryCode":"TR","fipsCode":"53","iso":"53","latitude":"40.95814970","longitude":"40.92269850"},{"name":"Sakarya Province","countryCode":"TR","fipsCode":"54","iso":"54","latitude":"40.78885500","longitude":"30.40595400"},{"name":"Samsun Province","countryCode":"TR","fipsCode":"55","iso":"55","latitude":"41.18648590","longitude":"36.13226780"},{"name":"Siirt Province","countryCode":"TR","fipsCode":"74","iso":"56","latitude":"37.86588620","longitude":"42.14945230"},{"name":"Sinop Province","countryCode":"TR","fipsCode":"57","iso":"57","latitude":"41.55947490","longitude":"34.85805320"},{"name":"Sivas Province","countryCode":"TR","fipsCode":"58","iso":"58","latitude":"39.44880390","longitude":"37.12944970"},{"name":"Tekirdağ Province","countryCode":"TR","fipsCode":"59","iso":"59","latitude":"41.11212270","longitude":"27.26761160"},{"name":"Tokat Province","countryCode":"TR","fipsCode":"60","iso":"60","latitude":"40.39027130","longitude":"36.62518630"},{"name":"Trabzon Province","countryCode":"TR","fipsCode":"61","iso":"61","latitude":"40.79924100","longitude":"39.58479440"},{"name":"Tunceli Province","countryCode":"TR","fipsCode":"62","iso":"62","latitude":"39.30735540","longitude":"39.43877780"},{"name":"Uşak Province","countryCode":"TR","fipsCode":"64","iso":"64","latitude":"38.54313190","longitude":"29.23207840"},{"name":"Van Province","countryCode":"TR","fipsCode":"65","iso":"65","latitude":"38.36794170","longitude":"43.71827870"},{"name":"Yalova Province","countryCode":"TR","fipsCode":"92","iso":"77","latitude":"40.57759860","longitude":"29.20883030"},{"name":"Yozgat Province","countryCode":"TR","fipsCode":"66","iso":"66","latitude":"39.72719790","longitude":"35.10778580"},{"name":"Zonguldak Province","countryCode":"TR","fipsCode":"85","iso":"67","latitude":"41.31249170","longitude":"31.85982510"},{"name":"Çanakkale Province","countryCode":"TR","fipsCode":"17","iso":"17","latitude":"40.05101040","longitude":"26.98524220"},{"name":"Çankırı Province","countryCode":"TR","fipsCode":"82","iso":"18","latitude":"40.53690730","longitude":"33.58838930"},{"name":"Çorum Province","countryCode":"TR","fipsCode":"19","iso":"19","latitude":"40.49982110","longitude":"34.59862630"},{"name":"İzmir Province","countryCode":"TR","fipsCode":"35","iso":"35","latitude":"38.35916930","longitude":"27.26761160"},{"name":"Şanlıurfa Province","countryCode":"TR","fipsCode":"63","iso":"63","latitude":"37.35691020","longitude":"39.15436770"},{"name":"Şırnak Province","countryCode":"TR","fipsCode":"80","iso":"73","latitude":"37.41874810","longitude":"42.49183380"}]