[{"name":"Arfará","latitude":"37.15619000","longitude":"22.04485000"},{"name":"Aria","latitude":"37.57372000","longitude":"22.83539000"},{"name":"Arkhaía Kórinthos","latitude":"37.90953000","longitude":"22.88353000"},{"name":"Asopós","latitude":"36.72986000","longitude":"22.85455000"},{"name":"Asíni","latitude":"37.54431000","longitude":"22.86435000"},{"name":"Athíkia","latitude":"37.81675000","longitude":"22.92939000"},{"name":"Ayía Triás","latitude":"37.63707000","longitude":"22.80504000"},{"name":"Chóra","latitude":"37.05106000","longitude":"21.71690000"},{"name":"Dimitsána","latitude":"37.59524000","longitude":"22.04025000"},{"name":"Drépanon","latitude":"37.53888000","longitude":"22.89323000"},{"name":"Dídyma","latitude":"37.46250000","longitude":"23.17183000"},{"name":"Ermióni","latitude":"37.38492000","longitude":"23.24686000"},{"name":"Examília","latitude":"37.89736000","longitude":"22.92832000"},{"name":"Filiatrá","latitude":"37.15637000","longitude":"21.58532000"},{"name":"Gargaliánoi","latitude":"37.06518000","longitude":"21.63809000"},{"name":"Geráki","latitude":"36.99227000","longitude":"22.70663000"},{"name":"Géfyra","latitude":"36.68715000","longitude":"23.03509000"},{"name":"Gýtheio","latitude":"36.75500000","longitude":"22.56417000"},{"name":"Isthmía","latitude":"37.91356000","longitude":"23.00460000"},{"name":"Kalamata","latitude":"37.03913000","longitude":"22.11265000"},{"name":"Kardamýli","latitude":"36.88778000","longitude":"22.23317000"},{"name":"Karyés","latitude":"37.29119000","longitude":"22.50066000"},{"name":"Khiliomódhi","latitude":"37.81016000","longitude":"22.86972000"},{"name":"Kiáto","latitude":"38.01321000","longitude":"22.74839000"},{"name":"Koilás","latitude":"37.41230000","longitude":"23.12553000"},{"name":"Kokkónion","latitude":"37.97061000","longitude":"22.78018000"},{"name":"Kopanáki","latitude":"37.28913000","longitude":"21.81854000"},{"name":"Koróni","latitude":"36.79526000","longitude":"21.95794000"},{"name":"Koutsopódi","latitude":"37.68426000","longitude":"22.71355000"},{"name":"Kranídi","latitude":"37.37974000","longitude":"23.15969000"},{"name":"Krokeés","latitude":"36.88297000","longitude":"22.54683000"},{"name":"Kyparissía","latitude":"37.25111000","longitude":"21.67361000"},{"name":"Kyrás Vrýsi","latitude":"37.91295000","longitude":"22.98651000"},{"name":"Káto Dhiminió","latitude":"38.02490000","longitude":"22.73294000"},{"name":"Káto Glykóvrysi","latitude":"36.82791000","longitude":"22.77732000"},{"name":"Kórinthos","latitude":"37.94007000","longitude":"22.95130000"},{"name":"Langádhia","latitude":"37.68186000","longitude":"22.03002000"},{"name":"Leonídio","latitude":"37.16679000","longitude":"22.85773000"},{"name":"Levídion","latitude":"37.68269000","longitude":"22.29586000"},{"name":"Ligourión","latitude":"37.61233000","longitude":"23.03773000"},{"name":"Loutrá Oraías Elénis","latitude":"37.86466000","longitude":"22.99614000"},{"name":"Loutráki","latitude":"37.97830000","longitude":"22.97781000"},{"name":"Lékhaio","latitude":"37.93279000","longitude":"22.85002000"},{"name":"Magoúla","latitude":"37.08007000","longitude":"22.40469000"},{"name":"Megalópoli","latitude":"37.40111000","longitude":"22.14222000"},{"name":"Meligalás","latitude":"37.21667000","longitude":"21.96667000"},{"name":"Messíni","latitude":"37.05111000","longitude":"22.00778000"},{"name":"Methóni","latitude":"36.81973000","longitude":"21.70486000"},{"name":"Moláoi","latitude":"36.80757000","longitude":"22.85132000"},{"name":"Moúlki","latitude":"37.99319000","longitude":"22.72531000"},{"name":"Neméa","latitude":"37.82068000","longitude":"22.66102000"},{"name":"Nomós Arkadías","latitude":"37.58333000","longitude":"22.25000000"},{"name":"Náfplio","latitude":"37.56863000","longitude":"22.80691000"},{"name":"Néa Kíos","latitude":"37.59023000","longitude":"22.74342000"},{"name":"Néa Tírins","latitude":"37.60793000","longitude":"22.81996000"},{"name":"Palaiá Epídavros","latitude":"37.63847000","longitude":"23.15609000"},{"name":"Paralía Vérgas","latitude":"37.00708000","longitude":"22.15676000"},{"name":"Perachóra","latitude":"38.03021000","longitude":"22.94902000"},{"name":"Periyiáli","latitude":"37.94041000","longitude":"22.83946000"},{"name":"Pásion","latitude":"38.01294000","longitude":"22.72814000"},{"name":"Pórto Chéli","latitude":"37.32786000","longitude":"23.14384000"},{"name":"Pýlos","latitude":"36.91298000","longitude":"21.69650000"},{"name":"Sikyón","latitude":"37.98230000","longitude":"22.72462000"},{"name":"Skála","latitude":"36.85000000","longitude":"22.66667000"},{"name":"Sofikón","latitude":"37.79412000","longitude":"23.05204000"},{"name":"Sperchógeia","latitude":"37.07405000","longitude":"22.06248000"},{"name":"Spárti","latitude":"37.07446000","longitude":"22.43009000"},{"name":"Sykiá","latitude":"36.76398000","longitude":"22.94302000"},{"name":"Thouría","latitude":"37.08356000","longitude":"22.04891000"},{"name":"Tolón","latitude":"37.52021000","longitude":"22.85860000"},{"name":"Traganón","latitude":"37.89789000","longitude":"21.31245000"},{"name":"Trípoli","latitude":"37.50889000","longitude":"22.37944000"},{"name":"Vlachiótis","latitude":"36.86094000","longitude":"22.70831000"},{"name":"Vlachópoulo","latitude":"37.03186000","longitude":"21.79158000"},{"name":"Vokhaïkó","latitude":"37.94843000","longitude":"22.79203000"},{"name":"Vrakháti","latitude":"37.95895000","longitude":"22.80573000"},{"name":"Vélo","latitude":"37.97610000","longitude":"22.75985000"},{"name":"Xylókastro","latitude":"38.07762000","longitude":"22.63166000"},{"name":"Zevgolateió","latitude":"37.93333000","longitude":"22.80000000"},{"name":"Ágioi Theódoroi","latitude":"37.92736000","longitude":"23.14221000"},{"name":"Ágios Andréas","latitude":"37.34519000","longitude":"22.76466000"},{"name":"Árgos","latitude":"37.63333000","longitude":"22.73333000"},{"name":"Áris","latitude":"37.09920000","longitude":"22.00443000"},{"name":"Ássos","latitude":"37.93955000","longitude":"22.82223000"},{"name":"Ástros","latitude":"37.40395000","longitude":"22.72118000"},{"name":"Áyios Adhrianós","latitude":"37.59975000","longitude":"22.84560000"},{"name":"Áyios Vasílios","latitude":"37.79763000","longitude":"22.79727000"}]