[{"name":"Huyện Bến Cầu","latitude":"11.12889000","longitude":"106.14296000"},{"name":"Huyện Dương Minh Châu","latitude":"11.31833000","longitude":"106.25697000"},{"name":"Huyện Gò Dầu","latitude":"11.15737000","longitude":"106.27307000"},{"name":"Huyện Hòa Thành","latitude":"11.26706000","longitude":"106.14486000"},{"name":"Huyện Trảng Bàng","latitude":"11.05720000","longitude":"106.37539000"},{"name":"Huyện Tân Châu","latitude":"11.58739000","longitude":"106.28270000"},{"name":"Phú Khương","latitude":"11.28333000","longitude":"106.13333000"},{"name":"Tây Ninh","latitude":"11.31004000","longitude":"106.09828000"}]