[{"name":"Aagtekerke","latitude":"51.54667000","longitude":"3.50972000"},{"name":"Aardenburg","latitude":"51.27333000","longitude":"3.44722000"},{"name":"Arnemuiden","latitude":"51.50167000","longitude":"3.67500000"},{"name":"Axel","latitude":"51.26667000","longitude":"3.90833000"},{"name":"Borssele","latitude":"51.42333000","longitude":"3.73472000"},{"name":"Breskens","latitude":"51.39583000","longitude":"3.55556000"},{"name":"Brouwershaven","latitude":"51.72667000","longitude":"3.91250000"},{"name":"Bruinisse","latitude":"51.66167000","longitude":"4.09444000"},{"name":"Colijnsplaat","latitude":"51.59917000","longitude":"3.84861000"},{"name":"Dauwendaele","latitude":"51.49299000","longitude":"3.62624000"},{"name":"Domburg","latitude":"51.56333000","longitude":"3.49583000"},{"name":"Gemeente Borsele","latitude":"51.44191000","longitude":"3.81127000"},{"name":"Gemeente Goes","latitude":"51.51500000","longitude":"3.83949000"},{"name":"Gemeente Hulst","latitude":"51.31897000","longitude":"4.08690000"},{"name":"Gemeente Kapelle","latitude":"51.48223000","longitude":"3.96524000"},{"name":"Gemeente Middelburg","latitude":"51.49719000","longitude":"3.65459000"},{"name":"Gemeente Noord-Beveland","latitude":"51.57226000","longitude":"3.78353000"},{"name":"Gemeente Reimerswaal","latitude":"51.42040000","longitude":"4.13169000"},{"name":"Gemeente Sluis","latitude":"51.33490000","longitude":"3.51974000"},{"name":"Gemeente Terneuzen","latitude":"51.28550000","longitude":"3.82817000"},{"name":"Gemeente Tholen","latitude":"51.58336000","longitude":"4.13373000"},{"name":"Gemeente Veere","latitude":"51.53902000","longitude":"3.55688000"},{"name":"Gemeente Vlissingen","latitude":"51.45914000","longitude":"3.62325000"},{"name":"Goes","latitude":"51.50417000","longitude":"3.88889000"},{"name":"Griffioen","latitude":"51.50548000","longitude":"3.59598000"},{"name":"Grijpskerke","latitude":"51.53417000","longitude":"3.56111000"},{"name":"Haamstede","latitude":"51.69682000","longitude":"3.74299000"},{"name":"Hulst","latitude":"51.28000000","longitude":"4.05278000"},{"name":"IJzendijke","latitude":"51.32167000","longitude":"3.61667000"},{"name":"Kamperland","latitude":"51.57167000","longitude":"3.70417000"},{"name":"Kapelle","latitude":"51.48627000","longitude":"3.95804000"},{"name":"Klarenbeek","latitude":"51.50964000","longitude":"3.61132000"},{"name":"Kloetinge","latitude":"51.49833000","longitude":"3.91528000"},{"name":"Koewacht","latitude":"51.22833000","longitude":"3.97361000"},{"name":"Koudekerke","latitude":"51.48167000","longitude":"3.55417000"},{"name":"Lammerenburg","latitude":"51.46667000","longitude":"3.55833000"},{"name":"Malta","latitude":"51.65000000","longitude":"3.93333000"},{"name":"Meliskerke","latitude":"51.51417000","longitude":"3.50972000"},{"name":"Middelburg","latitude":"51.50000000","longitude":"3.61389000"},{"name":"Nieuw- en Sint Joosland","latitude":"51.48333000","longitude":"3.65694000"},{"name":"Nieuwerkerk","latitude":"51.65083000","longitude":"4.00139000"},{"name":"Oostburg","latitude":"51.32583000","longitude":"3.48750000"},{"name":"Oosterland","latitude":"51.65000000","longitude":"4.03611000"},{"name":"Oostkapelle","latitude":"51.56667000","longitude":"3.55139000"},{"name":"Othene","latitude":"51.33083000","longitude":"3.85972000"},{"name":"Oud-Vossemeer","latitude":"51.57083000","longitude":"4.19861000"},{"name":"Poortvliet","latitude":"51.54417000","longitude":"4.14306000"},{"name":"Renesse","latitude":"51.73250000","longitude":"3.77500000"},{"name":"Sas van Gent","latitude":"51.22750000","longitude":"3.79861000"},{"name":"Scharendijke","latitude":"51.73583000","longitude":"3.84306000"},{"name":"Scherpenisse","latitude":"51.54667000","longitude":"4.10556000"},{"name":"Schoondijke","latitude":"51.35417000","longitude":"3.55556000"},{"name":"Schouwen-Duiveland","latitude":"51.69294000","longitude":"3.88676000"},{"name":"Serooskerke","latitude":"51.54833000","longitude":"3.59444000"},{"name":"Sint Laurens","latitude":"51.52750000","longitude":"3.60278000"},{"name":"Sint Philipsland","latitude":"51.61667000","longitude":"4.16528000"},{"name":"Sluis","latitude":"51.30833000","longitude":"3.38611000"},{"name":"Sluiskil","latitude":"51.27833000","longitude":"3.83611000"},{"name":"Stavenisse","latitude":"51.58750000","longitude":"4.01250000"},{"name":"Terneuzen","latitude":"51.33583000","longitude":"3.82778000"},{"name":"Tholen","latitude":"51.53167000","longitude":"4.22083000"},{"name":"Vlissingen","latitude":"51.44250000","longitude":"3.57361000"},{"name":"Waarde","latitude":"51.41750000","longitude":"4.06806000"},{"name":"Wemeldinge","latitude":"51.51833000","longitude":"3.99722000"},{"name":"West-Souburg","latitude":"51.46417000","longitude":"3.59167000"},{"name":"Westdorpe","latitude":"51.23250000","longitude":"3.82639000"},{"name":"Westerzicht","latitude":"51.46252000","longitude":"3.58687000"},{"name":"Westkapelle","latitude":"51.52917000","longitude":"3.44028000"},{"name":"Wissenkerke","latitude":"51.58500000","longitude":"3.74722000"},{"name":"Wolphaartsdijk","latitude":"51.53167000","longitude":"3.81944000"},{"name":"Yerseke","latitude":"51.49250000","longitude":"4.05000000"},{"name":"Zaamslag","latitude":"51.31250000","longitude":"3.91250000"},{"name":"Zierikzee","latitude":"51.65000000","longitude":"3.91944000"},{"name":"Zoutelande","latitude":"51.50167000","longitude":"3.48472000"}]