[{"name":"Al Dhihar","latitude":"13.97900000","longitude":"44.15260000"},{"name":"Al Makhādir","latitude":"14.13965000","longitude":"44.20330000"},{"name":"Al Mashannah","latitude":"13.95730000","longitude":"44.17000000"},{"name":"Al Qafr","latitude":"14.31290000","longitude":"44.03000000"},{"name":"Al ‘Udayn","latitude":"13.96112000","longitude":"43.96608000"},{"name":"An Nādirah","latitude":"14.07398000","longitude":"44.49925000"},{"name":"Ar Radmah","latitude":"14.21200000","longitude":"44.56420000"},{"name":"As Sabrah","latitude":"13.84270000","longitude":"44.33860000"},{"name":"As Saddah","latitude":"14.16610000","longitude":"44.37510000"},{"name":"As Sayyani","latitude":"13.82240000","longitude":"44.21180000"},{"name":"Ash Sha'ir","latitude":"14.03180000","longitude":"44.36190000"},{"name":"Ba'dan","latitude":"13.98870000","longitude":"44.32360000"},{"name":"Dhī as Sufāl","latitude":"13.82137000","longitude":"44.07775000"},{"name":"Far Al Udayn","latitude":"13.95780000","longitude":"43.78270000"},{"name":"Hazm Al Udayn","latitude":"14.16984000","longitude":"43.93814000"},{"name":"Hubaysh","latitude":"14.11600000","longitude":"44.08240000"},{"name":"Ibb","latitude":"13.96667000","longitude":"44.18333000"},{"name":"Jiblah","latitude":"13.91480000","longitude":"44.12130000"},{"name":"Mudhaykhirah","latitude":"13.86608000","longitude":"43.96866000"},{"name":"Yarīm","latitude":"14.25388000","longitude":"44.31176000"}]