[{"name":"Acherítou","latitude":"35.10022000","longitude":"33.86155000"},{"name":"Ammochostos Municipality","latitude":"35.11755000","longitude":"33.94335000"},{"name":"Avgórou","latitude":"35.03615000","longitude":"33.83918000"},{"name":"Ayia Napa","latitude":"34.98213000","longitude":"34.00183000"},{"name":"Derýneia","latitude":"35.06484000","longitude":"33.96083000"},{"name":"Famagusta","latitude":"35.12054000","longitude":"33.93894000"},{"name":"Frénaros","latitude":"35.04121000","longitude":"33.92242000"},{"name":"Lefkónoiko","latitude":"35.25980000","longitude":"33.73189000"},{"name":"Leonárisso","latitude":"35.46892000","longitude":"34.13886000"},{"name":"Liopétri","latitude":"35.00885000","longitude":"33.89256000"},{"name":"Paralímni","latitude":"35.03945000","longitude":"33.98181000"},{"name":"Protaras","latitude":"35.01250000","longitude":"34.05833000"},{"name":"Rizokárpaso","latitude":"35.59719000","longitude":"34.37916000"},{"name":"Tríkomo","latitude":"35.28628000","longitude":"33.89167000"},{"name":"Áchna","latitude":"35.05515000","longitude":"33.78388000"}]