[{"name":"Aimeliik","countryCode":"PW","fipsCode":"01","iso":"002","latitude":"7.44558590","longitude":"134.50308780"},{"name":"Airai","countryCode":"PW","fipsCode":"02","iso":"004","latitude":"7.39661180","longitude":"134.56902250"},{"name":"Angaur","countryCode":"PW","fipsCode":"03","iso":"010","latitude":"6.90922300","longitude":"134.13879340"},{"name":"Hatohobei","countryCode":"PW","fipsCode":"04","iso":"050","latitude":"3.00706580","longitude":"131.12377810"},{"name":"Kayangel","countryCode":"PW","fipsCode":"05","iso":"100","latitude":"8.07000000","longitude":"134.70277800"},{"name":"Koror","countryCode":"PW","fipsCode":"06","iso":"150","latitude":"7.33756460","longitude":"134.48894690"},{"name":"Melekeok","countryCode":"PW","fipsCode":"07","iso":"212","latitude":"7.51502860","longitude":"134.59725180"},{"name":"Ngaraard","countryCode":"PW","fipsCode":"08","iso":"214","latitude":"7.60794000","longitude":"134.63486450"},{"name":"Ngarchelong","countryCode":"PW","fipsCode":"09","iso":"218","latitude":"7.71054690","longitude":"134.63016460"},{"name":"Ngardmau","countryCode":"PW","fipsCode":"10","iso":"222","latitude":"7.58504860","longitude":"134.55960890"},{"name":"Ngatpang","countryCode":"PW","fipsCode":"11","iso":"224","latitude":"7.47109940","longitude":"134.52664660"},{"name":"Ngchesar","countryCode":"PW","fipsCode":"12","iso":"226","latitude":"7.45232800","longitude":"134.57843420"},{"name":"Ngeremlengui","countryCode":"PW","fipsCode":"13","iso":"227","latitude":"7.51983970","longitude":"134.55960890"},{"name":"Ngiwal","countryCode":"PW","fipsCode":"14","iso":"228","latitude":"7.56147640","longitude":"134.61606190"},{"name":"Peleliu","countryCode":"PW","fipsCode":"15","iso":"350","latitude":"7.00229060","longitude":"134.24316280"},{"name":"Sonsorol","countryCode":"PW","fipsCode":"16","iso":"370","latitude":"5.32681190","longitude":"132.22391170"}]