[{"name":"Acolla","latitude":"-11.73193000","longitude":"-75.54634000"},{"name":"Carhuamayo","latitude":"-10.91667000","longitude":"-76.03333000"},{"name":"Chanchamayo","latitude":"-11.05000000","longitude":"-75.31667000"},{"name":"Chupaca","latitude":"-12.06667000","longitude":"-75.28333000"},{"name":"Concepción","latitude":"-11.91762000","longitude":"-75.31401000"},{"name":"Huancayo","latitude":"-12.06513000","longitude":"-75.20486000"},{"name":"Huasahuasi","latitude":"-11.26527000","longitude":"-75.64722000"},{"name":"Huayucachi","latitude":"-12.13333000","longitude":"-75.23333000"},{"name":"Jauja","latitude":"-11.77584000","longitude":"-75.49656000"},{"name":"Junín","latitude":"-11.15895000","longitude":"-75.99304000"},{"name":"La Oroya","latitude":"-11.51893000","longitude":"-75.89935000"},{"name":"Mazamari","latitude":"-11.32583000","longitude":"-74.53083000"},{"name":"Morococha","latitude":"-11.59972000","longitude":"-76.14111000"},{"name":"Orcotuna","latitude":"-11.96886000","longitude":"-75.30780000"},{"name":"Perené","latitude":"-10.94510000","longitude":"-75.22394000"},{"name":"Pilcomay","latitude":"-12.04722000","longitude":"-75.24931000"},{"name":"Provincia de Chupaca","latitude":"-12.30000000","longitude":"-75.43300000"},{"name":"Provincia de Concepción","latitude":"-11.75000000","longitude":"-75.00000000"},{"name":"Provincia de Huancayo","latitude":"-12.17319000","longitude":"-75.16169000"},{"name":"Provincia de Jauja","latitude":"-11.72600000","longitude":"-75.54700000"},{"name":"Provincia de Junín","latitude":"-11.08333000","longitude":"-76.00000000"},{"name":"Provincia de Satipo","latitude":"-11.50000000","longitude":"-74.25000000"},{"name":"Provincia de Tarma","latitude":"-11.40562000","longitude":"-75.69129000"},{"name":"Provincia de Yauli","latitude":"-11.66667000","longitude":"-76.16667000"},{"name":"San Agustin","latitude":"-11.97195000","longitude":"-75.25562000"},{"name":"San Jerónimo","latitude":"-11.95591000","longitude":"-75.28411000"},{"name":"San Pedro de Cajas","latitude":"-11.25061000","longitude":"-75.86116000"},{"name":"San Ramón","latitude":"-11.12417000","longitude":"-75.35733000"},{"name":"Satipo","latitude":"-11.25222000","longitude":"-74.63861000"},{"name":"Sicaya","latitude":"-12.03333000","longitude":"-75.28333000"},{"name":"Tarma","latitude":"-11.41899000","longitude":"-75.68992000"}]