[{"name":"Şakhrah","latitude":"32.37087000","longitude":"35.84267000"},{"name":"Ḩalāwah","latitude":"32.38433000","longitude":"35.66167000"},{"name":"‘Ajlūn","latitude":"32.33326000","longitude":"35.75279000"},{"name":"‘Anjarah","latitude":"32.30630000","longitude":"35.75653000"},{"name":"‘Ayn Jannah","latitude":"32.33466000","longitude":"35.76370000"}]