[{"name":"Askvoll","latitude":"61.34850000","longitude":"5.05318000"},{"name":"Aurland","latitude":"60.90556000","longitude":"7.18734000"},{"name":"Balestrand","latitude":"61.20809000","longitude":"6.53551000"},{"name":"Bremanger","latitude":"61.76862000","longitude":"5.28907000"},{"name":"Dale","latitude":"61.36353000","longitude":"5.40036000"},{"name":"Eid","latitude":"61.90684000","longitude":"5.99321000"},{"name":"Eivindvik","latitude":"60.98133000","longitude":"5.07497000"},{"name":"Farnes","latitude":"61.30850000","longitude":"7.79694000"},{"name":"Fjaler","latitude":"61.36383000","longitude":"5.39808000"},{"name":"Flora","latitude":"61.59994000","longitude":"5.03144000"},{"name":"Florø","latitude":"61.59957000","longitude":"5.03280000"},{"name":"Førde","latitude":"61.45045000","longitude":"5.85397000"},{"name":"Gaular","latitude":"61.32564000","longitude":"5.79523000"},{"name":"Gaupne","latitude":"61.40472000","longitude":"7.29458000"},{"name":"Gloppen","latitude":"61.77728000","longitude":"6.21561000"},{"name":"Gulen","latitude":"60.98192000","longitude":"5.07408000"},{"name":"Hardbakke","latitude":"61.07562000","longitude":"4.84111000"},{"name":"Hermansverk","latitude":"61.18461000","longitude":"6.85016000"},{"name":"Hornindal","latitude":"61.96925000","longitude":"6.52249000"},{"name":"Hyllestad","latitude":"61.17036000","longitude":"5.29614000"},{"name":"Høyanger","latitude":"61.21880000","longitude":"6.07308000"},{"name":"Jølster","latitude":"61.56923000","longitude":"6.48351000"},{"name":"Leikanger","latitude":"61.18556000","longitude":"6.82199000"},{"name":"Luster","latitude":"61.40310000","longitude":"7.29793000"},{"name":"Lærdal","latitude":"61.09842000","longitude":"7.48101000"},{"name":"Lærdalsøyri","latitude":"61.10001000","longitude":"7.47374000"},{"name":"Måløy","latitude":"61.93535000","longitude":"5.11362000"},{"name":"Naustdal","latitude":"61.51034000","longitude":"5.71719000"},{"name":"Nordfjordeid","latitude":"61.91220000","longitude":"5.98557000"},{"name":"Sandane","latitude":"61.77277000","longitude":"6.21496000"},{"name":"Sande","latitude":"61.32511000","longitude":"5.79773000"},{"name":"Selje","latitude":"62.04263000","longitude":"5.34449000"},{"name":"Sogndal","latitude":"61.23144000","longitude":"7.10301000"},{"name":"Solund","latitude":"61.07394000","longitude":"4.83876000"},{"name":"Stryn","latitude":"61.90406000","longitude":"6.72400000"},{"name":"Svelgen","latitude":"61.76976000","longitude":"5.29544000"},{"name":"Vik","latitude":"61.08863000","longitude":"6.58512000"},{"name":"Vågsøy","latitude":"61.93544000","longitude":"5.11402000"},{"name":"Årdal","latitude":"61.23639000","longitude":"7.70204000"},{"name":"Årdalstangen","latitude":"61.23581000","longitude":"7.70370000"}]