[{"name":"Altos","latitude":"-25.26263000","longitude":"-57.25443000"},{"name":"Arroyos y Esteros","latitude":"-25.05478000","longitude":"-57.09873000"},{"name":"Atyrá","latitude":"-25.27876000","longitude":"-57.17192000"},{"name":"Caacupé","latitude":"-25.38575000","longitude":"-57.14217000"},{"name":"Caraguatay","latitude":"-25.23844000","longitude":"-56.82693000"},{"name":"Emboscada","latitude":"-25.15000000","longitude":"-57.35000000"},{"name":"Eusebio Ayala","latitude":"-25.38276000","longitude":"-56.96088000"},{"name":"Isla Pucú","latitude":"-25.30853000","longitude":"-56.89986000"},{"name":"Itacurubí de la Cordillera","latitude":"-25.46158000","longitude":"-56.85333000"},{"name":"Piribebuy","latitude":"-25.46498000","longitude":"-57.04183000"},{"name":"San Bernardino","latitude":"-25.31067000","longitude":"-57.29628000"},{"name":"Santa Elena","latitude":"-25.41327000","longitude":"-56.79708000"},{"name":"Tobatí","latitude":"-25.26111000","longitude":"-57.08329000"}]