[{"name":"Askersund","latitude":"58.87988000","longitude":"14.90230000"},{"name":"Askersunds Kommun","latitude":"58.88048000","longitude":"14.98416000"},{"name":"Degerfors","latitude":"59.23797000","longitude":"14.43077000"},{"name":"Degerfors Kommun","latitude":"59.15580000","longitude":"14.43352000"},{"name":"Ekeby-Almby","latitude":"59.26000000","longitude":"15.33000000"},{"name":"Fellingsbro","latitude":"59.43333000","longitude":"15.58333000"},{"name":"Fjugesta","latitude":"59.17375000","longitude":"14.87227000"},{"name":"Frövi","latitude":"59.46667000","longitude":"15.36667000"},{"name":"Garphyttan","latitude":"59.30429000","longitude":"14.94623000"},{"name":"Hallsberg","latitude":"59.06463000","longitude":"15.10993000"},{"name":"Hallsbergs Kommun","latitude":"59.03803000","longitude":"15.18468000"},{"name":"Hovsta","latitude":"59.35000000","longitude":"15.21667000"},{"name":"Hällabrottet","latitude":"59.11667000","longitude":"15.20000000"},{"name":"Hällefors","latitude":"59.78388000","longitude":"14.52197000"},{"name":"Hällefors Kommun","latitude":"59.75736000","longitude":"14.61495000"},{"name":"Karlskoga","latitude":"59.32667000","longitude":"14.52386000"},{"name":"Karlskoga Kommun","latitude":"59.37383000","longitude":"14.56720000"},{"name":"Kopparberg","latitude":"59.87597000","longitude":"14.99436000"},{"name":"Kumla","latitude":"59.12770000","longitude":"15.14341000"},{"name":"Kumla Kommun","latitude":"59.12715000","longitude":"15.14649000"},{"name":"Laxå","latitude":"58.98630000","longitude":"14.61904000"},{"name":"Laxå Kommun","latitude":"58.90913000","longitude":"14.53060000"},{"name":"Lekebergs Kommun","latitude":"59.18604000","longitude":"14.79796000"},{"name":"Lindesberg","latitude":"59.59202000","longitude":"15.23040000"},{"name":"Lindesbergs Kommun","latitude":"59.64119000","longitude":"15.34064000"},{"name":"Ljusnarsbergs Kommun","latitude":"59.92622000","longitude":"14.96499000"},{"name":"Nora","latitude":"59.51926000","longitude":"15.03979000"},{"name":"Nora Kommun","latitude":"59.53456000","longitude":"14.90777000"},{"name":"Odensbacken","latitude":"59.16667000","longitude":"15.53333000"},{"name":"Pålsboda","latitude":"59.06565000","longitude":"15.33747000"},{"name":"Sköllersta","latitude":"59.13738000","longitude":"15.33940000"},{"name":"Storå","latitude":"59.71409000","longitude":"15.13169000"},{"name":"Vintrosa","latitude":"59.25000000","longitude":"14.95000000"},{"name":"Åsbro","latitude":"59.00000000","longitude":"15.05000000"},{"name":"Örebro","latitude":"59.27412000","longitude":"15.20660000"},{"name":"Örebro Kommun","latitude":"59.27168000","longitude":"15.28364000"}]