[{"name":"Baitoa","latitude":"19.32512000","longitude":"-70.70357000"},{"name":"Bisonó","latitude":"19.58333000","longitude":"-70.86667000"},{"name":"Juncalito Abajo","latitude":"19.21990000","longitude":"-70.81905000"},{"name":"La Canela","latitude":"19.47341000","longitude":"-70.81629000"},{"name":"Licey al Medio","latitude":"19.45000000","longitude":"-70.60000000"},{"name":"Palmar Arriba","latitude":"19.53957000","longitude":"-70.73826000"},{"name":"Pedro García","latitude":"19.59202000","longitude":"-70.65256000"},{"name":"Sabana Iglesia","latitude":"19.32114000","longitude":"-70.75992000"},{"name":"San José de Las Matas","latitude":"19.33915000","longitude":"-70.93819000"},{"name":"Santiago de los Caballeros","latitude":"19.45170000","longitude":"-70.69703000"},{"name":"Santo Tomás de Jánico","latitude":"19.23528000","longitude":"-70.79515000"},{"name":"Tamboril","latitude":"19.48538000","longitude":"-70.61104000"},{"name":"Villa Bisonó","latitude":"19.56378000","longitude":"-70.87582000"},{"name":"Villa González","latitude":"19.54057000","longitude":"-70.78853000"}]