[{"name":"Chuave","latitude":"-6.16667000","longitude":"145.08333000"},{"name":"Gumine","latitude":"-6.25000000","longitude":"144.88333000"},{"name":"Karimui Nomane","latitude":"-6.58333000","longitude":"144.83333000"},{"name":"Kerowagi","latitude":"-5.93333000","longitude":"144.88333000"},{"name":"Kundiawa","latitude":"-5.91667000","longitude":"145.05000000"},{"name":"Sinasina Yonggamugl","latitude":"-6.08333000","longitude":"145.01667000"}]