[{"name":"Baoying","latitude":"33.22917000","longitude":"119.30917000"},{"name":"Changshu City","latitude":"31.64615000","longitude":"120.74221000"},{"name":"Changzhou","latitude":"31.77359000","longitude":"119.95401000"},{"name":"Chengxiang","latitude":"31.44778000","longitude":"121.09389000"},{"name":"Dazhong","latitude":"33.19973000","longitude":"120.45780000"},{"name":"Dongkan","latitude":"33.99972000","longitude":"119.83083000"},{"name":"Dongtai","latitude":"32.85231000","longitude":"120.30947000"},{"name":"Fengxian","latitude":"34.70388000","longitude":"116.58717000"},{"name":"Gaogou","latitude":"34.01750000","longitude":"119.18861000"},{"name":"Gaoyou","latitude":"32.78933000","longitude":"119.44182000"},{"name":"Guiren","latitude":"33.66972000","longitude":"118.18889000"},{"name":"Haizhou","latitude":"34.58167000","longitude":"119.12889000"},{"name":"Hede","latitude":"33.77220000","longitude":"120.26176000"},{"name":"Huai'an","latitude":"33.58861000","longitude":"119.01917000"},{"name":"Huai’an Shi","latitude":"33.31162000","longitude":"119.04559000"},{"name":"Huilong","latitude":"31.81111000","longitude":"121.65500000"},{"name":"Hutang","latitude":"31.53429000","longitude":"119.49000000"},{"name":"Jiangyan","latitude":"32.50611000","longitude":"120.14278000"},{"name":"Jiangyin","latitude":"31.91102000","longitude":"120.26302000"},{"name":"Jingjiang","latitude":"32.01417000","longitude":"120.26250000"},{"name":"Jinsha","latitude":"32.08982000","longitude":"121.07355000"},{"name":"Juegang","latitude":"32.31737000","longitude":"121.18552000"},{"name":"Kunshan","latitude":"31.37762000","longitude":"120.95431000"},{"name":"Lianyungang Shi","latitude":"34.54844000","longitude":"119.11228000"},{"name":"Licheng","latitude":"31.42813000","longitude":"119.48353000"},{"name":"Mudu","latitude":"31.25597000","longitude":"120.51857000"},{"name":"Nanjing","latitude":"32.06167000","longitude":"118.77778000"},{"name":"Nantong","latitude":"32.03028000","longitude":"120.87472000"},{"name":"Pizhou","latitude":"34.31139000","longitude":"117.95028000"},{"name":"Qinnan","latitude":"33.25306000","longitude":"119.91333000"},{"name":"Rucheng","latitude":"32.38833000","longitude":"120.55528000"},{"name":"Sanmao","latitude":"32.23931000","longitude":"119.81536000"},{"name":"Songling","latitude":"31.19330000","longitude":"120.71758000"},{"name":"Suicheng","latitude":"33.89630000","longitude":"117.93307000"},{"name":"Suzhou","latitude":"31.30408000","longitude":"120.59538000"},{"name":"Taixing","latitude":"32.16667000","longitude":"120.01361000"},{"name":"Taizhou","latitude":"32.49069000","longitude":"119.90812000"},{"name":"Tongshan","latitude":"34.18045000","longitude":"117.15707000"},{"name":"Wuxi","latitude":"31.56887000","longitude":"120.28857000"},{"name":"Xiannü","latitude":"32.42806000","longitude":"119.56048000"},{"name":"Xiaolingwei","latitude":"32.03244000","longitude":"118.85400000"},{"name":"Xinghua","latitude":"32.93917000","longitude":"119.83417000"},{"name":"Xinpu","latitude":"34.59972000","longitude":"119.15944000"},{"name":"Yancheng","latitude":"33.35750000","longitude":"120.15730000"},{"name":"Yangzhou","latitude":"32.39722000","longitude":"119.43583000"},{"name":"Yicheng","latitude":"31.36059000","longitude":"119.82016000"},{"name":"Yushan","latitude":"31.67748000","longitude":"120.80134000"},{"name":"Zhangjiagang","latitude":"31.86500000","longitude":"120.53889000"},{"name":"Zhenjiang","latitude":"32.21086000","longitude":"119.45508000"},{"name":"Zhenzhou","latitude":"32.28034000","longitude":"119.16999000"},{"name":"Zhongxing","latitude":"33.70389000","longitude":"118.67917000"},{"name":"Zhouzhuang","latitude":"31.11788000","longitude":"120.84427000"}]