[{"name":"Aba","latitude":"5.10658000","longitude":"7.36667000"},{"name":"Amaigbo","latitude":"5.78917000","longitude":"7.83829000"},{"name":"Arochukwu","latitude":"5.38941000","longitude":"7.91235000"},{"name":"Bende","latitude":"5.55874000","longitude":"7.63359000"},{"name":"Ohafia-Ifigh","latitude":"5.61455000","longitude":"7.81191000"},{"name":"Umuahia","latitude":"5.52491000","longitude":"7.49461000"}]