[{"name":"Arbatache","latitude":"36.63773000","longitude":"3.37127000"},{"name":"Beni Amrane","latitude":"36.66774000","longitude":"3.59115000"},{"name":"Boudouaou","latitude":"36.72735000","longitude":"3.40995000"},{"name":"Boumerdas","latitude":"36.76639000","longitude":"3.47717000"},{"name":"Chabet el Ameur","latitude":"36.63709000","longitude":"3.69474000"},{"name":"Dellys","latitude":"36.91716000","longitude":"3.91311000"},{"name":"Khemis el Khechna","latitude":"36.64997000","longitude":"3.33080000"},{"name":"Makouda","latitude":"36.78567000","longitude":"4.06273000"},{"name":"Naciria","latitude":"36.74625000","longitude":"3.83163000"},{"name":"Ouled Moussa","latitude":"36.68394000","longitude":"3.36661000"},{"name":"Reghaïa","latitude":"36.73587000","longitude":"3.34018000"},{"name":"Tadmaït","latitude":"36.74413000","longitude":"3.90045000"},{"name":"Thenia","latitude":"36.72544000","longitude":"3.55665000"},{"name":"Tizi Gheniff","latitude":"36.58839000","longitude":"3.77445000"}]