[{"name":"Amphoe Chaiyo","latitude":"14.67225000","longitude":"100.46786000"},{"name":"Amphoe Mueang Ang Thong","latitude":"14.57815000","longitude":"100.44393000"},{"name":"Amphoe Pa Mok","latitude":"14.48620000","longitude":"100.45730000"},{"name":"Amphoe Pho Thong","latitude":"14.67344000","longitude":"100.34569000"},{"name":"Amphoe Sawaeng Ha","latitude":"14.74635000","longitude":"100.28963000"},{"name":"Amphoe Wiset Chai Chan","latitude":"14.54990000","longitude":"100.31743000"},{"name":"Ang Thong","latitude":"14.58839000","longitude":"100.45283000"},{"name":"Ban Thai Tan","latitude":"14.62161000","longitude":"100.48739000"},{"name":"Chaiyo","latitude":"14.67639000","longitude":"100.46861000"},{"name":"Pho Thong","latitude":"14.66731000","longitude":"100.40878000"},{"name":"Wiset Chaichan","latitude":"14.59450000","longitude":"100.33825000"}]