[{"name":"Byala Cherkva","latitude":"43.20000000","longitude":"25.30000000"},{"name":"Debelets","latitude":"43.03333000","longitude":"25.61667000"},{"name":"Elena","latitude":"42.93333000","longitude":"25.88333000"},{"name":"Gorna Oryahovitsa","latitude":"43.12778000","longitude":"25.70167000"},{"name":"Kilifarevo","latitude":"42.98333000","longitude":"25.63333000"},{"name":"Lyaskovets","latitude":"43.11111000","longitude":"25.72833000"},{"name":"Obshtina Elena","latitude":"42.91667000","longitude":"25.95000000"},{"name":"Obshtina Gorna Oryahovitsa","latitude":"43.21667000","longitude":"25.75000000"},{"name":"Obshtina Lyaskovets","latitude":"43.13333000","longitude":"25.85000000"},{"name":"Obshtina Pavlikeni","latitude":"43.28333000","longitude":"25.35000000"},{"name":"Obshtina Polski Trambesh","latitude":"43.35000000","longitude":"25.58333000"},{"name":"Obshtina Strazhitsa","latitude":"43.26667000","longitude":"25.98333000"},{"name":"Obshtina Suhindol","latitude":"43.16667000","longitude":"25.20000000"},{"name":"Obshtina Svishtov","latitude":"43.53333000","longitude":"25.35000000"},{"name":"Obshtina Veliko Tŭrnovo","latitude":"43.08241000","longitude":"25.63202000"},{"name":"Obshtina Zlataritsa","latitude":"43.06667000","longitude":"25.98333000"},{"name":"Parvomaytsi","latitude":"43.15000000","longitude":"25.65000000"},{"name":"Pavlikeni","latitude":"43.24278000","longitude":"25.32194000"},{"name":"Polski Trambesh","latitude":"43.37233000","longitude":"25.63525000"},{"name":"Strazhitsa","latitude":"43.23333000","longitude":"25.96667000"},{"name":"Suhindol","latitude":"43.19167000","longitude":"25.18111000"},{"name":"Svishtov","latitude":"43.61875000","longitude":"25.35033000"},{"name":"Veliko Tŭrnovo","latitude":"43.08124000","longitude":"25.62904000"},{"name":"Zlataritsa","latitude":"43.05000000","longitude":"25.90000000"}]