[{"name":"Ciudad Sandino","latitude":"12.15889000","longitude":"-86.34417000"},{"name":"El Crucero","latitude":"11.99008000","longitude":"-86.30954000"},{"name":"Managua","latitude":"12.13282000","longitude":"-86.25040000"},{"name":"Masachapa","latitude":"11.78687000","longitude":"-86.51416000"},{"name":"San Rafael del Sur","latitude":"11.84854000","longitude":"-86.43839000"},{"name":"Ticuantepe","latitude":"12.02263000","longitude":"-86.20493000"},{"name":"Tipitapa","latitude":"12.19732000","longitude":"-86.09706000"},{"name":"Valle San Francisco","latitude":"12.51667000","longitude":"-86.28333000"},{"name":"Villa El Carmen","latitude":"11.98009000","longitude":"-86.50571000"}]