[{"name":"Banaz","latitude":"38.73707000","longitude":"29.75194000"},{"name":"Bölme","latitude":"38.62076000","longitude":"29.37373000"},{"name":"Eşme","latitude":"38.39976000","longitude":"28.96905000"},{"name":"Güllü","latitude":"38.27114000","longitude":"29.10451000"},{"name":"Karahallı","latitude":"38.32083000","longitude":"29.53028000"},{"name":"Kızılcasöğüt","latitude":"38.65111000","longitude":"29.66611000"},{"name":"Merkez","latitude":"38.68463000","longitude":"29.29455000"},{"name":"Selçikler","latitude":"38.49837000","longitude":"29.65482000"},{"name":"Sivaslı","latitude":"38.49944000","longitude":"29.68361000"},{"name":"Ulubey","latitude":"38.41987000","longitude":"29.29129000"},{"name":"Uşak","latitude":"38.67351000","longitude":"29.40580000"},{"name":"İlyaslı","latitude":"38.60389000","longitude":"29.20056000"}]