[{"name":"Huyen Lam Thao","latitude":"21.29971000","longitude":"105.31119000"},{"name":"Huyện Cẩm Khê","latitude":"21.40683000","longitude":"105.09845000"},{"name":"Huyện Hạ Hòa","latitude":"21.57763000","longitude":"104.99464000"},{"name":"Huyện Thanh Ba","latitude":"21.47816000","longitude":"105.15881000"},{"name":"Huyện Yên Lập","latitude":"21.35569000","longitude":"105.00493000"},{"name":"Huyện Đoan Hùng","latitude":"21.61776000","longitude":"105.16110000"},{"name":"Thành Phố Việt Trì","latitude":"21.32958000","longitude":"105.39217000"},{"name":"Thị xã Phú Thọ","latitude":"21.41664000","longitude":"105.23636000"},{"name":"Việt Trì","latitude":"21.32274000","longitude":"105.40198000"}]