[{"name":"Huyện Giao Thủy","latitude":"20.25706000","longitude":"106.46245000"},{"name":"Huyện Hải Hậu","latitude":"20.15057000","longitude":"106.27161000"},{"name":"Huyện Mỹ Lộc","latitude":"20.46079000","longitude":"106.12319000"},{"name":"Huyện Nam Trực","latitude":"20.34106000","longitude":"106.20821000"},{"name":"Huyện Nghĩa Hưng","latitude":"20.10598000","longitude":"106.17345000"},{"name":"Huyện Trực Ninh","latitude":"20.25690000","longitude":"106.24582000"},{"name":"Huyện Vụ Bản","latitude":"20.37705000","longitude":"106.09707000"},{"name":"Huyện Ý Yên","latitude":"20.31669000","longitude":"106.02327000"},{"name":"Nam Định","latitude":"20.43389000","longitude":"106.17729000"}]