[{"name":"Maun","latitude":"-19.98333000","longitude":"23.41667000"},{"name":"Nokaneng","latitude":"-19.66667000","longitude":"22.26667000"},{"name":"Pandamatenga","latitude":"-18.52779000","longitude":"25.62698000"},{"name":"Sehithwa","latitude":"-20.46667000","longitude":"22.71667000"},{"name":"Shakawe","latitude":"-18.36536000","longitude":"21.84219000"}]