[{"name":"Andalusia","countryCode":"ES","fipsCode":"51","iso":"AN","latitude":"37.54427060","longitude":"-4.72775280"},{"name":"Aragon","countryCode":"ES","fipsCode":"52","iso":"AR","latitude":"41.59762750","longitude":"-0.90566230"},{"name":"Asturias","countryCode":"ES","fipsCode":"34","iso":"AS","latitude":"43.36139530","longitude":"-5.85932670"},{"name":"Balearic Islands","countryCode":"ES","fipsCode":"07","iso":"PM","latitude":"39.35877590","longitude":"2.73563280"},{"name":"Basque Country","countryCode":"ES","fipsCode":"59","iso":"PV","latitude":"42.98962480","longitude":"-2.61892730"},{"name":"Burgos Province","countryCode":"ES","fipsCode":"","iso":"BU","latitude":"42.33807580","longitude":"-3.58126920"},{"name":"Canary Islands","countryCode":"ES","fipsCode":"53","iso":"CN","latitude":"28.29156370","longitude":"-16.62913040"},{"name":"Cantabria","countryCode":"ES","fipsCode":"39","iso":"CB","latitude":"43.18283960","longitude":"-3.98784270"},{"name":"Castile and León","countryCode":"ES","fipsCode":"55","iso":"CL","latitude":"41.83568210","longitude":"-4.39763570"},{"name":"Castilla La Mancha","countryCode":"ES","fipsCode":"54","iso":"CM","latitude":"39.27956070","longitude":"-3.09770200"},{"name":"Catalonia","countryCode":"ES","fipsCode":"56","iso":"CT","latitude":"41.59115890","longitude":"1.52086240"},{"name":"Ceuta","countryCode":"ES","fipsCode":"CE","iso":"CE","latitude":"35.88938740","longitude":"-5.32134550"},{"name":"Extremadura","countryCode":"ES","fipsCode":"57","iso":"EX","latitude":"39.49373920","longitude":"-6.06791940"},{"name":"Galicia","countryCode":"ES","fipsCode":"58","iso":"GA","latitude":"42.57505540","longitude":"-8.13385580"},{"name":"La Rioja","countryCode":"ES","fipsCode":"27","iso":"RI","latitude":"42.28707330","longitude":"-2.53960300"},{"name":"Léon","countryCode":"ES","fipsCode":"55","iso":"LE","latitude":"42.59870410","longitude":"-5.56708390"},{"name":"Madrid","countryCode":"ES","fipsCode":"29","iso":"MD","latitude":"40.41675150","longitude":"-3.70383220"},{"name":"Melilla","countryCode":"ES","fipsCode":"ML","iso":"ML","latitude":"35.29227750","longitude":"-2.93809730"},{"name":"Murcia","countryCode":"ES","fipsCode":"31","iso":"MC","latitude":"38.13981410","longitude":"-1.36621600"},{"name":"Navarra","countryCode":"ES","fipsCode":"32","iso":"NC","latitude":"42.69539090","longitude":"-1.67606910"},{"name":"Palencia Province","countryCode":"ES","fipsCode":"","iso":"P","latitude":"42.00968320","longitude":"-4.52879490"},{"name":"Salamanca Province","countryCode":"ES","fipsCode":"","iso":"SA","latitude":"40.95152630","longitude":"-6.23759470"},{"name":"Segovia Province","countryCode":"ES","fipsCode":"","iso":"SG","latitude":"40.94292960","longitude":"-4.10889420"},{"name":"Soria Province","countryCode":"ES","fipsCode":"","iso":"SO","latitude":"41.76654640","longitude":"-2.47903060"},{"name":"Valencia","countryCode":"ES","fipsCode":"60","iso":"VC","latitude":"39.48401080","longitude":"-0.75328090"},{"name":"Valladolid Province","countryCode":"ES","fipsCode":"","iso":"VA","latitude":"41.65173750","longitude":"-4.72449500"},{"name":"Zamora Province","countryCode":"ES","fipsCode":"","iso":"ZA","latitude":"41.60957440","longitude":"-5.89871390"},{"name":"Ávila","countryCode":"ES","fipsCode":"","iso":"AV","latitude":"40.69345110","longitude":"-4.89356270"}]