[{"name":"Bresternica","latitude":"46.56972000","longitude":"15.57500000"},{"name":"Kamnica","latitude":"46.57444000","longitude":"15.61417000"},{"name":"Limbu≈°","latitude":"46.55361000","longitude":"15.58361000"},{"name":"Maribor","latitude":"46.55472000","longitude":"15.64667000"},{"name":"Pekre","latitude":"46.54722000","longitude":"15.59556000"},{"name":"Razvanje","latitude":"46.51444000","longitude":"15.63611000"}]