[{"name":"Abraka","latitude":"5.79023000","longitude":"6.10473000"},{"name":"Agbor","latitude":"6.25375000","longitude":"6.19420000"},{"name":"Asaba","latitude":"6.19824000","longitude":"6.73187000"},{"name":"Bomadi","latitude":"5.16073000","longitude":"5.92375000"},{"name":"Burutu","latitude":"5.35328000","longitude":"5.50826000"},{"name":"Kwale","latitude":"5.70773000","longitude":"6.43402000"},{"name":"Obiaruku","latitude":"5.84672000","longitude":"6.15290000"},{"name":"Ogwashi-Uku","latitude":"6.17811000","longitude":"6.52461000"},{"name":"Orerokpe","latitude":"5.63747000","longitude":"5.89013000"},{"name":"Patani","latitude":"5.22885000","longitude":"6.19139000"},{"name":"Sapele","latitude":"5.89405000","longitude":"5.67666000"},{"name":"Ughelli","latitude":"5.48956000","longitude":"6.00407000"},{"name":"Umunede","latitude":"6.26549000","longitude":"6.30962000"},{"name":"Warri","latitude":"5.51737000","longitude":"5.75006000"}]