[{"name":"Cegrane","latitude":"41.83889000","longitude":"20.97583000"},{"name":"Dolna Banjica","latitude":"41.78611000","longitude":"20.90611000"},{"name":"Forino","latitude":"41.82334000","longitude":"20.96174000"},{"name":"Gostivar","latitude":"41.79601000","longitude":"20.90819000"},{"name":"Srbinovo","latitude":"41.70586000","longitude":"20.95859000"},{"name":"Vrutok","latitude":"41.76861000","longitude":"20.83917000"}]