[{"name":"Chuxiong Yizu Zizhizhou","latitude":"25.43204000","longitude":"101.70479000"},{"name":"Dali","latitude":"25.58474000","longitude":"100.21229000"},{"name":"Dali Baizu Zizhizhou","latitude":"25.68548000","longitude":"100.13104000"},{"name":"Dehong Daizu Jingpozu Zizhizhou","latitude":"24.66347000","longitude":"98.03964000"},{"name":"Dêqên Tibetan Autonomous Prefecture","latitude":"27.91694000","longitude":"99.54841000"},{"name":"Gejiu","latitude":"23.36085000","longitude":"103.15372000"},{"name":"Haikou","latitude":"24.77985000","longitude":"102.57548000"},{"name":"Honghe Hanizu Yizu Zizhizhou","latitude":"23.51675000","longitude":"102.97389000"},{"name":"Jinghong","latitude":"21.99102000","longitude":"100.73409000"},{"name":"Kaihua","latitude":"23.36950000","longitude":"104.27721000"},{"name":"Kaiyuan","latitude":"23.69767000","longitude":"103.30372000"},{"name":"Kunming","latitude":"25.03889000","longitude":"102.71833000"},{"name":"Lianran","latitude":"24.92271000","longitude":"102.48496000"},{"name":"Lijiang","latitude":"26.86879000","longitude":"100.22072000"},{"name":"Lincang Shi","latitude":"23.94803000","longitude":"99.55124000"},{"name":"Longquan","latitude":"24.67193000","longitude":"102.16130000"},{"name":"Mabai","latitude":"23.01279000","longitude":"104.45081000"},{"name":"Majie","latitude":"25.03190000","longitude":"102.63800000"},{"name":"Miyang","latitude":"24.40417000","longitude":"103.44278000"},{"name":"Nujiang Lisuzu Zizhizhou","latitude":"26.61738000","longitude":"99.14062000"},{"name":"Qujing","latitude":"25.48333000","longitude":"103.78333000"},{"name":"Shangri-La","latitude":"27.82511000","longitude":"99.70779000"},{"name":"Shilin","latitude":"24.81878000","longitude":"103.33237000"},{"name":"Wenlan","latitude":"23.36002000","longitude":"103.43684000"},{"name":"Wenshan City","latitude":"23.36306000","longitude":"104.25047000"},{"name":"Wenshan Zhuangzu Miaozu Zizhizhou","latitude":"23.65130000","longitude":"104.70830000"},{"name":"Yuxi","latitude":"24.35500000","longitude":"102.54222000"},{"name":"Zhaotong","latitude":"27.31667000","longitude":"103.71667000"},{"name":"Zhongshu","latitude":"24.51667000","longitude":"103.76667000"}]