[{"name":"Hakui","latitude":"36.88333000","longitude":"136.78333000"},{"name":"Hakui Shi","latitude":"36.91136000","longitude":"136.81626000"},{"name":"Hakusan Shi","latitude":"36.27558000","longitude":"136.66966000"},{"name":"Kaga Shi","latitude":"36.25503000","longitude":"136.37963000"},{"name":"Kahoku Shi","latitude":"36.74365000","longitude":"136.73273000"},{"name":"Kanazawa","latitude":"36.60000000","longitude":"136.61667000"},{"name":"Kanazawa-shi","latitude":"36.51919000","longitude":"136.70836000"},{"name":"Komatsu","latitude":"36.40263000","longitude":"136.45088000"},{"name":"Matsut≈ç","latitude":"36.51667000","longitude":"136.56667000"},{"name":"Nanao Shi","latitude":"37.07844000","longitude":"136.92860000"},{"name":"Nomi Shi","latitude":"36.43593000","longitude":"136.54456000"},{"name":"Nonoichi","latitude":"36.53333000","longitude":"136.61667000"},{"name":"Nonoichi-shi","latitude":"36.52288000","longitude":"136.60589000"},{"name":"Suzu","latitude":"37.43459000","longitude":"137.26009000"},{"name":"Suzu Shi","latitude":"37.45533000","longitude":"137.22587000"},{"name":"Tsubata","latitude":"36.67012000","longitude":"136.74030000"},{"name":"Tsurugi-asahimachi","latitude":"36.45000000","longitude":"136.63333000"},{"name":"Wajima Shi","latitude":"37.33753000","longitude":"136.88757000"}]