[{"name":"Bilopillya","latitude":"51.15016000","longitude":"34.31287000"},{"name":"Boromlya","latitude":"50.61839000","longitude":"34.97042000"},{"name":"Buryn’","latitude":"51.19912000","longitude":"33.83523000"},{"name":"Druzhba","latitude":"52.04545000","longitude":"33.94517000"},{"name":"Hlukhiv","latitude":"51.67822000","longitude":"33.91620000"},{"name":"Konotop","latitude":"51.24032000","longitude":"33.20263000"},{"name":"Krasnopillya","latitude":"50.77458000","longitude":"35.25965000"},{"name":"Krolevets’","latitude":"51.54775000","longitude":"33.38475000"},{"name":"Kyrykivka","latitude":"50.36408000","longitude":"35.11490000"},{"name":"Lebedyn","latitude":"50.58518000","longitude":"34.48490000"},{"name":"Lypova Dolyna","latitude":"50.56428000","longitude":"33.79793000"},{"name":"Mezenivka","latitude":"50.63486000","longitude":"35.31340000"},{"name":"Nedryhayliv","latitude":"50.83398000","longitude":"33.87626000"},{"name":"Nyzy","latitude":"50.78281000","longitude":"34.78441000"},{"name":"Okhtyrka","latitude":"50.31036000","longitude":"34.89879000"},{"name":"Putyvl’","latitude":"51.33745000","longitude":"33.87066000"},{"name":"Romens’ka Mis’krada","latitude":"50.74306000","longitude":"33.48284000"},{"name":"Romny","latitude":"50.75104000","longitude":"33.47471000"},{"name":"Seredyna-Buda","latitude":"52.18903000","longitude":"34.03639000"},{"name":"Shalyhyne","latitude":"51.57167000","longitude":"34.12167000"},{"name":"Shostka","latitude":"51.86296000","longitude":"33.46980000"},{"name":"Sloboda","latitude":"51.19806000","longitude":"33.60695000"},{"name":"Sumy","latitude":"50.92160000","longitude":"34.80029000"},{"name":"Terny","latitude":"50.98916000","longitude":"33.97070000"},{"name":"Trostyanets’","latitude":"50.48478000","longitude":"34.96567000"},{"name":"Velyka Pysarivka","latitude":"50.42430000","longitude":"35.47989000"},{"name":"Verkhnya Syrovatka","latitude":"50.82902000","longitude":"34.95861000"},{"name":"Vorozhba","latitude":"51.17334000","longitude":"34.21917000"},{"name":"Yampil’","latitude":"51.94765000","longitude":"33.78759000"},{"name":"Yesman’","latitude":"51.77006000","longitude":"34.06729000"}]