[{"name":"Ademuz","latitude":"40.06139000","longitude":"-1.28677000"},{"name":"Ador","latitude":"38.91823000","longitude":"-0.22247000"},{"name":"Adsubia","latitude":"38.84819000","longitude":"-0.15324000"},{"name":"Adzaneta","latitude":"40.21616000","longitude":"-0.17028000"},{"name":"Agost","latitude":"38.44003000","longitude":"-0.63836000"},{"name":"Agres","latitude":"38.78333000","longitude":"-0.51667000"},{"name":"Agullent","latitude":"38.82273000","longitude":"-0.54833000"},{"name":"Aielo de Malferit","latitude":"38.88333000","longitude":"-0.58333000"},{"name":"Alaquàs","latitude":"39.45568000","longitude":"-0.46100000"},{"name":"Albaida","latitude":"38.83798000","longitude":"-0.51721000"},{"name":"Albal","latitude":"39.40000000","longitude":"-0.41667000"},{"name":"Albalat de la Ribera","latitude":"39.20000000","longitude":"-0.38333000"},{"name":"Albalat dels Sorells","latitude":"39.53333000","longitude":"-0.35000000"},{"name":"Albalat dels Tarongers","latitude":"39.70000000","longitude":"-0.33333000"},{"name":"Albatera","latitude":"38.17902000","longitude":"-0.87059000"},{"name":"Alberic","latitude":"39.11667000","longitude":"-0.51667000"},{"name":"Albocàsser","latitude":"40.35000000","longitude":"0.03333000"},{"name":"Alborache","latitude":"39.38333000","longitude":"-0.76667000"},{"name":"Alboraya","latitude":"39.50000000","longitude":"-0.35000000"},{"name":"Albuixech","latitude":"39.55000000","longitude":"-0.31667000"},{"name":"Alcalalí","latitude":"38.75038000","longitude":"-0.04013000"},{"name":"Alcalà de Xivert","latitude":"40.30000000","longitude":"0.23333000"},{"name":"Alcocer de Planes","latitude":"38.79501000","longitude":"-0.40244000"},{"name":"Alcocéber","latitude":"40.25142000","longitude":"0.28433000"},{"name":"Alcoy","latitude":"38.70545000","longitude":"-0.47432000"},{"name":"Alcublas","latitude":"39.80000000","longitude":"-0.70000000"},{"name":"Alcudia de Veo","latitude":"39.91667000","longitude":"-0.35000000"},{"name":"Alcàntera de Xúquer","latitude":"39.06667000","longitude":"-0.55000000"},{"name":"Alcàsser","latitude":"39.36791000","longitude":"-0.44447000"},{"name":"Aldaia","latitude":"39.46569000","longitude":"-0.46005000"},{"name":"Alfafar","latitude":"39.41667000","longitude":"-0.38333000"},{"name":"Alfafara","latitude":"38.77339000","longitude":"-0.55551000"},{"name":"Alfara de Algimia","latitude":"39.76667000","longitude":"-0.35000000"},{"name":"Alfara del Patriarca","latitude":"39.55000000","longitude":"-0.38333000"},{"name":"Alfarp","latitude":"39.28333000","longitude":"-0.55000000"},{"name":"Alfarrasí","latitude":"38.90000000","longitude":"-0.50000000"},{"name":"Alfauir","latitude":"38.93333000","longitude":"-0.25000000"},{"name":"Alfondeguilla","latitude":"39.83333000","longitude":"-0.26667000"},{"name":"Algemesí","latitude":"39.19042000","longitude":"-0.43572000"},{"name":"Algimia de Alfara","latitude":"39.75000000","longitude":"-0.36667000"},{"name":"Algimia de Almonacid","latitude":"39.91667000","longitude":"-0.43333000"},{"name":"Alginet","latitude":"39.26667000","longitude":"-0.46667000"},{"name":"Algorfa","latitude":"38.08636000","longitude":"-0.79646000"},{"name":"Algueña","latitude":"38.33905000","longitude":"-1.00433000"},{"name":"Alicante","latitude":"38.34517000","longitude":"-0.48149000"},{"name":"Almassora","latitude":"39.94729000","longitude":"-0.06313000"},{"name":"Almedíjar","latitude":"39.86667000","longitude":"-0.40000000"},{"name":"Almenara","latitude":"39.75000000","longitude":"-0.21667000"},{"name":"Almiserà","latitude":"38.91667000","longitude":"-0.28333000"},{"name":"Almoines","latitude":"38.94325000","longitude":"-0.18155000"},{"name":"Almoradí","latitude":"38.10879000","longitude":"-0.79197000"},{"name":"Almudaina","latitude":"38.75999000","longitude":"-0.35149000"},{"name":"Almussafes","latitude":"39.28333000","longitude":"-0.41667000"},{"name":"Alpuente","latitude":"39.86667000","longitude":"-1.01667000"},{"name":"Alquerías del Niño Perdido","latitude":"39.89466000","longitude":"-0.12943000"},{"name":"Altea","latitude":"38.59885000","longitude":"-0.05139000"},{"name":"Altura","latitude":"39.85000000","longitude":"-0.51667000"},{"name":"Alzira","latitude":"39.15000000","longitude":"-0.43333000"},{"name":"Andilla","latitude":"39.83333000","longitude":"-0.80000000"},{"name":"Anna","latitude":"39.02029000","longitude":"-0.64621000"},{"name":"Antella","latitude":"39.07977000","longitude":"-0.59195000"},{"name":"Arañuel","latitude":"40.06667000","longitude":"-0.48333000"},{"name":"Ares del Maestre","latitude":"40.45675000","longitude":"-0.13267000"},{"name":"Argelita","latitude":"40.05000000","longitude":"-0.35000000"},{"name":"Artana","latitude":"39.89104000","longitude":"-0.25758000"},{"name":"Aspe","latitude":"38.34511000","longitude":"-0.76721000"},{"name":"Atzeneta d'Albaida","latitude":"38.83333000","longitude":"-0.50000000"},{"name":"Ayora","latitude":"39.05852000","longitude":"-1.05635000"},{"name":"Ayódar","latitude":"40.00000000","longitude":"-0.36667000"},{"name":"Azuébar","latitude":"39.83333000","longitude":"-0.36667000"},{"name":"Balones","latitude":"38.73726000","longitude":"-0.34324000"},{"name":"Barracas","latitude":"40.01667000","longitude":"-0.68333000"},{"name":"Barx","latitude":"39.01667000","longitude":"-0.30000000"},{"name":"Barxeta","latitude":"39.01667000","longitude":"-0.41667000"},{"name":"Bellreguard","latitude":"38.95000000","longitude":"-0.16667000"},{"name":"Bellús","latitude":"38.94580000","longitude":"-0.48697000"},{"name":"Benafigos","latitude":"40.27641000","longitude":"-0.20772000"},{"name":"Benaguasil","latitude":"39.60000000","longitude":"-0.58333000"},{"name":"Benagéber","latitude":"39.71667000","longitude":"-1.10000000"},{"name":"Benasau","latitude":"38.69047000","longitude":"-0.34278000"},{"name":"Benassal","latitude":"40.37690000","longitude":"-0.13970000"},{"name":"Benavites","latitude":"39.73333000","longitude":"-0.25000000"},{"name":"Beneixama","latitude":"38.70000000","longitude":"-0.76667000"},{"name":"Beneixida","latitude":"39.06667000","longitude":"-0.55000000"},{"name":"Benejúzar","latitude":"38.07728000","longitude":"-0.83942000"},{"name":"Benetússer","latitude":"39.42265000","longitude":"-0.39686000"},{"name":"Benferri","latitude":"38.14129000","longitude":"-0.96212000"},{"name":"Beniarbeig","latitude":"38.82232000","longitude":"-0.00210000"},{"name":"Beniardá","latitude":"38.68433000","longitude":"-0.21629000"},{"name":"Beniarjó","latitude":"38.93249000","longitude":"-0.18634000"},{"name":"Beniarrés","latitude":"38.82019000","longitude":"-0.37741000"},{"name":"Beniatjar","latitude":"38.84754000","longitude":"-0.41736000"},{"name":"Benicarló","latitude":"40.41650000","longitude":"0.42709000"},{"name":"Benicolet","latitude":"38.91987000","longitude":"-0.34694000"},{"name":"Benicàssim","latitude":"40.05000000","longitude":"0.06667000"},{"name":"Benidoleig","latitude":"38.79278000","longitude":"-0.02992000"},{"name":"Benidorm","latitude":"38.53816000","longitude":"-0.13098000"},{"name":"Benifairó de les Valls","latitude":"39.73333000","longitude":"-0.26667000"},{"name":"Benifaió","latitude":"39.28439000","longitude":"-0.42598000"},{"name":"Benifallim","latitude":"38.66259000","longitude":"-0.39994000"},{"name":"Beniflá","latitude":"38.92813000","longitude":"-0.17816000"},{"name":"Benigànim","latitude":"38.95000000","longitude":"-0.43333000"},{"name":"Benijofar","latitude":"38.07785000","longitude":"-0.73680000"},{"name":"Benilloba","latitude":"38.70012000","longitude":"-0.38998000"},{"name":"Benillup","latitude":"38.75397000","longitude":"-0.37991000"},{"name":"Benimantell","latitude":"38.67709000","longitude":"-0.21057000"},{"name":"Benimarfull","latitude":"38.77590000","longitude":"-0.39079000"},{"name":"Benimassot","latitude":"38.75000000","longitude":"-0.28333000"},{"name":"Benimeli","latitude":"38.82362000","longitude":"-0.04221000"},{"name":"Benimodo","latitude":"39.21403000","longitude":"-0.52679000"},{"name":"Benimuslem","latitude":"39.13162000","longitude":"-0.49288000"},{"name":"Beniparrell","latitude":"39.38333000","longitude":"-0.41667000"},{"name":"Benirredrà","latitude":"38.96667000","longitude":"-0.18333000"},{"name":"Benisanó","latitude":"39.61667000","longitude":"-0.56667000"},{"name":"Benissa","latitude":"38.71492000","longitude":"0.04849000"},{"name":"Benissoda","latitude":"38.83333000","longitude":"-0.51667000"},{"name":"Benisuera","latitude":"38.91320000","longitude":"-0.47784000"},{"name":"Benitachell","latitude":"38.73273000","longitude":"0.14354000"},{"name":"Benlloch","latitude":"40.21075000","longitude":"0.02717000"},{"name":"Betxí","latitude":"39.93333000","longitude":"-0.20000000"},{"name":"Biar","latitude":"38.63117000","longitude":"-0.76458000"},{"name":"Bicorp","latitude":"39.13215000","longitude":"-0.78720000"},{"name":"Bigastro","latitude":"38.06237000","longitude":"-0.89841000"},{"name":"Bocairent","latitude":"38.76667000","longitude":"-0.61667000"},{"name":"Bolbaite","latitude":"39.06041000","longitude":"-0.67466000"},{"name":"Bolulla","latitude":"38.67529000","longitude":"-0.11184000"},{"name":"Borriol","latitude":"40.04249000","longitude":"-0.07025000"},{"name":"Bufali","latitude":"38.86775000","longitude":"-0.51617000"},{"name":"Bugarra","latitude":"39.61667000","longitude":"-0.76667000"},{"name":"Burjassot","latitude":"39.50984000","longitude":"-0.41327000"},{"name":"Burriana","latitude":"39.88901000","longitude":"-0.08499000"},{"name":"Busot","latitude":"38.48206000","longitude":"-0.41918000"},{"name":"Buñol","latitude":"39.41667000","longitude":"-0.78333000"},{"name":"Bèlgida","latitude":"38.85000000","longitude":"-0.46667000"},{"name":"Bétera","latitude":"39.59111000","longitude":"-0.46151000"},{"name":"Cabanes","latitude":"40.15600000","longitude":"0.04325000"},{"name":"Calles","latitude":"39.72118000","longitude":"-0.97057000"},{"name":"Callosa de Segura","latitude":"38.12497000","longitude":"-0.87822000"},{"name":"Calp","latitude":"38.64470000","longitude":"0.04450000"},{"name":"Camporrobles","latitude":"39.65000000","longitude":"-1.40000000"},{"name":"Canals","latitude":"38.96251000","longitude":"-0.58443000"},{"name":"Canet d'En Berenguer","latitude":"39.68333000","longitude":"-0.21667000"},{"name":"Canet lo Roig","latitude":"40.55142000","longitude":"0.24308000"},{"name":"Carcaixent","latitude":"39.12180000","longitude":"-0.44812000"},{"name":"Carlet","latitude":"39.22660000","longitude":"-0.52142000"},{"name":"Carrícola","latitude":"38.84133000","longitude":"-0.47260000"},{"name":"Casas Altas","latitude":"40.03333000","longitude":"-1.26667000"},{"name":"Casas Bajas","latitude":"40.01667000","longitude":"-1.26667000"},{"name":"Casinos","latitude":"39.70000000","longitude":"-0.70000000"},{"name":"Castalla","latitude":"38.59694000","longitude":"-0.67207000"},{"name":"Castell de Cabres","latitude":"40.66058000","longitude":"0.04217000"},{"name":"Castell de Castells","latitude":"38.72555000","longitude":"-0.19242000"},{"name":"Castellfort","latitude":"40.50208000","longitude":"-0.19133000"},{"name":"Castellnovo","latitude":"39.86667000","longitude":"-0.45000000"},{"name":"Castellonet de la Conquesta","latitude":"38.91667000","longitude":"-0.26667000"},{"name":"Castelló de Rugat","latitude":"38.88333000","longitude":"-0.36667000"},{"name":"Castelló de la Plana","latitude":"39.98567000","longitude":"-0.04935000"},{"name":"Castielfabib","latitude":"40.13076000","longitude":"-1.30396000"},{"name":"Castillo de Villamalefa","latitude":"40.13333000","longitude":"-0.38333000"},{"name":"Catadau","latitude":"39.26667000","longitude":"-0.56667000"},{"name":"Catarroja","latitude":"39.40000000","longitude":"-0.40000000"},{"name":"Catral","latitude":"38.16061000","longitude":"-0.80209000"},{"name":"Catí","latitude":"40.47156000","longitude":"0.02275000"},{"name":"Caudete de las Fuentes","latitude":"39.55965000","longitude":"-1.27853000"},{"name":"Cerdà","latitude":"38.98333000","longitude":"-0.56667000"},{"name":"Cervera del Maestre","latitude":"40.45366000","longitude":"0.27659000"},{"name":"Chella","latitude":"39.04203000","longitude":"-0.65916000"},{"name":"Chelva","latitude":"39.74930000","longitude":"-0.99684000"},{"name":"Chera","latitude":"39.60000000","longitude":"-0.96667000"},{"name":"Chert/Xert","latitude":"40.51944000","longitude":"0.15831000"},{"name":"Cheste","latitude":"39.48333000","longitude":"-0.68333000"},{"name":"Chilches","latitude":"39.78238000","longitude":"-0.18742000"},{"name":"Chiva","latitude":"39.46667000","longitude":"-0.71667000"},{"name":"Chulilla","latitude":"39.65000000","longitude":"-0.88333000"},{"name":"Chóvar","latitude":"39.85000000","longitude":"-0.31667000"},{"name":"Cinctorres","latitude":"40.58333000","longitude":"-0.21667000"},{"name":"Cirat","latitude":"40.05000000","longitude":"-0.45000000"},{"name":"Cocentaina","latitude":"38.73975000","longitude":"-0.43976000"},{"name":"Cofrentes","latitude":"39.22926000","longitude":"-1.06061000"},{"name":"Confrides","latitude":"38.68451000","longitude":"-0.26890000"},{"name":"Corbera","latitude":"39.15000000","longitude":"-0.35000000"},{"name":"Cortes de Arenoso","latitude":"40.18812000","longitude":"-0.54195000"},{"name":"Cortes de Pallás","latitude":"39.25000000","longitude":"-0.93333000"},{"name":"Costur","latitude":"40.11971000","longitude":"-0.17385000"},{"name":"Cotes","latitude":"39.07010000","longitude":"-0.57449000"},{"name":"Cox","latitude":"38.14164000","longitude":"-0.88736000"},{"name":"Crevillente","latitude":"38.24994000","longitude":"-0.80975000"},{"name":"Cuevas de Vinromá","latitude":"40.30976000","longitude":"0.12084000"},{"name":"Culla","latitude":"40.33650000","longitude":"-0.16569000"},{"name":"Cullera","latitude":"39.16667000","longitude":"-0.25000000"},{"name":"Càlig","latitude":"40.46262000","longitude":"0.35521000"},{"name":"Càrcer","latitude":"39.06667000","longitude":"-0.56667000"},{"name":"Daimús","latitude":"38.96667000","longitude":"-0.15000000"},{"name":"Daya Nueva","latitude":"38.11313000","longitude":"-0.76028000"},{"name":"Daya Vieja","latitude":"38.10480000","longitude":"-0.73804000"},{"name":"Denia","latitude":"38.84078000","longitude":"0.10574000"},{"name":"Dolores","latitude":"38.14002000","longitude":"-0.77088000"},{"name":"Domeño","latitude":"39.66115000","longitude":"-0.67077000"},{"name":"Dos Aguas","latitude":"39.28333000","longitude":"-0.80000000"},{"name":"El Campello","latitude":"38.42885000","longitude":"-0.39774000"},{"name":"El Grao","latitude":"39.97358000","longitude":"0.01284000"},{"name":"El Perelló","latitude":"39.27718000","longitude":"-0.27569000"},{"name":"Elche","latitude":"38.26218000","longitude":"-0.70107000"},{"name":"Elda","latitude":"38.47783000","longitude":"-0.79157000"},{"name":"Emperador","latitude":"39.55000000","longitude":"-0.33333000"},{"name":"Enguera","latitude":"38.97974000","longitude":"-0.68683000"},{"name":"Eslida","latitude":"39.88333000","longitude":"-0.30000000"},{"name":"Espadilla","latitude":"40.03333000","longitude":"-0.35000000"},{"name":"Estivella","latitude":"39.71667000","longitude":"-0.35000000"},{"name":"Estubeny","latitude":"39.01792000","longitude":"-0.62379000"},{"name":"Facheca","latitude":"38.73501000","longitude":"-0.26766000"},{"name":"Famorca","latitude":"38.73101000","longitude":"-0.24726000"},{"name":"Fanzara","latitude":"40.01667000","longitude":"-0.31667000"},{"name":"Faura","latitude":"39.71667000","longitude":"-0.25000000"},{"name":"Favara","latitude":"39.11667000","longitude":"-0.28333000"},{"name":"Figueroles","latitude":"40.11667000","longitude":"-0.23333000"},{"name":"Finestrat","latitude":"38.56737000","longitude":"-0.21235000"},{"name":"Foios","latitude":"39.53333000","longitude":"-0.35000000"},{"name":"Fontanars dels Alforins","latitude":"38.78423000","longitude":"-0.78667000"},{"name":"Forcall","latitude":"40.64542000","longitude":"-0.19992000"},{"name":"Formentera de Segura","latitude":"38.08509000","longitude":"-0.74604000"},{"name":"Fortaleny","latitude":"39.18333000","longitude":"-0.30000000"},{"name":"Fuente la Reina","latitude":"40.06667000","longitude":"-0.60000000"},{"name":"Fuenterrobles","latitude":"39.58333000","longitude":"-1.35000000"},{"name":"Fuentes de Ayódar","latitude":"40.03333000","longitude":"-0.41667000"},{"name":"Gaibiel","latitude":"39.93333000","longitude":"-0.48333000"},{"name":"Gandia","latitude":"38.96667000","longitude":"-0.18333000"},{"name":"Gata de Gorgos","latitude":"38.77443000","longitude":"0.08538000"},{"name":"Gavarda","latitude":"39.08333000","longitude":"-0.55000000"},{"name":"Geldo","latitude":"39.83333000","longitude":"-0.46667000"},{"name":"Genovés","latitude":"38.98915000","longitude":"-0.46992000"},{"name":"Gestalgar","latitude":"39.60000000","longitude":"-0.83333000"},{"name":"Gilet","latitude":"39.68333000","longitude":"-0.31667000"},{"name":"Godella","latitude":"39.53333000","longitude":"-0.41667000"},{"name":"Godelleta","latitude":"39.41667000","longitude":"-0.68333000"},{"name":"Gorga","latitude":"38.71896000","longitude":"-0.35589000"},{"name":"Granja de Rocamora","latitude":"38.15157000","longitude":"-0.89170000"},{"name":"Grao de Murviedro","latitude":"39.64167000","longitude":"-0.23889000"},{"name":"Guadasequies","latitude":"38.92539000","longitude":"-0.48585000"},{"name":"Guadassuar","latitude":"39.18663000","longitude":"-0.47859000"},{"name":"Guardamar del Segura","latitude":"38.09031000","longitude":"-0.65556000"},{"name":"Herbés","latitude":"40.72100000","longitude":"-0.00441000"},{"name":"Higueras","latitude":"39.98333000","longitude":"-0.50000000"},{"name":"Higueruelas","latitude":"39.78333000","longitude":"-0.85000000"},{"name":"Hondón de las Nieves","latitude":"38.30844000","longitude":"-0.85330000"},{"name":"Hondón de los Frailes","latitude":"38.27390000","longitude":"-0.92938000"},{"name":"Ibi","latitude":"38.62533000","longitude":"-0.57225000"},{"name":"Jacarilla","latitude":"38.06247000","longitude":"-0.86822000"},{"name":"Jalance","latitude":"39.20000000","longitude":"-1.06667000"},{"name":"Jalón","latitude":"38.74063000","longitude":"-0.01129000"},{"name":"Jarafuel","latitude":"39.14013000","longitude":"-1.07306000"},{"name":"Javea","latitude":"38.78333000","longitude":"0.16667000"},{"name":"Jijona","latitude":"38.54086000","longitude":"-0.50263000"},{"name":"Jérica","latitude":"39.91667000","longitude":"-0.56667000"},{"name":"L'Alcúdia","latitude":"39.19717000","longitude":"-0.50537000"},{"name":"L'Alcúdia de Crespìns","latitude":"38.96667000","longitude":"-0.58333000"},{"name":"L'Alqueria de la Comtessa","latitude":"38.93333000","longitude":"-0.15000000"},{"name":"L'Eliana","latitude":"39.56667000","longitude":"-0.53333000"},{"name":"L'Olleria","latitude":"38.91667000","longitude":"-0.55000000"},{"name":"La Font de la Figuera","latitude":"38.80000000","longitude":"-0.88333000"},{"name":"La Pobla Llarga","latitude":"39.08333000","longitude":"-0.46667000"},{"name":"La Pobla de Farnals","latitude":"39.56571000","longitude":"-0.28425000"},{"name":"La Pobla de Vallbona","latitude":"39.59747000","longitude":"-0.55468000"},{"name":"La Romana","latitude":"38.36753000","longitude":"-0.89862000"},{"name":"La Yesa","latitude":"39.88333000","longitude":"-0.95000000"},{"name":"Llanera de Ranes","latitude":"38.99507000","longitude":"-0.57534000"},{"name":"Llaurí","latitude":"39.14671000","longitude":"-0.32944000"},{"name":"Llocnou de Sant Jeroni","latitude":"38.91667000","longitude":"-0.28333000"},{"name":"Llombai","latitude":"39.28333000","longitude":"-0.56667000"},{"name":"Llosa de Ranes","latitude":"39.02163000","longitude":"-0.53803000"},{"name":"Llutxent","latitude":"38.93333000","longitude":"-0.35000000"},{"name":"Llíria","latitude":"39.62894000","longitude":"-0.59783000"},{"name":"Loriguilla","latitude":"39.68333000","longitude":"-0.91667000"},{"name":"Los Montesinos","latitude":"38.02822000","longitude":"-0.74501000"},{"name":"Losa del Obispo","latitude":"39.70000000","longitude":"-0.86667000"},{"name":"Lucena del Cid","latitude":"40.13333000","longitude":"-0.28333000"},{"name":"Ludiente","latitude":"40.08333000","longitude":"-0.36667000"},{"name":"Macastre","latitude":"39.38333000","longitude":"-0.78333000"},{"name":"Manises","latitude":"39.49139000","longitude":"-0.46349000"},{"name":"Manuel","latitude":"39.05059000","longitude":"-0.48978000"},{"name":"Marines","latitude":"39.74165000","longitude":"-0.53103000"},{"name":"Masalavés","latitude":"39.14377000","longitude":"-0.52260000"},{"name":"Massamagrell","latitude":"39.56667000","longitude":"-0.33333000"},{"name":"Matet","latitude":"39.93333000","longitude":"-0.46667000"},{"name":"Meliana","latitude":"39.53333000","longitude":"-0.33333000"},{"name":"Millares","latitude":"39.25000000","longitude":"-0.76667000"},{"name":"Millena","latitude":"38.73082000","longitude":"-0.36274000"},{"name":"Miramar","latitude":"38.95036000","longitude":"-0.14007000"},{"name":"Mislata","latitude":"39.47523000","longitude":"-0.41825000"},{"name":"Mogente","latitude":"38.87598000","longitude":"-0.75150000"},{"name":"Moncada","latitude":"39.54555000","longitude":"-0.39551000"},{"name":"Moncofa","latitude":"39.80907000","longitude":"-0.14701000"},{"name":"Monforte del Cid","latitude":"38.38027000","longitude":"-0.72850000"},{"name":"Monserrat","latitude":"39.36667000","longitude":"-0.60000000"},{"name":"Montaberner","latitude":"38.89021000","longitude":"-0.49582000"},{"name":"Montanejos","latitude":"40.06667000","longitude":"-0.51667000"},{"name":"Montesa","latitude":"38.95030000","longitude":"-0.65200000"},{"name":"Montichelvo","latitude":"38.89129000","longitude":"-0.34123000"},{"name":"Montroy","latitude":"39.33333000","longitude":"-0.61667000"},{"name":"Montán","latitude":"40.03333000","longitude":"-0.55000000"},{"name":"Monóvar","latitude":"38.43809000","longitude":"-0.84062000"},{"name":"Moraira","latitude":"38.68866000","longitude":"0.13484000"},{"name":"Morella","latitude":"40.61966000","longitude":"-0.09892000"},{"name":"Murla","latitude":"38.76037000","longitude":"-0.08208000"},{"name":"Muro del Alcoy","latitude":"38.78120000","longitude":"-0.43608000"},{"name":"Museros","latitude":"39.56667000","longitude":"-0.35000000"},{"name":"Mutxamel","latitude":"38.41580000","longitude":"-0.44529000"},{"name":"Navajas","latitude":"39.88333000","longitude":"-0.50000000"},{"name":"Navarrés","latitude":"39.10198000","longitude":"-0.69469000"},{"name":"Novelda","latitude":"38.38479000","longitude":"-0.76773000"},{"name":"Nules","latitude":"39.85362000","longitude":"-0.15643000"},{"name":"Náquera","latitude":"39.65000000","longitude":"-0.41667000"},{"name":"Oliva","latitude":"38.91971000","longitude":"-0.11935000"},{"name":"Olocau","latitude":"39.70000000","longitude":"-0.53333000"},{"name":"Olocau del Rey","latitude":"40.63775000","longitude":"-0.34041000"},{"name":"Onda","latitude":"39.96495000","longitude":"-0.26041000"},{"name":"Ondara","latitude":"38.82817000","longitude":"0.01720000"},{"name":"Onil","latitude":"38.62606000","longitude":"-0.67313000"},{"name":"Ontinyent","latitude":"38.82191000","longitude":"-0.60603000"},{"name":"Orba","latitude":"38.78041000","longitude":"-0.06278000"},{"name":"Orcheta","latitude":"38.56397000","longitude":"-0.26299000"},{"name":"Orihuela","latitude":"38.08483000","longitude":"-0.94401000"},{"name":"Oropesa del Mar","latitude":"40.09134000","longitude":"0.14115000"},{"name":"Otos","latitude":"38.85427000","longitude":"-0.44399000"},{"name":"Paiporta","latitude":"39.42814000","longitude":"-0.41765000"},{"name":"Palanques","latitude":"40.71800000","longitude":"-0.17941000"},{"name":"Palma de Gandía","latitude":"38.92672000","longitude":"-0.22028000"},{"name":"Palmera","latitude":"38.93927000","longitude":"-0.15411000"},{"name":"Parcent","latitude":"38.74502000","longitude":"-0.06446000"},{"name":"Paterna","latitude":"39.50263000","longitude":"-0.44079000"},{"name":"Pavías","latitude":"39.96667000","longitude":"-0.48333000"},{"name":"Pedralba","latitude":"39.60000000","longitude":"-0.71667000"},{"name":"Pedreguer","latitude":"38.79312000","longitude":"0.03411000"},{"name":"Pego","latitude":"38.84305000","longitude":"-0.11707000"},{"name":"Peníscola","latitude":"40.35740000","longitude":"0.40692000"},{"name":"Petrés","latitude":"39.68333000","longitude":"-0.30000000"},{"name":"Picanya","latitude":"39.43333000","longitude":"-0.43333000"},{"name":"Picassent","latitude":"39.36350000","longitude":"-0.45949000"},{"name":"Pilar de la Horadada","latitude":"37.86591000","longitude":"-0.79256000"},{"name":"Piles","latitude":"38.94143000","longitude":"-0.13286000"},{"name":"Pina de Montalgrao","latitude":"40.01667000","longitude":"-0.65000000"},{"name":"Pinet","latitude":"38.98176000","longitude":"-0.33870000"},{"name":"Pinoso","latitude":"38.40164000","longitude":"-1.04196000"},{"name":"Planes","latitude":"38.78524000","longitude":"-0.34271000"},{"name":"Polinyà de Xúquer","latitude":"39.20000000","longitude":"-0.36667000"},{"name":"Polop","latitude":"38.62258000","longitude":"-0.13090000"},{"name":"Portell de Morella","latitude":"40.53267000","longitude":"-0.26249000"},{"name":"Potríes","latitude":"38.91617000","longitude":"-0.19594000"},{"name":"Provincia de Alicante","latitude":"38.50000000","longitude":"-0.50000000"},{"name":"Província de Castelló","latitude":"40.16667000","longitude":"-0.16667000"},{"name":"Província de València","latitude":"39.33333000","longitude":"-0.83333000"},{"name":"Puebla de Arenoso","latitude":"40.10000000","longitude":"-0.58333000"},{"name":"Puebla de San Miguel","latitude":"40.05000000","longitude":"-1.13333000"},{"name":"Puig","latitude":"39.58869000","longitude":"-0.30333000"},{"name":"Puçol","latitude":"39.61667000","longitude":"-0.30000000"},{"name":"Quart de Poblet","latitude":"39.48139000","longitude":"-0.43937000"},{"name":"Quart de les Valls","latitude":"39.73333000","longitude":"-0.26667000"},{"name":"Quartell","latitude":"39.73751000","longitude":"-0.26458000"},{"name":"Quatretonda","latitude":"38.95000000","longitude":"-0.40000000"},{"name":"Quesa","latitude":"39.11970000","longitude":"-0.74000000"},{"name":"Rafal","latitude":"38.10458000","longitude":"-0.84904000"},{"name":"Rafelcofer","latitude":"38.93248000","longitude":"-0.16772000"},{"name":"Rafelguaraf","latitude":"39.05126000","longitude":"-0.45543000"},{"name":"Real de Gandía","latitude":"38.94817000","longitude":"-0.19239000"},{"name":"Real de Montroi","latitude":"39.33333000","longitude":"-0.60000000"},{"name":"Redován","latitude":"38.11619000","longitude":"-0.90981000"},{"name":"Relleu","latitude":"38.58725000","longitude":"-0.31157000"},{"name":"Requena","latitude":"39.48834000","longitude":"-1.10044000"},{"name":"Ribarroja del Turia","latitude":"39.54595000","longitude":"-0.57069000"},{"name":"Ribesalbes","latitude":"40.01667000","longitude":"-0.26667000"},{"name":"Riola","latitude":"39.20000000","longitude":"-0.33333000"},{"name":"Rocafort","latitude":"39.53333000","longitude":"-0.40000000"},{"name":"Rojales","latitude":"38.08799000","longitude":"-0.72544000"},{"name":"Rosell","latitude":"40.61792000","longitude":"0.22133000"},{"name":"Rotglá y Corbera","latitude":"39.00465000","longitude":"-0.56482000"},{"name":"Rugat","latitude":"38.87933000","longitude":"-0.36115000"},{"name":"Ráfol de Salem","latitude":"38.86651000","longitude":"-0.39991000"},{"name":"Rótova","latitude":"38.93205000","longitude":"-0.25765000"},{"name":"Sacañet","latitude":"39.86667000","longitude":"-0.71667000"},{"name":"Sagra","latitude":"38.81102000","longitude":"-0.06559000"},{"name":"Sagunto","latitude":"39.68333000","longitude":"-0.26667000"},{"name":"Salinas","latitude":"38.52025000","longitude":"-0.91202000"},{"name":"San Juan de Alicante","latitude":"38.40148000","longitude":"-0.43623000"},{"name":"San Juan de Moró","latitude":"40.05990000","longitude":"-0.13691000"},{"name":"San Juan de Énova","latitude":"39.07104000","longitude":"-0.48705000"},{"name":"San Miguel de Salinas","latitude":"37.97972000","longitude":"-0.78904000"},{"name":"San Vicent del Raspeig","latitude":"38.39640000","longitude":"-0.52550000"},{"name":"Sanet y Negrals","latitude":"38.81967000","longitude":"-0.03406000"},{"name":"Sant Jordi","latitude":"40.50982000","longitude":"0.33208000"},{"name":"Santa Magdalena de Pulpis","latitude":"40.35625000","longitude":"0.30258000"},{"name":"Santa Pola","latitude":"38.19165000","longitude":"-0.56580000"},{"name":"Sarratella","latitude":"40.31284000","longitude":"0.03150000"},{"name":"Sax","latitude":"38.53729000","longitude":"-0.81779000"},{"name":"Sedaví","latitude":"39.43333000","longitude":"-0.38333000"},{"name":"Segart","latitude":"39.68333000","longitude":"-0.36667000"},{"name":"Segorbe","latitude":"39.85000000","longitude":"-0.48333000"},{"name":"Sella","latitude":"38.60926000","longitude":"-0.27305000"},{"name":"Sellent","latitude":"39.03221000","longitude":"-0.58784000"},{"name":"Sempere","latitude":"38.92014000","longitude":"-0.48140000"},{"name":"Senija","latitude":"38.72804000","longitude":"0.04176000"},{"name":"Senyera","latitude":"39.06667000","longitude":"-0.50000000"},{"name":"Serra","latitude":"39.68333000","longitude":"-0.43333000"},{"name":"Sierra-Engarcerán","latitude":"40.26929000","longitude":"-0.01892000"},{"name":"Siete Aguas","latitude":"39.46667000","longitude":"-0.91667000"},{"name":"Silla","latitude":"39.36257000","longitude":"-0.41169000"},{"name":"Simat de la Valldigna","latitude":"39.03333000","longitude":"-0.31667000"},{"name":"Sinarcas","latitude":"39.73333000","longitude":"-1.23333000"},{"name":"Sollana","latitude":"39.27830000","longitude":"-0.38238000"},{"name":"Soneja","latitude":"39.81667000","longitude":"-0.41667000"},{"name":"Sot de Chera","latitude":"39.63333000","longitude":"-0.90000000"},{"name":"Sot de Ferrer","latitude":"39.80000000","longitude":"-0.40000000"},{"name":"Sueca","latitude":"39.20260000","longitude":"-0.31114000"},{"name":"Sumacàrcer","latitude":"39.10000000","longitude":"-0.63333000"},{"name":"Tales","latitude":"39.94844000","longitude":"-0.30719000"},{"name":"Tavernes Blanques","latitude":"39.50000000","longitude":"-0.36667000"},{"name":"Tavernes de la Valldigna","latitude":"39.07195000","longitude":"-0.26623000"},{"name":"Terrateig","latitude":"38.89453000","longitude":"-0.31993000"},{"name":"Teulada","latitude":"38.72940000","longitude":"0.10383000"},{"name":"Tibi","latitude":"38.53072000","longitude":"-0.57776000"},{"name":"Titaguas","latitude":"39.86667000","longitude":"-1.08333000"},{"name":"Todolella","latitude":"40.64675000","longitude":"-0.24675000"},{"name":"Toga","latitude":"40.05000000","longitude":"-0.36667000"},{"name":"Tollos","latitude":"38.75629000","longitude":"-0.27466000"},{"name":"Tormos","latitude":"38.80143000","longitude":"-0.07160000"},{"name":"Torralba del Pinar","latitude":"39.98333000","longitude":"-0.43333000"},{"name":"Torre de la Horadada","latitude":"37.86970000","longitude":"-0.75840000"},{"name":"Torreblanca","latitude":"40.22033000","longitude":"0.19650000"},{"name":"Torrechiva","latitude":"40.05000000","longitude":"-0.40000000"},{"name":"Torrella","latitude":"38.98446000","longitude":"-0.56727000"},{"name":"Torrent","latitude":"39.43705000","longitude":"-0.46546000"},{"name":"Torrevieja","latitude":"37.97872000","longitude":"-0.68222000"},{"name":"Torás","latitude":"39.91667000","longitude":"-0.68333000"},{"name":"Tous","latitude":"39.13951000","longitude":"-0.58777000"},{"name":"Traiguera","latitude":"40.52511000","longitude":"0.29023000"},{"name":"Turís","latitude":"39.38333000","longitude":"-0.70000000"},{"name":"Tuéjar","latitude":"39.76667000","longitude":"-1.03333000"},{"name":"Utiel","latitude":"39.56667000","longitude":"-1.20000000"},{"name":"Valencia","latitude":"39.46975000","longitude":"-0.37739000"},{"name":"Vall de Almonacid","latitude":"39.90000000","longitude":"-0.45000000"},{"name":"Vall de Ebo","latitude":"38.80561000","longitude":"-0.15890000"},{"name":"Vallada","latitude":"38.89575000","longitude":"-0.69104000"},{"name":"Vallanca","latitude":"40.06667000","longitude":"-1.33333000"},{"name":"Vallibona","latitude":"40.60300000","longitude":"0.04642000"},{"name":"Vallés","latitude":"38.98518000","longitude":"-0.55696000"},{"name":"Venta del Moro","latitude":"39.48333000","longitude":"-1.35000000"},{"name":"Vergel","latitude":"38.84709000","longitude":"0.01034000"},{"name":"Vila-real","latitude":"39.93830000","longitude":"-0.10087000"},{"name":"Vilamarxant","latitude":"39.56916000","longitude":"-0.62453000"},{"name":"Villafamés","latitude":"40.11667000","longitude":"-0.05000000"},{"name":"Villafranca del Cid","latitude":"40.42885000","longitude":"-0.25775000"},{"name":"Villahermosa del Río","latitude":"40.20268000","longitude":"-0.41990000"},{"name":"Villajoyosa","latitude":"38.50754000","longitude":"-0.23346000"},{"name":"Villalonga","latitude":"38.88566000","longitude":"-0.20795000"},{"name":"Villamalur","latitude":"39.96667000","longitude":"-0.40000000"},{"name":"Villanueva de Castellón","latitude":"39.07741000","longitude":"-0.51167000"},{"name":"Villanueva de Viver","latitude":"40.05000000","longitude":"-0.65000000"},{"name":"Villar del Arzobispo","latitude":"39.73333000","longitude":"-0.81667000"},{"name":"Villargordo del Cabriel","latitude":"39.53333000","longitude":"-1.43333000"},{"name":"Villavieja","latitude":"39.85000000","longitude":"-0.18333000"},{"name":"Villena","latitude":"38.63730000","longitude":"-0.86568000"},{"name":"Villores","latitude":"40.67478000","longitude":"-0.20023000"},{"name":"Vinalesa","latitude":"39.53333000","longitude":"-0.36667000"},{"name":"Vinaròs","latitude":"40.47033000","longitude":"0.47559000"},{"name":"Vistabella del Maestrazgo","latitude":"40.29617000","longitude":"-0.29435000"},{"name":"Viver","latitude":"39.91667000","longitude":"-0.60000000"},{"name":"Xeraco,Jaraco","latitude":"39.03333000","longitude":"-0.21667000"},{"name":"Xeresa","latitude":"39.01667000","longitude":"-0.21667000"},{"name":"Xirivella","latitude":"39.46588000","longitude":"-0.42589000"},{"name":"Xàtiva","latitude":"38.99042000","longitude":"-0.51852000"},{"name":"Yátova","latitude":"39.38333000","longitude":"-0.80000000"},{"name":"Zarra","latitude":"39.09175000","longitude":"-1.07532000"},{"name":"Zorita del Maestrazgo","latitude":"40.72817000","longitude":"-0.16667000"},{"name":"Zucaina","latitude":"40.11667000","longitude":"-0.41667000"},{"name":"els Poblets","latitude":"38.85381000","longitude":"0.02103000"},{"name":"l'Alcora","latitude":"40.06667000","longitude":"-0.20000000"},{"name":"l'Alfàs del Pi","latitude":"38.58055000","longitude":"-0.10321000"},{"name":"la Nucia","latitude":"38.61372000","longitude":"-0.12690000"}]