[{"name":"Binji","latitude":"13.22294000","longitude":"4.90888000"},{"name":"Dange","latitude":"12.85313000","longitude":"5.34572000"},{"name":"Gandi","latitude":"12.96358000","longitude":"5.74337000"},{"name":"Goronyo","latitude":"13.44226000","longitude":"5.67234000"},{"name":"Gwadabawa","latitude":"13.35819000","longitude":"5.23812000"},{"name":"Illela","latitude":"13.73064000","longitude":"5.29777000"},{"name":"Rabah","latitude":"13.12257000","longitude":"5.50762000"},{"name":"Sokoto","latitude":"13.06269000","longitude":"5.24322000"},{"name":"Tambuwal","latitude":"12.40592000","longitude":"4.64605000"},{"name":"Wurno","latitude":"13.29048000","longitude":"5.42373000"}]