[{"name":"Caconda","latitude":"-13.73333000","longitude":"15.06667000"},{"name":"Caluquembe","latitude":"-13.92093000","longitude":"14.53476000"},{"name":"Chibia","latitude":"-15.23657000","longitude":"13.88468000"},{"name":"Chicomba","latitude":"-14.30788000","longitude":"14.98672000"},{"name":"Chipindo","latitude":"-13.86830000","longitude":"15.73277000"},{"name":"Cuvango","latitude":"-14.27693000","longitude":"16.31475000"},{"name":"Gambos","latitude":"-15.80926000","longitude":"14.07661000"},{"name":"Humpata","latitude":"-15.07250000","longitude":"13.36771000"},{"name":"Jamba","latitude":"-14.76294000","longitude":"15.83493000"},{"name":"Lubango","latitude":"-14.91717000","longitude":"13.49250000"},{"name":"Matala","latitude":"-15.23967000","longitude":"15.17246000"},{"name":"Quilengues","latitude":"-13.99213000","longitude":"13.76705000"},{"name":"Quipungo","latitude":"-15.12203000","longitude":"14.55953000"}]