[{"name":"Aleksandrovskaya","latitude":"43.48333000","longitude":"43.65000000"},{"name":"Altud","latitude":"43.72194000","longitude":"43.86583000"},{"name":"Argudan","latitude":"43.42139000","longitude":"43.91583000"},{"name":"Aushiger","latitude":"43.39611000","longitude":"43.73167000"},{"name":"Babugent","latitude":"43.27942000","longitude":"43.55020000"},{"name":"Baksan","latitude":"43.68806000","longitude":"43.53694000"},{"name":"Baksanenok","latitude":"43.68972000","longitude":"43.65472000"},{"name":"Baksanskiy Rayon","latitude":"43.75000000","longitude":"43.50000000"},{"name":"Belaya Rechka","latitude":"43.43806000","longitude":"43.53500000"},{"name":"Bylym","latitude":"43.46500000","longitude":"43.03889000"},{"name":"Chegem","latitude":"43.28333000","longitude":"43.13333000"},{"name":"Chegem Vtoroy","latitude":"43.59583000","longitude":"43.59944000"},{"name":"Cherekskiy Rayon","latitude":"43.25000000","longitude":"43.50000000"},{"name":"Deyskoye","latitude":"43.47546000","longitude":"44.16182000"},{"name":"Dugulubgey","latitude":"43.66250000","longitude":"43.53694000"},{"name":"El’brus","latitude":"43.25771000","longitude":"42.64435000"},{"name":"El’brusskiy Rayon","latitude":"43.41667000","longitude":"42.83333000"},{"name":"Germenchik","latitude":"43.59389000","longitude":"43.76611000"},{"name":"Gundelen","latitude":"43.59750000","longitude":"43.17194000"},{"name":"Islamey","latitude":"43.67556000","longitude":"43.45500000"},{"name":"Kakhun","latitude":"43.54306000","longitude":"43.87639000"},{"name":"Kamenka","latitude":"43.53333000","longitude":"43.51667000"},{"name":"Kamennomostskoye","latitude":"43.73722000","longitude":"43.05139000"},{"name":"Karagach","latitude":"43.80528000","longitude":"43.77500000"},{"name":"Kashkhatau","latitude":"43.31848000","longitude":"43.60804000"},{"name":"Kenzhe","latitude":"43.50167000","longitude":"43.55722000"},{"name":"Kishpek","latitude":"43.65500000","longitude":"43.64083000"},{"name":"Kotlyarevskaya","latitude":"43.57344000","longitude":"44.06134000"},{"name":"Kuba-Taba","latitude":"43.77611000","longitude":"43.44278000"},{"name":"Kyzburun Pervyy","latitude":"43.65167000","longitude":"43.39500000"},{"name":"Lechinkay","latitude":"43.56472000","longitude":"43.43278000"},{"name":"Leskenskiy rayon","latitude":"43.35556000","longitude":"43.94139000"},{"name":"Malka","latitude":"43.80389000","longitude":"43.32417000"},{"name":"Mayskiy Rayon","latitude":"43.66667000","longitude":"44.08333000"},{"name":"Nal’chik","latitude":"43.49806000","longitude":"43.61889000"},{"name":"Nartan","latitude":"43.51083000","longitude":"43.69944000"},{"name":"Nartkala","latitude":"43.55750000","longitude":"43.85083000"},{"name":"Nizhniy Cherek","latitude":"43.51306000","longitude":"43.91389000"},{"name":"Nizhniy Kurkuzhin","latitude":"43.74833000","longitude":"43.34972000"},{"name":"Planovskoye","latitude":"43.39846000","longitude":"44.19490000"},{"name":"Primalkinskoye","latitude":"43.74667000","longitude":"44.00833000"},{"name":"Prokhladnenskiy Rayon","latitude":"43.83333000","longitude":"44.00000000"},{"name":"Prokhladnyy","latitude":"43.75741000","longitude":"44.02970000"},{"name":"Psygansu","latitude":"43.41944000","longitude":"43.79361000"},{"name":"Sarmakovo","latitude":"43.74556000","longitude":"43.20028000"},{"name":"Shalushka","latitude":"43.53250000","longitude":"43.56611000"},{"name":"Soldatskaya","latitude":"43.81806000","longitude":"43.81583000"},{"name":"Staryy Cherek","latitude":"43.47139000","longitude":"43.84694000"},{"name":"Staryy Urukh","latitude":"43.34041000","longitude":"44.01868000"},{"name":"Terek","latitude":"43.48333000","longitude":"44.13611000"},{"name":"Terskiy Rayon","latitude":"43.58333000","longitude":"44.25000000"},{"name":"Terskol","latitude":"43.25680000","longitude":"42.51481000"},{"name":"Tyrnyauz","latitude":"43.38278000","longitude":"42.91833000"},{"name":"Urukh","latitude":"43.29335000","longitude":"44.02647000"},{"name":"Urvanskiy Rayon","latitude":"43.41667000","longitude":"43.91667000"},{"name":"Urvan’","latitude":"43.49222000","longitude":"43.76056000"},{"name":"Verkhniy Kurkuzhin","latitude":"43.69556000","longitude":"43.27472000"},{"name":"Verkhnyaya Balkariya","latitude":"43.12545000","longitude":"43.45687000"},{"name":"Vol’nyy Aul","latitude":"43.47861000","longitude":"43.62750000"},{"name":"Zalukokoazhe","latitude":"43.90389000","longitude":"43.21556000"},{"name":"Zayukovo","latitude":"43.61611000","longitude":"43.33389000"},{"name":"Zhankhoteko","latitude":"43.56417000","longitude":"43.21056000"},{"name":"Zhemtala","latitude":"43.28408000","longitude":"43.65586000"},{"name":"Zol’skiy Rayon","latitude":"43.75000000","longitude":"42.91667000"}]