[{"name":"Amarpur","latitude":"25.03967000","longitude":"86.90247000"},{"name":"Araria","latitude":"26.20000000","longitude":"87.40000000"},{"name":"Arrah","latitude":"25.55629000","longitude":"84.66335000"},{"name":"Arwal","latitude":"25.16158000","longitude":"84.69040000"},{"name":"Asarganj","latitude":"25.15046000","longitude":"86.68639000"},{"name":"Aurangabad","latitude":"24.75204000","longitude":"84.37420000"},{"name":"Bagaha","latitude":"27.09918000","longitude":"84.09003000"},{"name":"Bahadurganj","latitude":"26.26172000","longitude":"87.82443000"},{"name":"Bairagnia","latitude":"26.74063000","longitude":"85.27323000"},{"name":"Baisi","latitude":"25.86302000","longitude":"87.74487000"},{"name":"Bakhtiyarpur","latitude":"25.46179000","longitude":"85.53179000"},{"name":"Bangaon","latitude":"25.86728000","longitude":"86.51152000"},{"name":"Banka","latitude":"24.89214000","longitude":"86.98425000"},{"name":"Banmankhi","latitude":"25.88857000","longitude":"87.19421000"},{"name":"Bar Bigha","latitude":"25.21855000","longitude":"85.73320000"},{"name":"Barauli","latitude":"26.38109000","longitude":"84.58648000"},{"name":"Barhiya","latitude":"25.28814000","longitude":"86.02055000"},{"name":"Bariarpur","latitude":"25.28791000","longitude":"86.57643000"},{"name":"Begusarai","latitude":"25.41853000","longitude":"86.13389000"},{"name":"Belsand","latitude":"26.44365000","longitude":"85.40076000"},{"name":"Bettiah","latitude":"26.80229000","longitude":"84.50311000"},{"name":"Bhabhua","latitude":"25.04049000","longitude":"83.60749000"},{"name":"Bhagirathpur","latitude":"26.26950000","longitude":"86.06346000"},{"name":"Bhawanipur","latitude":"26.45352000","longitude":"87.02744000"},{"name":"Bhojpur","latitude":"25.30886000","longitude":"84.44504000"},{"name":"Bhagalpur","latitude":"25.29023000","longitude":"87.06665000"},{"name":"Bihar Sharif","latitude":"25.20084000","longitude":"85.52389000"},{"name":"Bihariganj","latitude":"25.73415000","longitude":"86.98837000"},{"name":"Bikramganj","latitude":"25.21073000","longitude":"84.25508000"},{"name":"Buddh Gaya","latitude":"24.69808000","longitude":"84.98690000"},{"name":"Buxar","latitude":"25.50000000","longitude":"84.10000000"},{"name":"Barh","latitude":"25.48339000","longitude":"85.70928000"},{"name":"Baruni","latitude":"25.47509000","longitude":"85.96813000"},{"name":"Birpur","latitude":"26.50823000","longitude":"87.01194000"},{"name":"Chhatapur","latitude":"26.21965000","longitude":"87.00479000"},{"name":"Chakia","latitude":"26.41598000","longitude":"85.04665000"},{"name":"Chapra","latitude":"25.78031000","longitude":"84.74709000"},{"name":"Colgong","latitude":"25.26328000","longitude":"87.23264000"},{"name":"Dalsingh Sarai","latitude":"25.66795000","longitude":"85.83636000"},{"name":"Darbhanga","latitude":"26.00000000","longitude":"86.00000000"},{"name":"Daudnagar","latitude":"25.03473000","longitude":"84.40095000"},{"name":"Dehri","latitude":"24.90247000","longitude":"84.18217000"},{"name":"Dhaka","latitude":"26.67479000","longitude":"85.16698000"},{"name":"Dighwara","latitude":"25.74434000","longitude":"85.01003000"},{"name":"Dinapore","latitude":"25.63705000","longitude":"85.04794000"},{"name":"Dumra","latitude":"26.56708000","longitude":"85.52040000"},{"name":"Dumraon","latitude":"25.55265000","longitude":"84.15149000"},{"name":"Fatwa","latitude":"25.50958000","longitude":"85.30504000"},{"name":"Forbesganj","latitude":"26.30253000","longitude":"87.26556000"},{"name":"Gaya","latitude":"24.79686000","longitude":"85.00385000"},{"name":"Ghoga","latitude":"25.21738000","longitude":"87.15710000"},{"name":"Gopalganj","latitude":"26.50000000","longitude":"84.33333000"},{"name":"Hilsa","latitude":"25.31642000","longitude":"85.28234000"},{"name":"Hisua","latitude":"24.83360000","longitude":"85.41729000"},{"name":"Hajipur","latitude":"25.68544000","longitude":"85.20981000"},{"name":"Islampur","latitude":"25.14075000","longitude":"85.20587000"},{"name":"Jagdispur","latitude":"25.46811000","longitude":"84.41939000"},{"name":"Jahanabad","latitude":"25.21368000","longitude":"84.98710000"},{"name":"Jamui","latitude":"24.92082000","longitude":"86.17538000"},{"name":"Jamalpur","latitude":"25.31258000","longitude":"86.48888000"},{"name":"Jaynagar","latitude":"26.59048000","longitude":"86.13791000"},{"name":"Jehanabad","latitude":"25.20701000","longitude":"84.99573000"},{"name":"Jhanjharpur","latitude":"26.26467000","longitude":"86.27993000"},{"name":"Jha-Jha","latitude":"24.77107000","longitude":"86.37888000"},{"name":"Jogbani","latitude":"26.39905000","longitude":"87.26525000"},{"name":"Kaimur District","latitude":"25.05077000","longitude":"83.58261000"},{"name":"Kasba","latitude":"25.85643000","longitude":"87.53836000"},{"name":"Katihar","latitude":"25.50000000","longitude":"87.60000000"},{"name":"Khagaria","latitude":"25.50220000","longitude":"86.46708000"},{"name":"Khagaul","latitude":"25.57898000","longitude":"85.04564000"},{"name":"Kharagpur","latitude":"25.12446000","longitude":"86.55578000"},{"name":"Khusropur","latitude":"25.48174000","longitude":"85.38492000"},{"name":"Kishanganj","latitude":"26.30000000","longitude":"88.00000000"},{"name":"Koelwar","latitude":"25.58055000","longitude":"84.79751000"},{"name":"Koath","latitude":"25.32643000","longitude":"84.25983000"},{"name":"Lakhisarai","latitude":"25.20000000","longitude":"86.20000000"},{"name":"Luckeesarai","latitude":"25.17650000","longitude":"86.09470000"},{"name":"Lalganj","latitude":"25.86894000","longitude":"85.17394000"},{"name":"Madhepura","latitude":"25.80000000","longitude":"87.00000000"},{"name":"Madhipura","latitude":"25.92127000","longitude":"86.79271000"},{"name":"Madhubani","latitude":"26.35367000","longitude":"86.07169000"},{"name":"Maharajgani","latitude":"26.11017000","longitude":"84.50365000"},{"name":"Mairwa","latitude":"26.23218000","longitude":"84.16349000"},{"name":"Maner","latitude":"25.64602000","longitude":"84.87291000"},{"name":"Manihari","latitude":"25.33891000","longitude":"87.61998000"},{"name":"Marhaura","latitude":"25.97349000","longitude":"84.86796000"},{"name":"Masaurhi Buzurg","latitude":"25.35417000","longitude":"85.03195000"},{"name":"Mohiuddinnagar","latitude":"25.57374000","longitude":"85.66944000"},{"name":"Mokameh","latitude":"25.39662000","longitude":"85.92190000"},{"name":"Monghyr","latitude":"25.37459000","longitude":"86.47455000"},{"name":"Mothihari","latitude":"26.64862000","longitude":"84.91656000"},{"name":"Munger","latitude":"25.36099000","longitude":"86.46515000"},{"name":"Murliganj","latitude":"25.89690000","longitude":"86.99577000"},{"name":"Muzaffarpur","latitude":"26.16667000","longitude":"85.41667000"},{"name":"Nabinagar","latitude":"24.60681000","longitude":"84.12624000"},{"name":"Naugachhia","latitude":"25.38807000","longitude":"87.09906000"},{"name":"Nawada","latitude":"24.75000000","longitude":"85.50000000"},{"name":"Nirmali","latitude":"26.31397000","longitude":"86.58537000"},{"name":"Nalanda","latitude":"25.25000000","longitude":"85.58333000"},{"name":"Nasriganj","latitude":"25.05140000","longitude":"84.32839000"},{"name":"Pashchim Champaran","latitude":"27.00000000","longitude":"84.50000000"},{"name":"Patna","latitude":"25.41667000","longitude":"85.16667000"},{"name":"Piro","latitude":"25.33218000","longitude":"84.40454000"},{"name":"Pupri","latitude":"26.47079000","longitude":"85.70311000"},{"name":"Purnia","latitude":"25.81614000","longitude":"87.40708000"},{"name":"Purba Champaran","latitude":"26.58333000","longitude":"84.83333000"},{"name":"Rafiganj","latitude":"24.81757000","longitude":"84.63445000"},{"name":"Raghunathpur","latitude":"25.64492000","longitude":"87.91762000"},{"name":"Raxaul","latitude":"26.97982000","longitude":"84.85065000"},{"name":"Revelganj","latitude":"25.78976000","longitude":"84.63596000"},{"name":"Rohtas","latitude":"24.97941000","longitude":"84.02774000"},{"name":"Rusera","latitude":"25.75355000","longitude":"86.02597000"},{"name":"Rajgir","latitude":"25.02828000","longitude":"85.42079000"},{"name":"Ramnagar","latitude":"27.16371000","longitude":"84.32342000"},{"name":"Sagauli","latitude":"26.76390000","longitude":"84.74341000"},{"name":"Saharsa","latitude":"25.87498000","longitude":"86.59611000"},{"name":"Samastipur","latitude":"25.75000000","longitude":"85.91667000"},{"name":"Shahbazpur","latitude":"26.30511000","longitude":"87.28865000"},{"name":"Sheikhpura","latitude":"25.13073000","longitude":"85.78176000"},{"name":"Sheohar","latitude":"26.50000000","longitude":"85.30000000"},{"name":"Sherghati","latitude":"24.55950000","longitude":"84.79162000"},{"name":"Shahpur","latitude":"25.60293000","longitude":"84.40412000"},{"name":"Silao","latitude":"25.08358000","longitude":"85.42804000"},{"name":"Siwan","latitude":"26.22096000","longitude":"84.35609000"},{"name":"Supaul","latitude":"26.25000000","longitude":"86.80000000"},{"name":"Saran","latitude":"25.91667000","longitude":"84.75000000"},{"name":"Sitamarhi","latitude":"26.66667000","longitude":"85.50000000"},{"name":"Teghra","latitude":"25.49043000","longitude":"85.94001000"},{"name":"Tekari","latitude":"24.94253000","longitude":"84.84265000"},{"name":"Thakurganj","latitude":"26.42742000","longitude":"88.13112000"},{"name":"Vaishali","latitude":"25.75000000","longitude":"85.41667000"},{"name":"Waris Aliganj","latitude":"25.01720000","longitude":"85.64047000"}]