[{"name":"Azua","latitude":"18.45319000","longitude":"-70.73490000"},{"name":"El Guayabal","latitude":"18.74960000","longitude":"-70.83690000"},{"name":"Estebanía","latitude":"18.45770000","longitude":"-70.64350000"},{"name":"Las Charcas","latitude":"18.45026000","longitude":"-70.61724000"},{"name":"Padre Las Casas","latitude":"18.75000000","longitude":"-70.88333000"},{"name":"Palmar de Ocoa","latitude":"18.29656000","longitude":"-70.58635000"},{"name":"Peralta","latitude":"18.58164000","longitude":"-70.77029000"},{"name":"Pueblo Viejo","latitude":"18.40000000","longitude":"-70.76765000"},{"name":"Sabana Yegua","latitude":"18.71667000","longitude":"-71.01667000"},{"name":"Tábara Arriba","latitude":"18.56999000","longitude":"-70.87978000"},{"name":"Villarpando","latitude":"18.65860000","longitude":"-71.03916000"},{"name":"Yayas de Viajama","latitude":"18.60710000","longitude":"-70.92753000"}]