[{"name":"Bräkne-Hoby","latitude":"56.23333000","longitude":"15.11667000"},{"name":"Hasslö","latitude":"56.11667000","longitude":"15.48333000"},{"name":"Hällevik","latitude":"56.01667000","longitude":"14.70000000"},{"name":"Jämjö","latitude":"56.19187000","longitude":"15.84115000"},{"name":"Jämshög","latitude":"56.23333000","longitude":"14.51667000"},{"name":"Kallinge","latitude":"56.24841000","longitude":"15.28721000"},{"name":"Karlshamn","latitude":"56.17060000","longitude":"14.86188000"},{"name":"Karlshamns kommun","latitude":"56.25000000","longitude":"14.86667000"},{"name":"Karlskrona","latitude":"56.16156000","longitude":"15.58661000"},{"name":"Karlskrona Kommun","latitude":"56.28167000","longitude":"15.66848000"},{"name":"Mjällby","latitude":"56.05000000","longitude":"14.68333000"},{"name":"Mörrum","latitude":"56.19281000","longitude":"14.74739000"},{"name":"Nättraby","latitude":"56.20000000","longitude":"15.51667000"},{"name":"Olofström","latitude":"56.27730000","longitude":"14.53402000"},{"name":"Olofströms Kommun","latitude":"56.32305000","longitude":"14.56561000"},{"name":"Ronneby","latitude":"56.20999000","longitude":"15.27602000"},{"name":"Ronneby Kommun","latitude":"56.31031000","longitude":"15.24038000"},{"name":"Rödeby","latitude":"56.26078000","longitude":"15.62143000"},{"name":"Sturkö","latitude":"56.08333000","longitude":"15.70000000"},{"name":"Svängsta","latitude":"56.26667000","longitude":"14.76667000"},{"name":"Sölvesborg","latitude":"56.05205000","longitude":"14.57525000"},{"name":"Sölvesborgs kommun","latitude":"56.08910000","longitude":"14.64518000"}]