[{"name":"Agua Blanca Sur","latitude":"15.25000000","longitude":"-87.88333000"},{"name":"Arenal","latitude":"15.35000000","longitude":"-86.83333000"},{"name":"Armenia","latitude":"15.46667000","longitude":"-86.36667000"},{"name":"Ayapa","latitude":"15.11174000","longitude":"-87.17557000"},{"name":"Bálsamo Oriental","latitude":"15.48333000","longitude":"-86.33333000"},{"name":"Carbajales","latitude":"15.51667000","longitude":"-86.35000000"},{"name":"Coyoles Central","latitude":"15.40000000","longitude":"-86.66667000"},{"name":"El Bálsamo","latitude":"15.06667000","longitude":"-87.46667000"},{"name":"El Juncal","latitude":"15.45000000","longitude":"-86.43333000"},{"name":"El Negrito","latitude":"15.31667000","longitude":"-87.70000000"},{"name":"El Ocote","latitude":"15.41667000","longitude":"-86.56667000"},{"name":"El Progreso","latitude":"15.42762000","longitude":"-87.77396000"},{"name":"Guaimitas","latitude":"15.50000000","longitude":"-87.71667000"},{"name":"Jocón","latitude":"15.28333000","longitude":"-86.96667000"},{"name":"La Estancia","latitude":"15.28333000","longitude":"-87.55000000"},{"name":"La Guacamaya","latitude":"15.25000000","longitude":"-87.80000000"},{"name":"La Mina","latitude":"15.31667000","longitude":"-87.83333000"},{"name":"La Rosa","latitude":"15.35000000","longitude":"-87.06667000"},{"name":"La Sarrosa","latitude":"15.23333000","longitude":"-87.83333000"},{"name":"La Trinidad","latitude":"15.10000000","longitude":"-87.20000000"},{"name":"Las Vegas","latitude":"15.01667000","longitude":"-87.45000000"},{"name":"Lomitas","latitude":"15.10000000","longitude":"-87.21667000"},{"name":"Mojimán","latitude":"15.26667000","longitude":"-87.60000000"},{"name":"Morazán","latitude":"15.31667000","longitude":"-87.60000000"},{"name":"Nombre de Jesús","latitude":"15.35000000","longitude":"-86.68333000"},{"name":"Nueva Esperanza","latitude":"15.26667000","longitude":"-87.60000000"},{"name":"Ocote Paulino","latitude":"15.41667000","longitude":"-87.60000000"},{"name":"Olanchito","latitude":"15.48131000","longitude":"-86.57415000"},{"name":"Paujiles","latitude":"15.10000000","longitude":"-87.35000000"},{"name":"Punta Ocote","latitude":"15.20000000","longitude":"-87.28333000"},{"name":"San Antonio","latitude":"15.33333000","longitude":"-87.15000000"},{"name":"San José","latitude":"15.31667000","longitude":"-87.16667000"},{"name":"Santa Rita","latitude":"15.18000000","longitude":"-87.81000000"},{"name":"Subirana","latitude":"15.20000000","longitude":"-87.45000000"},{"name":"Sulaco","latitude":"14.91667000","longitude":"-87.26667000"},{"name":"Teguajinal","latitude":"15.36667000","longitude":"-86.60000000"},{"name":"Tepusteca","latitude":"15.41667000","longitude":"-86.31667000"},{"name":"Toyós","latitude":"15.55000000","longitude":"-87.65000000"},{"name":"Trojas","latitude":"15.35000000","longitude":"-86.70000000"},{"name":"Victoria","latitude":"15.10012000","longitude":"-87.53020000"},{"name":"Yorito","latitude":"15.06667000","longitude":"-87.28333000"},{"name":"Yoro","latitude":"15.13750000","longitude":"-87.12778000"}]