[{"name":"Ashanti Region","countryCode":"GH","fipsCode":"02","iso":"AH","latitude":"6.74704360","longitude":"-1.52086240"},{"name":"Brong-Ahafo Region","countryCode":"GH","fipsCode":"03","iso":"BA","latitude":"7.95592470","longitude":"-1.67606910"},{"name":"Central Region","countryCode":"GH","fipsCode":"04","iso":"CP","latitude":null,"longitude":null},{"name":"Eastern Region","countryCode":"GH","fipsCode":"05","iso":"EP","latitude":null,"longitude":null},{"name":"Greater Accra Region","countryCode":"GH","fipsCode":"01","iso":"AA","latitude":"5.81428360","longitude":"0.07467670"},{"name":"Northern Region","countryCode":"GH","fipsCode":"06","iso":"NP","latitude":null,"longitude":null},{"name":"Upper East Region","countryCode":"GH","fipsCode":"10","iso":"UE","latitude":"10.70824990","longitude":"-0.98206680"},{"name":"Upper West Region","countryCode":"GH","fipsCode":"11","iso":"UW","latitude":"10.25297570","longitude":"-2.14502450"},{"name":"Volta Region","countryCode":"GH","fipsCode":"08","iso":"TV","latitude":"6.57813730","longitude":"0.45023680"},{"name":"Western Region","countryCode":"GH","fipsCode":"09","iso":"WP","latitude":null,"longitude":null}]