[{"name":"Alagir","latitude":"43.04222000","longitude":"44.22222000"},{"name":"Alagirskiy Rayon","latitude":"42.83333000","longitude":"44.08333000"},{"name":"Ardon","latitude":"43.17720000","longitude":"44.29702000"},{"name":"Arkhonskaya","latitude":"43.11000000","longitude":"44.51250000"},{"name":"Beslan","latitude":"43.19217000","longitude":"44.54313000"},{"name":"Chermen","latitude":"43.15186000","longitude":"44.71231000"},{"name":"Chikola","latitude":"43.19055000","longitude":"43.92093000"},{"name":"Dachnoye","latitude":"43.08468000","longitude":"44.73580000"},{"name":"Digora","latitude":"43.15806000","longitude":"44.15694000"},{"name":"Digorskiy Rayon","latitude":"43.16667000","longitude":"44.08333000"},{"name":"Gizel’","latitude":"43.04000000","longitude":"44.57083000"},{"name":"Irafskiy Rayon","latitude":"43.00000000","longitude":"43.75000000"},{"name":"Kambileyevskoye","latitude":"43.07858000","longitude":"44.75216000"},{"name":"Kardzhin","latitude":"43.27368000","longitude":"44.29075000"},{"name":"Khumalag","latitude":"43.24031000","longitude":"44.47521000"},{"name":"Kirovskiy Rayon","latitude":"43.33333000","longitude":"44.33333000"},{"name":"Kizlyar","latitude":"43.70379000","longitude":"44.59440000"},{"name":"Mikhaylovskoye","latitude":"43.09972000","longitude":"44.63164000"},{"name":"Mizur","latitude":"42.85376000","longitude":"44.06393000"},{"name":"Mozdok","latitude":"43.74359000","longitude":"44.65177000"},{"name":"Nogir","latitude":"43.08162000","longitude":"44.63650000"},{"name":"Pavlodol’skaya","latitude":"43.71923000","longitude":"44.47815000"},{"name":"Pravoberezhnyy Rayon","latitude":"43.16667000","longitude":"44.66667000"},{"name":"Prigorodnyy Rayon","latitude":"43.08333000","longitude":"44.83333000"},{"name":"Sunzha","latitude":"43.05862000","longitude":"44.82281000"},{"name":"Tarskoye","latitude":"42.96606000","longitude":"44.77540000"},{"name":"Terskaya","latitude":"43.72376000","longitude":"44.72442000"},{"name":"Troitskoye","latitude":"43.76219000","longitude":"44.68415000"},{"name":"Verkhniy Fiagdon","latitude":"42.83454000","longitude":"44.30604000"},{"name":"Vladikavkaz","latitude":"43.03667000","longitude":"44.66778000"},{"name":"Zmeyskaya","latitude":"43.33617000","longitude":"44.15733000"}]