[{"name":"Baraki","latitude":"36.66655000","longitude":"3.09606000"},{"name":"Bou Ismaïl","latitude":"36.64262000","longitude":"2.69007000"},{"name":"Cheraga","latitude":"36.76775000","longitude":"2.95924000"},{"name":"Douera","latitude":"36.67000000","longitude":"2.94444000"},{"name":"El Affroun","latitude":"36.47010000","longitude":"2.62528000"},{"name":"Hadjout","latitude":"36.51257000","longitude":"2.41382000"},{"name":"Kolea","latitude":"36.63888000","longitude":"2.76845000"},{"name":"Mouzaïa","latitude":"36.46695000","longitude":"2.68991000"},{"name":"Oued el Alleug","latitude":"36.55528000","longitude":"2.79028000"},{"name":"Saoula","latitude":"36.70456000","longitude":"3.02462000"},{"name":"Tipasa","latitude":"36.58972000","longitude":"2.44750000"},{"name":"Zeralda","latitude":"36.71169000","longitude":"2.84244000"},{"name":"’Aïn Benian","latitude":"36.80277000","longitude":"2.92185000"}]