[{"name":"Bafing","latitude":"8.40611000","longitude":"-7.58048000"},{"name":"Béré","latitude":"8.18952000","longitude":"-6.17157000"},{"name":"Mankono","latitude":"8.05861000","longitude":"-6.18972000"},{"name":"Séguéla","latitude":"7.96111000","longitude":"-6.67306000"},{"name":"Touba","latitude":"8.28333000","longitude":"-7.68333000"},{"name":"Worodougou","latitude":"8.16482000","longitude":"-6.66595000"}]