[{"name":"Krŏng Doun Kaev","latitude":"10.99459000","longitude":"104.79550000"},{"name":"Phumĭ Véal Srê","latitude":"10.98081000","longitude":"104.77828000"},{"name":"Srŏk Borei Cholsar","latitude":"10.81414000","longitude":"104.98994000"},{"name":"Srŏk Ângkôr Borei","latitude":"10.99291000","longitude":"104.95177000"},{"name":"Takeo","latitude":"10.99081000","longitude":"104.78498000"}]