[{"name":"Erongo Region","countryCode":"NA","fipsCode":"29","iso":"ER","latitude":"-22.25656820","longitude":"15.40680790"},{"name":"Hardap Region","countryCode":"NA","fipsCode":"30","iso":"HA","latitude":"-24.23101340","longitude":"17.66888700"},{"name":"Karas Region","countryCode":"NA","fipsCode":"31","iso":"KA","latitude":"-26.84296450","longitude":"17.29028390"},{"name":"Kavango East Region","countryCode":"NA","fipsCode":"40","iso":"KE","latitude":"-18.27104800","longitude":"18.42760470"},{"name":"Kavango West Region","countryCode":"NA","fipsCode":"41","iso":"KW","latitude":"-18.27104800","longitude":"18.42760470"},{"name":"Khomas Region","countryCode":"NA","fipsCode":"21","iso":"KH","latitude":"-22.63778540","longitude":"17.10119310"},{"name":"Kunene Region","countryCode":"NA","fipsCode":"32","iso":"KU","latitude":"-19.40863170","longitude":"13.91439900"},{"name":"Ohangwena Region","countryCode":"NA","fipsCode":"33","iso":"OW","latitude":"-17.59792910","longitude":"16.81783770"},{"name":"Omaheke Region","countryCode":"NA","fipsCode":"35","iso":"OH","latitude":"-21.84666510","longitude":"19.18800470"},{"name":"Omusati Region","countryCode":"NA","fipsCode":"36","iso":"OS","latitude":"-18.40702940","longitude":"14.84546190"},{"name":"Oshana Region","countryCode":"NA","fipsCode":"37","iso":"ON","latitude":"-18.43050640","longitude":"15.68817880"},{"name":"Oshikoto Region","countryCode":"NA","fipsCode":"38","iso":"OT","latitude":"-18.41525750","longitude":"16.91225100"},{"name":"Otjozondjupa Region","countryCode":"NA","fipsCode":"39","iso":"OD","latitude":"-20.54869160","longitude":"17.66888700"},{"name":"Zambezi Region","countryCode":"NA","fipsCode":"28","iso":"CA","latitude":"-17.81934190","longitude":"23.95364660"}]