[{"name":"Abengibre","latitude":"39.21667000","longitude":"-1.53333000"},{"name":"Abenójar","latitude":"38.88032000","longitude":"-4.35702000"},{"name":"Ablanque","latitude":"40.89818000","longitude":"-2.22523000"},{"name":"Abánades","latitude":"40.89261000","longitude":"-2.48526000"},{"name":"Adobes","latitude":"40.67584000","longitude":"-1.67916000"},{"name":"Agudo","latitude":"38.98183000","longitude":"-4.87133000"},{"name":"Ajofrín","latitude":"39.71088000","longitude":"-3.98220000"},{"name":"Alamillo","latitude":"38.67842000","longitude":"-4.79008000"},{"name":"Alaminos","latitude":"40.86303000","longitude":"-2.72573000"},{"name":"Alarcón","latitude":"39.55000000","longitude":"-2.08333000"},{"name":"Alarilla","latitude":"40.84711000","longitude":"-3.10310000"},{"name":"Alatoz","latitude":"39.09495000","longitude":"-1.36098000"},{"name":"Albacete","latitude":"38.99424000","longitude":"-1.85643000"},{"name":"Albaladejo","latitude":"38.61887000","longitude":"-2.80784000"},{"name":"Albaladejo del Cuende","latitude":"39.80684000","longitude":"-2.22903000"},{"name":"Albalate de Zorita","latitude":"40.30812000","longitude":"-2.84267000"},{"name":"Albalate de las Nogueras","latitude":"40.36614000","longitude":"-2.27718000"},{"name":"Albares","latitude":"40.30690000","longitude":"-3.00897000"},{"name":"Albarreal de Tajo","latitude":"39.89698000","longitude":"-4.22895000"},{"name":"Albatana","latitude":"38.57057000","longitude":"-1.52210000"},{"name":"Albendea","latitude":"40.48751000","longitude":"-2.41747000"},{"name":"Albendiego","latitude":"41.22742000","longitude":"-3.05171000"},{"name":"Alborea","latitude":"39.28333000","longitude":"-1.38333000"},{"name":"Alcabón","latitude":"40.00224000","longitude":"-4.36852000"},{"name":"Alcadozo","latitude":"38.64916000","longitude":"-1.97998000"},{"name":"Alcalá de la Vega","latitude":"40.03333000","longitude":"-1.51667000"},{"name":"Alcalá del Júcar","latitude":"39.19313000","longitude":"-1.43017000"},{"name":"Alcantud","latitude":"40.54818000","longitude":"-2.33258000"},{"name":"Alcaraz","latitude":"38.66680000","longitude":"-2.49105000"},{"name":"Alcañizo","latitude":"39.90315000","longitude":"-5.10588000"},{"name":"Alcoba","latitude":"39.25988000","longitude":"-4.47715000"},{"name":"Alcocer","latitude":"40.46972000","longitude":"-2.60940000"},{"name":"Alcohujate","latitude":"40.41763000","longitude":"-2.61490000"},{"name":"Alcolea de Calatrava","latitude":"38.98680000","longitude":"-4.11597000"},{"name":"Alcolea de Tajo","latitude":"39.80966000","longitude":"-5.14738000"},{"name":"Alcolea de las Peñas","latitude":"41.20960000","longitude":"-2.78483000"},{"name":"Alcolea del Pinar","latitude":"41.03569000","longitude":"-2.46645000"},{"name":"Alconchel de la Estrella","latitude":"39.71963000","longitude":"-2.57366000"},{"name":"Alcoroches","latitude":"40.62669000","longitude":"-1.74629000"},{"name":"Alcubillas","latitude":"38.75312000","longitude":"-3.13407000"},{"name":"Alcázar de San Juan","latitude":"39.39011000","longitude":"-3.20827000"},{"name":"Alcázar del Rey","latitude":"40.06289000","longitude":"-2.80782000"},{"name":"Aldea del Rey","latitude":"38.73830000","longitude":"-3.84017000"},{"name":"Aldeanueva de Barbarroya","latitude":"39.75934000","longitude":"-5.02287000"},{"name":"Aldeanueva de Guadalajara","latitude":"40.67988000","longitude":"-3.04438000"},{"name":"Aldeanueva de San Bartolomé","latitude":"39.63608000","longitude":"-5.11307000"},{"name":"Algar de Mesa","latitude":"41.13494000","longitude":"-1.95964000"},{"name":"Algarra","latitude":"40.00000000","longitude":"-1.43333000"},{"name":"Algora","latitude":"40.96324000","longitude":"-2.66688000"},{"name":"Alhambra","latitude":"38.89925000","longitude":"-3.05333000"},{"name":"Alhóndiga","latitude":"40.52669000","longitude":"-2.82438000"},{"name":"Aliaguilla","latitude":"39.74143000","longitude":"-1.32567000"},{"name":"Alique","latitude":"40.58671000","longitude":"-2.64441000"},{"name":"Almadrones","latitude":"40.90096000","longitude":"-2.77406000"},{"name":"Almadén","latitude":"38.77541000","longitude":"-4.83156000"},{"name":"Almagro","latitude":"38.88941000","longitude":"-3.71131000"},{"name":"Almansa","latitude":"38.86917000","longitude":"-1.09713000"},{"name":"Almedina","latitude":"38.62453000","longitude":"-2.95382000"},{"name":"Almendral de la Cañada","latitude":"40.18456000","longitude":"-4.74173000"},{"name":"Almodóvar del Campo","latitude":"38.70936000","longitude":"-4.17908000"},{"name":"Almodóvar del Pinar","latitude":"39.71667000","longitude":"-1.88333000"},{"name":"Almoguera","latitude":"40.29713000","longitude":"-2.98240000"},{"name":"Almonacid de Zorita","latitude":"40.32932000","longitude":"-2.85040000"},{"name":"Almonacid del Marquesado","latitude":"39.82344000","longitude":"-2.76770000"},{"name":"Almorox","latitude":"40.23423000","longitude":"-4.39044000"},{"name":"Alocén","latitude":"40.57455000","longitude":"-2.74993000"},{"name":"Alovera","latitude":"40.59368000","longitude":"-3.24529000"},{"name":"Alpera","latitude":"38.95866000","longitude":"-1.23052000"},{"name":"Altarejos","latitude":"39.91258000","longitude":"-2.35692000"},{"name":"Alustante","latitude":"40.61442000","longitude":"-1.65910000"},{"name":"Anchuras","latitude":"39.48059000","longitude":"-4.83381000"},{"name":"Anguita","latitude":"41.02659000","longitude":"-2.36849000"},{"name":"Anquela del Ducado","latitude":"40.97084000","longitude":"-2.13066000"},{"name":"Anquela del Pedregal","latitude":"40.74336000","longitude":"-1.73697000"},{"name":"Arandilla del Arroyo","latitude":"40.51056000","longitude":"-2.38355000"},{"name":"Aranzueque","latitude":"40.49094000","longitude":"-3.07448000"},{"name":"Arbancón","latitude":"40.96434000","longitude":"-3.11505000"},{"name":"Arbeteta","latitude":"40.66999000","longitude":"-2.40236000"},{"name":"Arcicóllar","latitude":"40.05517000","longitude":"-4.11638000"},{"name":"Arcos de la Sierra","latitude":"40.34664000","longitude":"-2.11310000"},{"name":"Arenas de San Juan","latitude":"39.21861000","longitude":"-3.50211000"},{"name":"Argamasilla de Alba","latitude":"39.12917000","longitude":"-3.09247000"},{"name":"Argamasilla de Calatrava","latitude":"38.72985000","longitude":"-4.07627000"},{"name":"Argecilla","latitude":"40.88151000","longitude":"-2.82181000"},{"name":"Arguisuelas","latitude":"39.83333000","longitude":"-1.81667000"},{"name":"Armallones","latitude":"40.73580000","longitude":"-2.30257000"},{"name":"Armuña de Tajuña","latitude":"40.52884000","longitude":"-3.02819000"},{"name":"Arrancacepas","latitude":"40.30320000","longitude":"-2.35899000"},{"name":"Arroyo de las Fraguas","latitude":"41.10246000","longitude":"-3.13005000"},{"name":"Atalaya del Cañavate","latitude":"39.51864000","longitude":"-2.25175000"},{"name":"Atanzón","latitude":"40.66697000","longitude":"-2.99686000"},{"name":"Atienza","latitude":"41.19722000","longitude":"-2.87129000"},{"name":"Auñón","latitude":"40.51752000","longitude":"-2.79250000"},{"name":"Ayna","latitude":"38.55000000","longitude":"-2.08333000"},{"name":"Azuqueca de Henares","latitude":"40.56566000","longitude":"-3.26753000"},{"name":"Azután","latitude":"39.78564000","longitude":"-5.12730000"},{"name":"Añover de Tajo","latitude":"39.98873000","longitude":"-3.76579000"},{"name":"Baides","latitude":"41.00685000","longitude":"-2.77620000"},{"name":"Balazote","latitude":"38.88444000","longitude":"-2.15180000"},{"name":"Ballesteros de Calatrava","latitude":"38.83460000","longitude":"-3.94470000"},{"name":"Balsa de Ves","latitude":"39.26667000","longitude":"-1.20000000"},{"name":"Barajas de Melo","latitude":"40.12340000","longitude":"-2.91675000"},{"name":"Barchín del Hoyo","latitude":"39.66667000","longitude":"-2.06667000"},{"name":"Barcience","latitude":"39.98367000","longitude":"-4.23437000"},{"name":"Bargas","latitude":"39.94113000","longitude":"-4.01979000"},{"name":"Barrax","latitude":"39.04607000","longitude":"-2.20152000"},{"name":"Barriopedro","latitude":"40.79026000","longitude":"-2.75246000"},{"name":"Bascuñana de San Pedro","latitude":"40.21322000","longitude":"-2.22812000"},{"name":"Baños de Tajo","latitude":"40.71667000","longitude":"-1.96667000"},{"name":"Bañuelos","latitude":"41.28601000","longitude":"-2.91477000"},{"name":"Beamud","latitude":"40.18645000","longitude":"-1.82880000"},{"name":"Belinchón","latitude":"40.04603000","longitude":"-3.05517000"},{"name":"Belmonte","latitude":"39.55746000","longitude":"-2.70461000"},{"name":"Belmontejo","latitude":"39.82212000","longitude":"-2.34467000"},{"name":"Belvis de la Jara","latitude":"39.75768000","longitude":"-4.94932000"},{"name":"Berninches","latitude":"40.57106000","longitude":"-2.80121000"},{"name":"Beteta","latitude":"40.57191000","longitude":"-2.07588000"},{"name":"Bienservida","latitude":"38.51716000","longitude":"-2.61087000"},{"name":"Bogarra","latitude":"38.58139000","longitude":"-2.21290000"},{"name":"Bolaños de Calatrava","latitude":"38.90690000","longitude":"-3.66345000"},{"name":"Bonete","latitude":"38.87136000","longitude":"-1.34851000"},{"name":"Boniches","latitude":"39.98333000","longitude":"-1.61667000"},{"name":"Borox","latitude":"40.06795000","longitude":"-3.73804000"},{"name":"Brazatortas","latitude":"38.65869000","longitude":"-4.29368000"},{"name":"Brihuega","latitude":"40.76049000","longitude":"-2.86966000"},{"name":"Buciegas","latitude":"40.33622000","longitude":"-2.46250000"},{"name":"Budia","latitude":"40.62734000","longitude":"-2.75846000"},{"name":"Buenache de Alarcón","latitude":"39.65000000","longitude":"-2.16667000"},{"name":"Buenaventura","latitude":"40.17705000","longitude":"-4.85003000"},{"name":"Buendía","latitude":"40.36643000","longitude":"-2.75645000"},{"name":"Bujalaro","latitude":"40.93687000","longitude":"-2.88333000"},{"name":"Burguillos de Toledo","latitude":"39.79635000","longitude":"-3.99254000"},{"name":"Burujón","latitude":"39.90113000","longitude":"-4.29730000"},{"name":"Bustares","latitude":"41.13333000","longitude":"-3.06667000"},{"name":"Cabanillas del Campo","latitude":"40.63376000","longitude":"-3.22937000"},{"name":"Cabañas de Yepes","latitude":"39.89051000","longitude":"-3.53502000"},{"name":"Cabañas de la Sagra","latitude":"40.00610000","longitude":"-3.94560000"},{"name":"Cabezamesada","latitude":"39.81630000","longitude":"-3.10236000"},{"name":"Cabezarados","latitude":"38.84469000","longitude":"-4.29830000"},{"name":"Calera y Chozas","latitude":"39.88278000","longitude":"-4.98213000"},{"name":"Caleruela","latitude":"39.87483000","longitude":"-5.25693000"},{"name":"Camarena","latitude":"40.09311000","longitude":"-4.11927000"},{"name":"Camarenilla","latitude":"40.01672000","longitude":"-4.07624000"},{"name":"Campillo de Altobuey","latitude":"39.60000000","longitude":"-1.80000000"},{"name":"Campillo de Dueñas","latitude":"40.88376000","longitude":"-1.68505000"},{"name":"Campillo de Ranas","latitude":"41.08601000","longitude":"-3.31431000"},{"name":"Campillos-Paravientos","latitude":"39.98333000","longitude":"-1.55000000"},{"name":"Campillos-Sierra","latitude":"40.10000000","longitude":"-1.70000000"},{"name":"Campisábalos","latitude":"41.26667000","longitude":"-3.13333000"},{"name":"Campo de Criptana","latitude":"39.40463000","longitude":"-3.12492000"},{"name":"Camuñas","latitude":"39.42704000","longitude":"-3.45503000"},{"name":"Canalejas del Arroyo","latitude":"40.36850000","longitude":"-2.49408000"},{"name":"Canredondo","latitude":"40.81257000","longitude":"-2.49377000"},{"name":"Cantalojas","latitude":"41.23472000","longitude":"-3.24629000"},{"name":"Carboneras de Guadazaón","latitude":"39.88333000","longitude":"-1.80000000"},{"name":"Carcelén","latitude":"39.10202000","longitude":"-1.30879000"},{"name":"Cardenete","latitude":"39.76667000","longitude":"-1.68333000"},{"name":"Cardiel de los Montes","latitude":"40.06348000","longitude":"-4.65488000"},{"name":"Carmena","latitude":"39.95562000","longitude":"-4.40149000"},{"name":"Carranque","latitude":"40.16976000","longitude":"-3.90092000"},{"name":"Carrascosa","latitude":"40.59092000","longitude":"-2.16305000"},{"name":"Carrascosa de Haro","latitude":"39.59757000","longitude":"-2.54182000"},{"name":"Carriches","latitude":"39.96417000","longitude":"-4.45864000"},{"name":"Carrizosa","latitude":"38.84204000","longitude":"-2.99250000"},{"name":"Carrión de Calatrava","latitude":"39.01897000","longitude":"-3.81683000"},{"name":"Casa de Uceda","latitude":"40.84115000","longitude":"-3.36849000"},{"name":"Casarrubios del Monte","latitude":"40.18697000","longitude":"-4.03644000"},{"name":"Casas Ibáñez","latitude":"39.28333000","longitude":"-1.46667000"},{"name":"Casas de Benítez","latitude":"39.36667000","longitude":"-2.13333000"},{"name":"Casas de Fernando Alonso","latitude":"39.35065000","longitude":"-2.32402000"},{"name":"Casas de Garcimolina","latitude":"40.00000000","longitude":"-1.41667000"},{"name":"Casas de Guijarro","latitude":"39.35000000","longitude":"-2.16667000"},{"name":"Casas de Haro","latitude":"39.33355000","longitude":"-2.27273000"},{"name":"Casas de Juan Núñez","latitude":"39.10190000","longitude":"-1.55821000"},{"name":"Casas de Lázaro","latitude":"38.77056000","longitude":"-2.24044000"},{"name":"Casas de San Galindo","latitude":"40.87234000","longitude":"-2.95750000"},{"name":"Casas de Ves","latitude":"39.25000000","longitude":"-1.33333000"},{"name":"Casas de los Pinos","latitude":"39.33375000","longitude":"-2.36984000"},{"name":"Casasbuenas","latitude":"39.76117000","longitude":"-4.12558000"},{"name":"Casasimarro","latitude":"39.36667000","longitude":"-2.03333000"},{"name":"Caspueñas","latitude":"40.69497000","longitude":"-2.97941000"},{"name":"Castejón de Henares","latitude":"40.93762000","longitude":"-2.78665000"},{"name":"Castellar de Santiago","latitude":"38.53928000","longitude":"-3.27573000"},{"name":"Castellar de la Muela","latitude":"40.81902000","longitude":"-1.75932000"},{"name":"Castilforte","latitude":"40.55735000","longitude":"-2.43226000"},{"name":"Castillejo de Iniesta","latitude":"39.53333000","longitude":"-1.76667000"},{"name":"Castillejo-Sierra","latitude":"40.37477000","longitude":"-2.14040000"},{"name":"Castillo de Bayuela","latitude":"40.10032000","longitude":"-4.68562000"},{"name":"Castillo de Garcimuñoz","latitude":"39.65928000","longitude":"-2.38030000"},{"name":"Castillo-Albaráñez","latitude":"40.29869000","longitude":"-2.39277000"},{"name":"Castilnuevo","latitude":"40.81431000","longitude":"-1.85782000"},{"name":"Caudete","latitude":"38.70679000","longitude":"-0.98723000"},{"name":"Cazalegas","latitude":"40.00958000","longitude":"-4.67606000"},{"name":"Cañada de Calatrava","latitude":"38.85429000","longitude":"-4.02103000"},{"name":"Cañada del Hoyo","latitude":"39.96667000","longitude":"-1.90000000"},{"name":"Cañamares","latitude":"40.45203000","longitude":"-2.23983000"},{"name":"Cañaveras","latitude":"40.35994000","longitude":"-2.39611000"},{"name":"Cañaveruelas","latitude":"40.40024000","longitude":"-2.63719000"},{"name":"Cañete","latitude":"40.05000000","longitude":"-1.65000000"},{"name":"Cañizar","latitude":"40.76763000","longitude":"-3.06399000"},{"name":"Cañizares","latitude":"40.51870000","longitude":"-2.19201000"},{"name":"Cebolla","latitude":"39.94897000","longitude":"-4.57175000"},{"name":"Cedillo del Condado","latitude":"40.11260000","longitude":"-3.92127000"},{"name":"Cendejas de la Torre","latitude":"40.97916000","longitude":"-2.85053000"},{"name":"Cenizate","latitude":"39.30000000","longitude":"-1.65000000"},{"name":"Centenera","latitude":"40.65064000","longitude":"-3.05120000"},{"name":"Cervera de los Montes","latitude":"40.05182000","longitude":"-4.81072000"},{"name":"Cervera del Llano","latitude":"39.78312000","longitude":"-2.42019000"},{"name":"Checa","latitude":"40.58614000","longitude":"-1.79056000"},{"name":"Chequilla","latitude":"40.60600000","longitude":"-1.82787000"},{"name":"Chillarón de Cuenca","latitude":"40.10539000","longitude":"-2.22181000"},{"name":"Chillarón del Rey","latitude":"40.59818000","longitude":"-2.69126000"},{"name":"Chiloeches","latitude":"40.57038000","longitude":"-3.16003000"},{"name":"Chinchilla de Monte Aragón","latitude":"38.92088000","longitude":"-1.72018000"},{"name":"Chozas de Canales","latitude":"40.10014000","longitude":"-4.04333000"},{"name":"Chueca","latitude":"39.73191000","longitude":"-3.94365000"},{"name":"Chumillas","latitude":"39.76667000","longitude":"-2.03333000"},{"name":"Cifuentes","latitude":"40.78622000","longitude":"-2.62245000"},{"name":"Cincovillas","latitude":"41.20501000","longitude":"-2.81834000"},{"name":"Ciruelas","latitude":"40.75021000","longitude":"-3.08580000"},{"name":"Ciruelos","latitude":"39.93881000","longitude":"-3.61383000"},{"name":"Ciudad Real","latitude":"38.98626000","longitude":"-3.92907000"},{"name":"Cobeja","latitude":"40.02076000","longitude":"-3.85599000"},{"name":"Cobeta","latitude":"40.86560000","longitude":"-2.14211000"},{"name":"Cobisa","latitude":"39.80425000","longitude":"-4.02528000"},{"name":"Cogollor","latitude":"40.84818000","longitude":"-2.74425000"},{"name":"Cogolludo","latitude":"40.94691000","longitude":"-3.08930000"},{"name":"Condemios de Abajo","latitude":"41.21667000","longitude":"-3.10000000"},{"name":"Condemios de Arriba","latitude":"41.21644000","longitude":"-3.12543000"},{"name":"Congostrina","latitude":"41.03719000","longitude":"-2.98569000"},{"name":"Consuegra","latitude":"39.46246000","longitude":"-3.60800000"},{"name":"Copernal","latitude":"40.86463000","longitude":"-3.05396000"},{"name":"Corduente","latitude":"40.84304000","longitude":"-1.97841000"},{"name":"Corral de Almaguer","latitude":"39.75987000","longitude":"-3.16452000"},{"name":"Corral de Calatrava","latitude":"38.85793000","longitude":"-4.08140000"},{"name":"Corral-Rubio","latitude":"38.83462000","longitude":"-1.46034000"},{"name":"Cotillas","latitude":"38.43115000","longitude":"-2.50550000"},{"name":"Cuenca","latitude":"40.06667000","longitude":"-2.13333000"},{"name":"Cuerva","latitude":"39.66374000","longitude":"-4.21085000"},{"name":"Cueva del Hierro","latitude":"40.58258000","longitude":"-2.03612000"},{"name":"Cózar","latitude":"38.66219000","longitude":"-3.07205000"},{"name":"Daimiel","latitude":"39.07004000","longitude":"-3.61498000"},{"name":"Domingo Pérez","latitude":"39.97661000","longitude":"-4.50554000"},{"name":"Dosbarrios","latitude":"39.88199000","longitude":"-3.48419000"},{"name":"Driebes","latitude":"40.24498000","longitude":"-3.04165000"},{"name":"Durón","latitude":"40.62530000","longitude":"-2.72662000"},{"name":"El Bonillo","latitude":"38.95048000","longitude":"-2.54048000"},{"name":"El Carpio de Tajo","latitude":"39.88796000","longitude":"-4.45388000"},{"name":"El Casar de Escalona","latitude":"40.04640000","longitude":"-4.52507000"},{"name":"El Pedernoso","latitude":"39.48580000","longitude":"-2.74642000"},{"name":"El Provencio","latitude":"39.37740000","longitude":"-2.57448000"},{"name":"El Puente del Arzobispo","latitude":"39.80174000","longitude":"-5.17178000"},{"name":"El Real de San Vicente","latitude":"40.13561000","longitude":"-4.69095000"},{"name":"El Robledo","latitude":"39.21898000","longitude":"-4.28099000"},{"name":"El Toboso","latitude":"39.51333000","longitude":"-2.99726000"},{"name":"El Viso de San Juan","latitude":"40.14154000","longitude":"-3.91817000"},{"name":"Elche de la Sierra","latitude":"38.45123000","longitude":"-2.04760000"},{"name":"Embid","latitude":"40.97256000","longitude":"-1.71206000"},{"name":"Enguídanos","latitude":"39.66667000","longitude":"-1.60000000"},{"name":"Erustes","latitude":"39.95667000","longitude":"-4.49656000"},{"name":"Escalona","latitude":"40.16690000","longitude":"-4.40484000"},{"name":"Escalonilla","latitude":"39.92570000","longitude":"-4.35095000"},{"name":"Escamilla","latitude":"40.54979000","longitude":"-2.56292000"},{"name":"Escariche","latitude":"40.40553000","longitude":"-3.05310000"},{"name":"Escopete","latitude":"40.41324000","longitude":"-3.00460000"},{"name":"Espinosa de Henares","latitude":"40.90053000","longitude":"-3.06956000"},{"name":"Espinoso del Rey","latitude":"39.65333000","longitude":"-4.78371000"},{"name":"Esplegares","latitude":"40.85650000","longitude":"-2.37084000"},{"name":"Esquivias","latitude":"40.10440000","longitude":"-3.76677000"},{"name":"Establés","latitude":"41.00767000","longitude":"-2.02438000"},{"name":"Estriégana","latitude":"41.05821000","longitude":"-2.52363000"},{"name":"Fontanar","latitude":"40.72466000","longitude":"-3.17309000"},{"name":"Fontanarejo","latitude":"39.22014000","longitude":"-4.51753000"},{"name":"Fresneda de Altarejos","latitude":"39.92577000","longitude":"-2.31498000"},{"name":"Fresneda de la Sierra","latitude":"40.39101000","longitude":"-2.14233000"},{"name":"Fuembellida","latitude":"40.75589000","longitude":"-1.99861000"},{"name":"Fuencaliente","latitude":"39.18624000","longitude":"-4.02576000"},{"name":"Fuencemillán","latitude":"40.92063000","longitude":"-3.09818000"},{"name":"Fuenllana","latitude":"38.75590000","longitude":"-2.95814000"},{"name":"Fuensalida","latitude":"40.05288000","longitude":"-4.20718000"},{"name":"Fuensanta","latitude":"39.23333000","longitude":"-2.06667000"},{"name":"Fuente de Pedro Naharro","latitude":"39.92438000","longitude":"-3.00916000"},{"name":"Fuente el Fresno","latitude":"39.22839000","longitude":"-3.77487000"},{"name":"Fuente-Álamo","latitude":"38.69288000","longitude":"-1.43158000"},{"name":"Fuentealbilla","latitude":"39.26667000","longitude":"-1.55000000"},{"name":"Fuentelahiguera de Albatages","latitude":"40.78312000","longitude":"-3.30492000"},{"name":"Fuentelencina","latitude":"40.51781000","longitude":"-2.88226000"},{"name":"Fuentelespino de Haro","latitude":"39.68934000","longitude":"-2.66869000"},{"name":"Fuentelespino de Moya","latitude":"39.91667000","longitude":"-1.46667000"},{"name":"Fuentelsaz","latitude":"41.07359000","longitude":"-1.83108000"},{"name":"Fuentelviejo","latitude":"40.52637000","longitude":"-2.98430000"},{"name":"Fuentenovilla","latitude":"40.36248000","longitude":"-3.09102000"},{"name":"Fuentes","latitude":"39.96667000","longitude":"-2.01667000"},{"name":"Fuertescusa","latitude":"40.47552000","longitude":"-2.17620000"},{"name":"Férez","latitude":"38.35000000","longitude":"-2.00000000"},{"name":"Gabaldón","latitude":"39.61667000","longitude":"-1.93333000"},{"name":"Gajanejos","latitude":"40.84147000","longitude":"-2.89229000"},{"name":"Galve de Sorbe","latitude":"41.21667000","longitude":"-3.18333000"},{"name":"Galápagos","latitude":"40.69347000","longitude":"-3.33537000"},{"name":"Garaballa","latitude":"39.81667000","longitude":"-1.36667000"},{"name":"Gascueña","latitude":"40.29937000","longitude":"-2.51856000"},{"name":"Gascueña de Bornova","latitude":"41.14243000","longitude":"-3.01924000"},{"name":"Gerindote","latitude":"39.96594000","longitude":"-4.30278000"},{"name":"Golosalvo","latitude":"39.23333000","longitude":"-1.63333000"},{"name":"Graja de Campalbo","latitude":"39.90000000","longitude":"-1.26667000"},{"name":"Graja de Iniesta","latitude":"39.51667000","longitude":"-1.66667000"},{"name":"Guadalajara","latitude":"40.62862000","longitude":"-3.16185000"},{"name":"Guadalmez","latitude":"38.72665000","longitude":"-4.97104000"},{"name":"Guadamur","latitude":"39.81178000","longitude":"-4.14885000"},{"name":"Gálvez","latitude":"39.70208000","longitude":"-4.27239000"},{"name":"Hellín","latitude":"38.51060000","longitude":"-1.70096000"},{"name":"Henarejos","latitude":"39.86667000","longitude":"-1.48333000"},{"name":"Henche","latitude":"40.71474000","longitude":"-2.70746000"},{"name":"Herencia","latitude":"39.36616000","longitude":"-3.35735000"},{"name":"Herreruela de Oropesa","latitude":"39.88928000","longitude":"-5.24279000"},{"name":"Herrería","latitude":"40.88815000","longitude":"-1.96014000"},{"name":"Hiendelaencina","latitude":"41.08373000","longitude":"-3.00337000"},{"name":"Higueruela","latitude":"38.96371000","longitude":"-1.44370000"},{"name":"Hijes","latitude":"41.25139000","longitude":"-2.99989000"},{"name":"Hinojosa de San Vicente","latitude":"40.10463000","longitude":"-4.72269000"},{"name":"Hinojosas de Calatrava","latitude":"38.61446000","longitude":"-4.13979000"},{"name":"Hita","latitude":"40.82149000","longitude":"-3.04540000"},{"name":"Hombrados","latitude":"40.80118000","longitude":"-1.68558000"},{"name":"Honrubia","latitude":"39.61358000","longitude":"-2.28077000"},{"name":"Hontanar","latitude":"39.61297000","longitude":"-4.49663000"},{"name":"Hontanaya","latitude":"39.71553000","longitude":"-2.83516000"},{"name":"Hontecillas","latitude":"39.70000000","longitude":"-2.18333000"},{"name":"Hontoba","latitude":"40.45385000","longitude":"-3.03858000"},{"name":"Horcajo de Santiago","latitude":"39.84221000","longitude":"-2.99724000"},{"name":"Horche","latitude":"40.56399000","longitude":"-3.06110000"},{"name":"Hormigos","latitude":"40.09778000","longitude":"-4.44473000"},{"name":"Hoya-Gonzalo","latitude":"38.95790000","longitude":"-1.55679000"},{"name":"Huecas","latitude":"40.01230000","longitude":"-4.19541000"},{"name":"Huelves","latitude":"40.04282000","longitude":"-2.88444000"},{"name":"Huerta de Valdecarábanos","latitude":"39.86319000","longitude":"-3.61275000"},{"name":"Huerta de la Obispalía","latitude":"39.98901000","longitude":"-2.47875000"},{"name":"Huerta del Marquesado","latitude":"40.15000000","longitude":"-1.68333000"},{"name":"Huertahernando","latitude":"40.82348000","longitude":"-2.28697000"},{"name":"Huete","latitude":"40.14526000","longitude":"-2.69026000"},{"name":"Hueva","latitude":"40.46221000","longitude":"-2.96039000"},{"name":"Humanes","latitude":"40.82598000","longitude":"-3.15257000"},{"name":"Huélamo","latitude":"40.27658000","longitude":"-1.80957000"},{"name":"Huérguina","latitude":"40.03333000","longitude":"-1.60000000"},{"name":"Huérmeces del Cerro","latitude":"41.05332000","longitude":"-2.79711000"},{"name":"Illana","latitude":"40.18442000","longitude":"-2.90889000"},{"name":"Illescas","latitude":"40.12213000","longitude":"-3.84704000"},{"name":"Illán de Vacas","latitude":"39.97079000","longitude":"-4.55743000"},{"name":"Infantes","latitude":"38.73669000","longitude":"-3.01219000"},{"name":"Iniesta","latitude":"39.43333000","longitude":"-1.75000000"},{"name":"Iniéstola","latitude":"40.99400000","longitude":"-2.37063000"},{"name":"Irueste","latitude":"40.61206000","longitude":"-2.89072000"},{"name":"Jadraque","latitude":"40.92454000","longitude":"-2.92468000"},{"name":"Jirueque","latitude":"40.96431000","longitude":"-2.90289000"},{"name":"Jorquera","latitude":"39.16667000","longitude":"-1.51667000"},{"name":"La Alameda de la Sagra","latitude":"40.01199000","longitude":"-3.79255000"},{"name":"La Alberca de Záncara","latitude":"39.51458000","longitude":"-2.49272000"},{"name":"La Calzada de Calatrava","latitude":"38.70339000","longitude":"-3.77561000"},{"name":"La Frontera","latitude":"40.40161000","longitude":"-2.21699000"},{"name":"La Gineta","latitude":"39.11452000","longitude":"-1.99603000"},{"name":"La Guardia","latitude":"39.78795000","longitude":"-3.47604000"},{"name":"La Puebla de Almoradiel","latitude":"39.59862000","longitude":"-3.11782000"},{"name":"La Puebla de Montalbán","latitude":"39.86297000","longitude":"-4.35917000"},{"name":"La Pueblanueva","latitude":"39.91208000","longitude":"-4.67933000"},{"name":"La Roda","latitude":"39.20735000","longitude":"-2.15723000"},{"name":"La Solana","latitude":"38.94422000","longitude":"-3.23810000"},{"name":"La Torre de Esteban Hambrán","latitude":"40.16935000","longitude":"-4.21549000"},{"name":"Lagartera","latitude":"39.90557000","longitude":"-5.20143000"},{"name":"Laguna del Marquesado","latitude":"40.17749000","longitude":"-1.67167000"},{"name":"Lagunaseca","latitude":"40.53100000","longitude":"-2.01956000"},{"name":"Landete","latitude":"39.90000000","longitude":"-1.36667000"},{"name":"Las Mesas","latitude":"39.38871000","longitude":"-2.76524000"},{"name":"Las Pedroñeras","latitude":"39.44997000","longitude":"-2.67394000"},{"name":"Las Ventas de Retamosa","latitude":"40.15526000","longitude":"-4.11455000"},{"name":"Layos","latitude":"39.77703000","longitude":"-4.06448000"},{"name":"Ledanca","latitude":"40.86881000","longitude":"-2.84340000"},{"name":"Ledaña","latitude":"39.36667000","longitude":"-1.70000000"},{"name":"Leganiel","latitude":"40.16568000","longitude":"-2.94966000"},{"name":"Letur","latitude":"38.36626000","longitude":"-2.10206000"},{"name":"Lezuza","latitude":"38.94970000","longitude":"-2.35419000"},{"name":"Lillo","latitude":"39.72331000","longitude":"-3.30618000"},{"name":"Liétor","latitude":"38.54267000","longitude":"-1.95367000"},{"name":"Lominchar","latitude":"40.09061000","longitude":"-3.96713000"},{"name":"Loranca de Tajuña","latitude":"40.44368000","longitude":"-3.11082000"},{"name":"Los Hinojosos","latitude":"39.60417000","longitude":"-2.82572000"},{"name":"Los Navalmorales","latitude":"39.72526000","longitude":"-4.64227000"},{"name":"Los Navalucillos","latitude":"39.66665000","longitude":"-4.64205000"},{"name":"Los Yébenes","latitude":"39.58158000","longitude":"-3.87058000"},{"name":"Lucillos","latitude":"39.98510000","longitude":"-4.61279000"},{"name":"Lupiana","latitude":"40.60846000","longitude":"-3.05118000"},{"name":"Luzaga","latitude":"40.97337000","longitude":"-2.44497000"},{"name":"Luzón","latitude":"41.02691000","longitude":"-2.27691000"},{"name":"Madridejos","latitude":"39.46823000","longitude":"-3.53196000"},{"name":"Madrigueras","latitude":"39.23333000","longitude":"-1.80000000"},{"name":"Magán","latitude":"39.96138000","longitude":"-3.93164000"},{"name":"Mahora","latitude":"39.21667000","longitude":"-1.73333000"},{"name":"Majaelrayo","latitude":"41.11260000","longitude":"-3.30257000"},{"name":"Malaguilla","latitude":"40.81956000","longitude":"-3.25450000"},{"name":"Malagón","latitude":"39.16668000","longitude":"-3.85419000"},{"name":"Malpica","latitude":"39.89746000","longitude":"-4.54988000"},{"name":"Mandayona","latitude":"40.95610000","longitude":"-2.75021000"},{"name":"Mantiel","latitude":"40.61892000","longitude":"-2.66324000"},{"name":"Manzanares","latitude":"38.99915000","longitude":"-3.36991000"},{"name":"Manzaneque","latitude":"39.63549000","longitude":"-3.79249000"},{"name":"Maqueda","latitude":"40.06614000","longitude":"-4.37066000"},{"name":"Maranchón","latitude":"41.04754000","longitude":"-2.20482000"},{"name":"Marchamalo","latitude":"40.66677000","longitude":"-3.19914000"},{"name":"Mariana","latitude":"40.16717000","longitude":"-2.14601000"},{"name":"Marjaliza","latitude":"39.56329000","longitude":"-3.93499000"},{"name":"Mascaraque","latitude":"39.71643000","longitude":"-3.81254000"},{"name":"Masegosa","latitude":"40.54689000","longitude":"-2.02588000"},{"name":"Masegoso","latitude":"38.71833000","longitude":"-2.31610000"},{"name":"Masegoso de Tajuña","latitude":"40.82552000","longitude":"-2.69532000"},{"name":"Matarrubia","latitude":"40.86463000","longitude":"-3.28944000"},{"name":"Matillas","latitude":"40.94415000","longitude":"-2.83590000"},{"name":"Mazarambroz","latitude":"39.69411000","longitude":"-4.01962000"},{"name":"Mazarete","latitude":"41.00086000","longitude":"-2.15921000"},{"name":"Mazuecos","latitude":"40.26020000","longitude":"-3.00755000"},{"name":"Medranda","latitude":"40.98333000","longitude":"-2.93719000"},{"name":"Megina","latitude":"40.63911000","longitude":"-1.87041000"},{"name":"Mejorada","latitude":"40.00991000","longitude":"-4.88506000"},{"name":"Membrilla","latitude":"38.97198000","longitude":"-3.34330000"},{"name":"Membrillera","latitude":"40.94807000","longitude":"-2.97969000"},{"name":"Menasalbas","latitude":"39.63954000","longitude":"-4.28418000"},{"name":"Mestanza","latitude":"38.57616000","longitude":"-4.07096000"},{"name":"Miedes de Atienza","latitude":"41.26672000","longitude":"-2.96375000"},{"name":"Miguel Esteban","latitude":"39.52448000","longitude":"-3.07618000"},{"name":"Miguelturra","latitude":"38.96442000","longitude":"-3.89047000"},{"name":"Millana","latitude":"40.50717000","longitude":"-2.57116000"},{"name":"Milmarcos","latitude":"41.08622000","longitude":"-1.87652000"},{"name":"Minaya","latitude":"39.27052000","longitude":"-2.32176000"},{"name":"Minglanilla","latitude":"39.53333000","longitude":"-1.60000000"},{"name":"Mira","latitude":"39.71667000","longitude":"-1.43333000"},{"name":"Mirabueno","latitude":"40.94479000","longitude":"-2.72438000"},{"name":"Miralrío","latitude":"40.88901000","longitude":"-2.94340000"},{"name":"Mocejón","latitude":"39.93934000","longitude":"-3.91716000"},{"name":"Mochales","latitude":"41.09647000","longitude":"-2.01560000"},{"name":"Mohedas de la Jara","latitude":"39.60417000","longitude":"-5.14247000"},{"name":"Mohernando","latitude":"40.80129000","longitude":"-3.17234000"},{"name":"Molina de Aragón","latitude":"40.84358000","longitude":"-1.88762000"},{"name":"Molinicos","latitude":"38.46717000","longitude":"-2.23939000"},{"name":"Monasterio","latitude":"40.98547000","longitude":"-3.09711000"},{"name":"Mondéjar","latitude":"40.32095000","longitude":"-3.10686000"},{"name":"Monreal del Llano","latitude":"39.56888000","longitude":"-2.76046000"},{"name":"Montalbanejo","latitude":"39.73369000","longitude":"-2.49911000"},{"name":"Montalbo","latitude":"39.87994000","longitude":"-2.67038000"},{"name":"Montalvos","latitude":"39.16667000","longitude":"-2.01667000"},{"name":"Montarrón","latitude":"40.90675000","longitude":"-3.11495000"},{"name":"Monteagudo de las Salinas","latitude":"39.80000000","longitude":"-1.90000000"},{"name":"Montealegre del Castillo","latitude":"38.78856000","longitude":"-1.32722000"},{"name":"Montearagón","latitude":"39.96425000","longitude":"-4.63214000"},{"name":"Montesclaros","latitude":"40.10646000","longitude":"-4.93849000"},{"name":"Montiel","latitude":"38.69802000","longitude":"-2.86441000"},{"name":"Mora","latitude":"39.68492000","longitude":"-3.77394000"},{"name":"Moral de Calatrava","latitude":"38.82989000","longitude":"-3.57813000"},{"name":"Moratilla de los Meleros","latitude":"40.50182000","longitude":"-2.94276000"},{"name":"Morenilla","latitude":"40.78687000","longitude":"-1.70717000"},{"name":"Mota de Altarejos","latitude":"39.88201000","longitude":"-2.30958000"},{"name":"Mota del Cuervo","latitude":"39.50189000","longitude":"-2.86994000"},{"name":"Motilla del Palancar","latitude":"39.56667000","longitude":"-1.88333000"},{"name":"Motilleja","latitude":"39.18333000","longitude":"-1.78333000"},{"name":"Moya","latitude":"39.95000000","longitude":"-1.36667000"},{"name":"Muduex","latitude":"40.82930000","longitude":"-2.95899000"},{"name":"Munera","latitude":"39.04217000","longitude":"-2.48068000"},{"name":"Málaga del Fresno","latitude":"40.78740000","longitude":"-3.24465000"},{"name":"Méntrida","latitude":"40.23899000","longitude":"-4.19337000"},{"name":"Nambroca","latitude":"39.79771000","longitude":"-3.94434000"},{"name":"Narboneta","latitude":"39.75000000","longitude":"-1.46667000"},{"name":"Navahermosa","latitude":"39.63526000","longitude":"-4.47012000"},{"name":"Navalcán","latitude":"40.06667000","longitude":"-5.08333000"},{"name":"Navalmoralejo","latitude":"39.73929000","longitude":"-5.14359000"},{"name":"Navalpino","latitude":"39.22573000","longitude":"-4.59133000"},{"name":"Navamorcuende","latitude":"40.15659000","longitude":"-4.78625000"},{"name":"Navas de Estena","latitude":"39.49481000","longitude":"-4.52155000"},{"name":"Navas de Jorquera","latitude":"39.28333000","longitude":"-1.71667000"},{"name":"Negredo","latitude":"41.02737000","longitude":"-2.85878000"},{"name":"Nerpio","latitude":"38.14751000","longitude":"-2.30202000"},{"name":"Noblejas","latitude":"39.98061000","longitude":"-3.44001000"},{"name":"Noez","latitude":"39.74094000","longitude":"-4.18408000"},{"name":"Nombela","latitude":"40.15530000","longitude":"-4.50223000"},{"name":"Novés","latitude":"40.04746000","longitude":"-4.27471000"},{"name":"Numancia de la Sagra","latitude":"40.07395000","longitude":"-3.85118000"},{"name":"Nuño Gómez","latitude":"40.11383000","longitude":"-4.61978000"},{"name":"Ocaña","latitude":"39.95785000","longitude":"-3.49820000"},{"name":"Ocentejo","latitude":"40.77234000","longitude":"-2.39764000"},{"name":"Olivares de Júcar","latitude":"39.76101000","longitude":"-2.35589000"},{"name":"Olmeda de Cobeta","latitude":"40.85971000","longitude":"-2.18280000"},{"name":"Olmeda de la Cuesta","latitude":"40.31088000","longitude":"-2.47592000"},{"name":"Olmeda del Rey","latitude":"39.80000000","longitude":"-2.08333000"},{"name":"Olmedilla de Alarcón","latitude":"39.61667000","longitude":"-2.10000000"},{"name":"Olmedilla de Eliz","latitude":"40.30232000","longitude":"-2.41952000"},{"name":"Olías del Rey","latitude":"39.94436000","longitude":"-3.98684000"},{"name":"Ontur","latitude":"38.61509000","longitude":"-1.49724000"},{"name":"Ontígola","latitude":"40.00421000","longitude":"-3.57227000"},{"name":"Orea","latitude":"40.55725000","longitude":"-1.72738000"},{"name":"Orgaz","latitude":"39.64826000","longitude":"-3.87577000"},{"name":"Oropesa","latitude":"39.91726000","longitude":"-5.17371000"},{"name":"Osa de la Vega","latitude":"39.65977000","longitude":"-2.75998000"},{"name":"Ossa de Montiel","latitude":"38.96398000","longitude":"-2.74553000"},{"name":"Otero","latitude":"40.00096000","longitude":"-4.51539000"},{"name":"Pajaroncillo","latitude":"39.95000000","longitude":"-1.73333000"},{"name":"Pajarón","latitude":"39.95000000","longitude":"-1.78333000"},{"name":"Palomares del Campo","latitude":"39.94664000","longitude":"-2.59776000"},{"name":"Palomeque","latitude":"40.11966000","longitude":"-3.96403000"},{"name":"Pantoja","latitude":"40.04336000","longitude":"-3.83280000"},{"name":"Paracuellos","latitude":"39.71667000","longitude":"-1.78333000"},{"name":"Paredes","latitude":"40.06578000","longitude":"-2.85400000"},{"name":"Paredes de Escalona","latitude":"40.20472000","longitude":"-4.43050000"},{"name":"Paredes de Sigüenza","latitude":"41.24283000","longitude":"-2.73376000"},{"name":"Pareja","latitude":"40.55578000","longitude":"-2.64882000"},{"name":"Parrillas","latitude":"40.06225000","longitude":"-5.06390000"},{"name":"Pastrana","latitude":"40.41902000","longitude":"-2.92256000"},{"name":"Paterna del Madera","latitude":"38.59751000","longitude":"-2.34421000"},{"name":"Pedro Muñoz","latitude":"39.40285000","longitude":"-2.94664000"},{"name":"Pelahustán","latitude":"40.17599000","longitude":"-4.59842000"},{"name":"Peralejos de las Truchas","latitude":"40.59336000","longitude":"-1.90953000"},{"name":"Peralveche","latitude":"40.61078000","longitude":"-2.44957000"},{"name":"Peñalver","latitude":"40.58140000","longitude":"-2.88890000"},{"name":"Peñalén","latitude":"40.66560000","longitude":"-2.06999000"},{"name":"Peñas de San Pedro","latitude":"38.72880000","longitude":"-2.00500000"},{"name":"Picón","latitude":"39.05074000","longitude":"-4.06084000"},{"name":"Piedrabuena","latitude":"39.03536000","longitude":"-4.17512000"},{"name":"Pinarejo","latitude":"39.61639000","longitude":"-2.42592000"},{"name":"Pineda de Gigüela","latitude":"40.08546000","longitude":"-2.54368000"},{"name":"Pinilla de Jadraque","latitude":"41.01988000","longitude":"-2.94254000"},{"name":"Pinilla de Molina","latitude":"40.67969000","longitude":"-1.88034000"},{"name":"Pioz","latitude":"40.46153000","longitude":"-3.17234000"},{"name":"Piqueras","latitude":"40.66367000","longitude":"-1.72202000"},{"name":"Piqueras del Castillo","latitude":"39.71667000","longitude":"-2.06667000"},{"name":"Poblete","latitude":"38.93550000","longitude":"-3.98137000"},{"name":"Polán","latitude":"39.78765000","longitude":"-4.16792000"},{"name":"Portilla","latitude":"40.28957000","longitude":"-2.08178000"},{"name":"Portillo de Toledo","latitude":"40.06415000","longitude":"-4.22793000"},{"name":"Porzuna","latitude":"39.14618000","longitude":"-4.15407000"},{"name":"Poveda de la Sierra","latitude":"40.64329000","longitude":"-2.02905000"},{"name":"Povedilla","latitude":"38.70022000","longitude":"-2.60212000"},{"name":"Pozo de Almoguera","latitude":"40.34030000","longitude":"-3.02638000"},{"name":"Pozo de Guadalajara","latitude":"40.49533000","longitude":"-3.18140000"},{"name":"Pozo-Cañada","latitude":"38.80333000","longitude":"-1.73532000"},{"name":"Pozoamargo","latitude":"39.36558000","longitude":"-2.19617000"},{"name":"Pozohondo","latitude":"38.72095000","longitude":"-1.91192000"},{"name":"Pozorrubio","latitude":"39.81645000","longitude":"-2.94936000"},{"name":"Pozuelo","latitude":"38.80989000","longitude":"-2.10101000"},{"name":"Pozuelo de Calatrava","latitude":"38.58333000","longitude":"-3.83333000"},{"name":"Prados Redondos","latitude":"40.78505000","longitude":"-1.79329000"},{"name":"Priego","latitude":"40.44936000","longitude":"-2.31435000"},{"name":"Province of Toledo","latitude":"39.83333000","longitude":"-4.00000000"},{"name":"Provincia de Albacete","latitude":"38.83333000","longitude":"-2.00000000"},{"name":"Provincia de Ciudad Real","latitude":"39.00000000","longitude":"-4.00000000"},{"name":"Provincia de Cuenca","latitude":"40.00000000","longitude":"-2.00000000"},{"name":"Provincia de Guadalajara","latitude":"40.83333000","longitude":"-2.50000000"},{"name":"Prádena de Atienza","latitude":"41.17245000","longitude":"-3.00728000"},{"name":"Puebla de Almenara","latitude":"39.78440000","longitude":"-2.81435000"},{"name":"Puebla de Beleña","latitude":"40.88794000","longitude":"-3.21624000"},{"name":"Puebla de Don Rodrigo","latitude":"39.08564000","longitude":"-4.61966000"},{"name":"Puebla del Príncipe","latitude":"38.56766000","longitude":"-2.92605000"},{"name":"Puebla del Salvador","latitude":"39.56667000","longitude":"-1.66667000"},{"name":"Puerto Lápice","latitude":"39.32360000","longitude":"-3.48148000"},{"name":"Puerto de San Vicente","latitude":"39.52283000","longitude":"-5.11407000"},{"name":"Puertollano","latitude":"38.68712000","longitude":"-4.10734000"},{"name":"Pulgar","latitude":"39.69383000","longitude":"-4.15233000"},{"name":"Pálmaces de Jadraque","latitude":"41.05610000","longitude":"-2.91060000"},{"name":"Pétrola","latitude":"38.82628000","longitude":"-1.55662000"},{"name":"Quer","latitude":"40.60532000","longitude":"-3.27530000"},{"name":"Quero","latitude":"39.51111000","longitude":"-3.24741000"},{"name":"Quintanar de la Orden","latitude":"39.59369000","longitude":"-3.04165000"},{"name":"Quintanar del Rey","latitude":"39.33333000","longitude":"-1.93333000"},{"name":"Quismondo","latitude":"40.10533000","longitude":"-4.32394000"},{"name":"Rada de Haro","latitude":"39.57002000","longitude":"-2.62086000"},{"name":"Rebollosa de Jadraque","latitude":"41.09040000","longitude":"-2.84201000"},{"name":"Recas","latitude":"40.05286000","longitude":"-3.99090000"},{"name":"Renera","latitude":"40.48976000","longitude":"-3.01367000"},{"name":"Retiendas","latitude":"40.96835000","longitude":"-3.27229000"},{"name":"Retuerta de Bullaque","latitude":"39.46363000","longitude":"-4.41363000"},{"name":"Reíllo","latitude":"39.90000000","longitude":"-1.86667000"},{"name":"Riba de Saelices","latitude":"40.91145000","longitude":"-2.29715000"},{"name":"Rielves","latitude":"39.96206000","longitude":"-4.19300000"},{"name":"Rillo de Gallo","latitude":"40.86635000","longitude":"-1.93740000"},{"name":"Riópar","latitude":"38.50000000","longitude":"-2.45000000"},{"name":"Robledillo de Mohernando","latitude":"40.85118000","longitude":"-3.23162000"},{"name":"Robledo","latitude":"38.75807000","longitude":"-2.45042000"},{"name":"Robledo de Corpes","latitude":"41.11838000","longitude":"-2.95000000"},{"name":"Romanillos de Atienza","latitude":"41.26667000","longitude":"-2.90000000"},{"name":"Romanones","latitude":"40.57149000","longitude":"-2.99072000"},{"name":"Rozalén del Monte","latitude":"39.99083000","longitude":"-2.80525000"},{"name":"Rueda de la Sierra","latitude":"40.91795000","longitude":"-1.85439000"},{"name":"Ruidera","latitude":"38.97775000","longitude":"-2.88321000"},{"name":"Sacecorbo","latitude":"40.83280000","longitude":"-2.41838000"},{"name":"Saceda-Trasierra","latitude":"40.15525000","longitude":"-2.85369000"},{"name":"Sacedón","latitude":"40.48076000","longitude":"-2.73337000"},{"name":"Saceruela","latitude":"38.94382000","longitude":"-4.60768000"},{"name":"Saelices","latitude":"39.92061000","longitude":"-2.80502000"},{"name":"Saelices de la Sal","latitude":"40.90723000","longitude":"-2.32325000"},{"name":"Salinas del Manzano","latitude":"40.08333000","longitude":"-1.55000000"},{"name":"Salmerón","latitude":"40.54529000","longitude":"-2.49315000"},{"name":"Salobre","latitude":"38.59297000","longitude":"-2.55038000"},{"name":"Salvacañete","latitude":"40.10000000","longitude":"-1.50000000"},{"name":"San Andrés del Congosto","latitude":"40.99775000","longitude":"-3.02423000"},{"name":"San Andrés del Rey","latitude":"40.63837000","longitude":"-2.82020000"},{"name":"San Bartolomé de las Abiertas","latitude":"39.82972000","longitude":"-4.71901000"},{"name":"San Carlos del Valle","latitude":"38.84399000","longitude":"-3.24148000"},{"name":"San Clemente","latitude":"39.40410000","longitude":"-2.42819000"},{"name":"San Lorenzo de Calatrava","latitude":"38.47681000","longitude":"-3.82605000"},{"name":"San Lorenzo de la Parrilla","latitude":"39.85129000","longitude":"-2.36079000"},{"name":"San Martín de Boniches","latitude":"39.90000000","longitude":"-1.56667000"},{"name":"San Martín de Montalbán","latitude":"39.70186000","longitude":"-4.38796000"},{"name":"San Martín de Pusa","latitude":"39.78404000","longitude":"-4.63252000"},{"name":"San Pedro","latitude":"38.82493000","longitude":"-2.18276000"},{"name":"San Pedro Palmiches","latitude":"40.42956000","longitude":"-2.40602000"},{"name":"Santa Ana de Pusa","latitude":"39.76238000","longitude":"-4.70904000"},{"name":"Santa Cruz de Moya","latitude":"39.95000000","longitude":"-1.26667000"},{"name":"Santa Cruz de Mudela","latitude":"38.64241000","longitude":"-3.46650000"},{"name":"Santa Cruz de la Zarza","latitude":"39.98104000","longitude":"-3.18787000"},{"name":"Santa Cruz de los Cáñamos","latitude":"38.63759000","longitude":"-2.86618000"},{"name":"Santa Cruz del Retamar","latitude":"40.11917000","longitude":"-4.24158000"},{"name":"Santa María del Campo Rus","latitude":"39.55942000","longitude":"-2.42306000"},{"name":"Santa María del Val","latitude":"40.50439000","longitude":"-2.04115000"},{"name":"Santa Olalla","latitude":"40.02348000","longitude":"-4.43025000"},{"name":"Santiuste","latitude":"41.08462000","longitude":"-2.80953000"},{"name":"Sartajada","latitude":"40.21320000","longitude":"-4.79427000"},{"name":"Sayatón","latitude":"40.37635000","longitude":"-2.85253000"},{"name":"Saúca","latitude":"41.03098000","longitude":"-2.52905000"},{"name":"Segurilla","latitude":"40.02386000","longitude":"-4.86418000"},{"name":"Selas","latitude":"40.95150000","longitude":"-2.10203000"},{"name":"Semillas","latitude":"41.05857000","longitude":"-3.11945000"},{"name":"Seseña","latitude":"40.10473000","longitude":"-3.69793000"},{"name":"Setiles","latitude":"40.73419000","longitude":"-1.61720000"},{"name":"Sevilleja de la Jara","latitude":"39.57488000","longitude":"-4.96387000"},{"name":"Sienes","latitude":"41.20096000","longitude":"-2.65332000"},{"name":"Sigüenza","latitude":"41.06892000","longitude":"-2.64308000"},{"name":"Sisante","latitude":"39.40849000","longitude":"-2.20173000"},{"name":"Socovos","latitude":"38.33232000","longitude":"-1.98485000"},{"name":"Socuéllamos","latitude":"39.28581000","longitude":"-2.79205000"},{"name":"Solanillos del Extremo","latitude":"40.75088000","longitude":"-2.69799000"},{"name":"Somolinos","latitude":"41.24606000","longitude":"-3.06004000"},{"name":"Sonseca","latitude":"39.67747000","longitude":"-3.97448000"},{"name":"Sotillo de las Palomas","latitude":"40.10359000","longitude":"-4.82736000"},{"name":"Sotodosos","latitude":"40.92149000","longitude":"-2.39211000"},{"name":"Talavera de la Reina","latitude":"39.96348000","longitude":"-4.83076000"},{"name":"Tamajón","latitude":"40.99914000","longitude":"-3.24743000"},{"name":"Taragudo","latitude":"40.82106000","longitude":"-3.07680000"},{"name":"Tarancón","latitude":"40.00851000","longitude":"-3.00731000"},{"name":"Taravilla","latitude":"40.69743000","longitude":"-1.96817000"},{"name":"Tarazona de la Mancha","latitude":"39.25000000","longitude":"-1.91667000"},{"name":"Tartanedo","latitude":"40.99347000","longitude":"-1.92459000"},{"name":"Tejadillos","latitude":"40.13333000","longitude":"-1.63333000"},{"name":"Tembleque","latitude":"39.69541000","longitude":"-3.50429000"},{"name":"Tendilla","latitude":"40.54379000","longitude":"-2.95782000"},{"name":"Terrinches","latitude":"38.61057000","longitude":"-2.84215000"},{"name":"Terzaga","latitude":"40.69508000","longitude":"-1.90386000"},{"name":"Tierzo","latitude":"40.74925000","longitude":"-1.93069000"},{"name":"Tinajas","latitude":"40.32547000","longitude":"-2.58228000"},{"name":"Tobarra","latitude":"38.59213000","longitude":"-1.69191000"},{"name":"Toledo","latitude":"39.85810000","longitude":"-4.02263000"},{"name":"Tomelloso","latitude":"39.15759000","longitude":"-3.02156000"},{"name":"Tordellego","latitude":"40.72165000","longitude":"-1.67036000"},{"name":"Tordelrábano","latitude":"41.21827000","longitude":"-2.75792000"},{"name":"Tordesilos","latitude":"40.67074000","longitude":"-1.59372000"},{"name":"Torija","latitude":"40.74251000","longitude":"-3.02830000"},{"name":"Torralba","latitude":"40.30253000","longitude":"-2.28546000"},{"name":"Torralba de Calatrava","latitude":"39.01785000","longitude":"-3.75105000"},{"name":"Torralba de Oropesa","latitude":"39.93384000","longitude":"-5.15404000"},{"name":"Torre de Juan Abad","latitude":"38.58417000","longitude":"-3.05994000"},{"name":"Torre del Burgo","latitude":"40.79176000","longitude":"-3.07723000"},{"name":"Torrecilla de la Jara","latitude":"39.70425000","longitude":"-4.77186000"},{"name":"Torrecuadrada de Molina","latitude":"40.74947000","longitude":"-1.80707000"},{"name":"Torrecuadradilla","latitude":"40.85364000","longitude":"-2.53215000"},{"name":"Torrejoncillo del Rey","latitude":"40.00840000","longitude":"-2.57107000"},{"name":"Torrejón del Rey","latitude":"40.64325000","longitude":"-3.33376000"},{"name":"Torremocha de Jadraque","latitude":"41.01881000","longitude":"-2.89918000"},{"name":"Torremocha del Campo","latitude":"40.97819000","longitude":"-2.61881000"},{"name":"Torremocha del Pinar","latitude":"40.88954000","longitude":"-2.04497000"},{"name":"Torremochuela","latitude":"40.76528000","longitude":"-1.84190000"},{"name":"Torrenueva","latitude":"38.63960000","longitude":"-3.36259000"},{"name":"Torrico","latitude":"39.82918000","longitude":"-5.22581000"},{"name":"Torrijos","latitude":"39.98195000","longitude":"-4.28349000"},{"name":"Torrubia","latitude":"40.96581000","longitude":"-1.90064000"},{"name":"Torrubia del Campo","latitude":"39.89749000","longitude":"-2.96133000"},{"name":"Torrubia del Castillo","latitude":"39.65852000","longitude":"-2.31171000"},{"name":"Tortuera","latitude":"40.97181000","longitude":"-1.79764000"},{"name":"Tortuero","latitude":"40.93414000","longitude":"-3.35024000"},{"name":"Totanés","latitude":"39.71057000","longitude":"-4.22655000"},{"name":"Tresjuncos","latitude":"39.70087000","longitude":"-2.75502000"},{"name":"Tribaldos","latitude":"39.97264000","longitude":"-2.89809000"},{"name":"Trijueque","latitude":"40.77426000","longitude":"-2.99253000"},{"name":"Trillo","latitude":"40.70086000","longitude":"-2.59265000"},{"name":"Turleque","latitude":"39.60138000","longitude":"-3.61404000"},{"name":"Tébar","latitude":"39.50000000","longitude":"-2.16667000"},{"name":"Tórtola de Henares","latitude":"40.70425000","longitude":"-3.12316000"},{"name":"Uceda","latitude":"40.83944000","longitude":"-3.46040000"},{"name":"Uclés","latitude":"39.97938000","longitude":"-2.86143000"},{"name":"Ugena","latitude":"40.15572000","longitude":"-3.87603000"},{"name":"Ujados","latitude":"41.23526000","longitude":"-3.00482000"},{"name":"Urda","latitude":"39.41179000","longitude":"-3.71493000"},{"name":"Utande","latitude":"40.84832000","longitude":"-2.92770000"},{"name":"Uña","latitude":"40.22410000","longitude":"-1.97788000"},{"name":"Valdarachas","latitude":"40.51710000","longitude":"-3.12652000"},{"name":"Valdearenas","latitude":"40.80939000","longitude":"-2.99218000"},{"name":"Valdeavellano","latitude":"40.66560000","longitude":"-2.96977000"},{"name":"Valdeaveruelo","latitude":"40.63473000","longitude":"-3.31367000"},{"name":"Valdeconcha","latitude":"40.45643000","longitude":"-2.87663000"},{"name":"Valdeganga","latitude":"39.13514000","longitude":"-1.67703000"},{"name":"Valdegrudas","latitude":"40.71125000","longitude":"-3.01209000"},{"name":"Valdelcubo","latitude":"41.22637000","longitude":"-2.67588000"},{"name":"Valdemanco del Esteras","latitude":"38.93858000","longitude":"-4.82920000"},{"name":"Valdemeca","latitude":"40.22367000","longitude":"-1.74358000"},{"name":"Valdemorillo de la Sierra","latitude":"40.03333000","longitude":"-1.78333000"},{"name":"Valdemoro-Sierra","latitude":"40.10000000","longitude":"-1.76667000"},{"name":"Valdeolivas","latitude":"40.50600000","longitude":"-2.44532000"},{"name":"Valdepeñas","latitude":"38.76211000","longitude":"-3.38483000"},{"name":"Valdepeñas de la Sierra","latitude":"40.90562000","longitude":"-3.38414000"},{"name":"Valderrebollo","latitude":"40.81035000","longitude":"-2.72887000"},{"name":"Valdesotos","latitude":"40.95546000","longitude":"-3.32542000"},{"name":"Valdeverdeja","latitude":"39.79635000","longitude":"-5.24544000"},{"name":"Valenzuela de Calatrava","latitude":"38.85254000","longitude":"-3.77210000"},{"name":"Valfermoso de Tajuña","latitude":"40.61902000","longitude":"-2.95407000"},{"name":"Valhermoso","latitude":"40.78590000","longitude":"-1.96121000"},{"name":"Valhermoso de la Fuente","latitude":"39.56667000","longitude":"-2.01667000"},{"name":"Valmojado","latitude":"40.20444000","longitude":"-4.09146000"},{"name":"Valsalobre","latitude":"40.61742000","longitude":"-2.09297000"},{"name":"Valtablado del Río","latitude":"40.71420000","longitude":"-2.40225000"},{"name":"Valverde de Júcar","latitude":"39.71866000","longitude":"-2.22135000"},{"name":"Valverde de los Arroyos","latitude":"41.12930000","longitude":"-3.23333000"},{"name":"Valverdejo","latitude":"39.61667000","longitude":"-2.01667000"},{"name":"Vara de Rey","latitude":"39.42595000","longitude":"-2.29404000"},{"name":"Vega del Codorno","latitude":"40.42457000","longitude":"-1.91312000"},{"name":"Velada","latitude":"39.97687000","longitude":"-4.97641000"},{"name":"Vellisca","latitude":"40.12965000","longitude":"-2.81444000"},{"name":"Ventas con Peña Aguilera","latitude":"39.61033000","longitude":"-4.23128000"},{"name":"Viana de Jadraque","latitude":"41.02577000","longitude":"-2.76966000"},{"name":"Villa de Don Fadrique","latitude":"39.61505000","longitude":"-3.21915000"},{"name":"Villa de Ves","latitude":"39.20000000","longitude":"-1.23333000"},{"name":"Villacañas","latitude":"39.62367000","longitude":"-3.33813000"},{"name":"Villaconejos de Trabaque","latitude":"40.40064000","longitude":"-2.31956000"},{"name":"Villafranca de los Caballeros","latitude":"39.42824000","longitude":"-3.36079000"},{"name":"Villagarcía del Llano","latitude":"39.31667000","longitude":"-1.83333000"},{"name":"Villagordo del Júcar","latitude":"39.30000000","longitude":"-2.06667000"},{"name":"Villahermosa","latitude":"38.75023000","longitude":"-2.87066000"},{"name":"Villalba de la Sierra","latitude":"40.23437000","longitude":"-2.08929000"},{"name":"Villalba del Rey","latitude":"40.34653000","longitude":"-2.63902000"},{"name":"Villalgordo del Marquesado","latitude":"39.68245000","longitude":"-2.50885000"},{"name":"Villalpardo","latitude":"39.46667000","longitude":"-1.63333000"},{"name":"Villamalea","latitude":"39.36667000","longitude":"-1.58333000"},{"name":"Villamanrique","latitude":"38.54636000","longitude":"-2.99729000"},{"name":"Villamayor de Calatrava","latitude":"38.78763000","longitude":"-4.13774000"},{"name":"Villamayor de Santiago","latitude":"39.73072000","longitude":"-2.92357000"},{"name":"Villamiel de Toledo","latitude":"39.96482000","longitude":"-4.12627000"},{"name":"Villaminaya","latitude":"39.71197000","longitude":"-3.87055000"},{"name":"Villamuelas","latitude":"39.81784000","longitude":"-3.73461000"},{"name":"Villanueva de Alcardete","latitude":"39.67321000","longitude":"-3.01445000"},{"name":"Villanueva de Alcorón","latitude":"40.67956000","longitude":"-2.25145000"},{"name":"Villanueva de Argecilla","latitude":"40.90257000","longitude":"-2.91431000"},{"name":"Villanueva de Bogas","latitude":"39.72347000","longitude":"-3.65743000"},{"name":"Villanueva de San Carlos","latitude":"38.62173000","longitude":"-3.90903000"},{"name":"Villanueva de la Fuente","latitude":"38.69463000","longitude":"-2.69637000"},{"name":"Villanueva de la Jara","latitude":"39.43333000","longitude":"-1.93333000"},{"name":"Villanueva de la Torre","latitude":"40.58216000","longitude":"-3.29764000"},{"name":"Villapalacios","latitude":"38.57500000","longitude":"-2.63384000"},{"name":"Villar de Cañas","latitude":"39.77860000","longitude":"-2.56428000"},{"name":"Villar de Domingo García","latitude":"40.23732000","longitude":"-2.29136000"},{"name":"Villar de Olalla","latitude":"40.01496000","longitude":"-2.19561000"},{"name":"Villar de la Encina","latitude":"39.63725000","longitude":"-2.52155000"},{"name":"Villar del Humo","latitude":"39.86667000","longitude":"-1.63333000"},{"name":"Villar del Infantado","latitude":"40.45514000","longitude":"-2.47905000"},{"name":"Villar del Pozo","latitude":"38.85010000","longitude":"-3.96405000"},{"name":"Villarejo de Fuentes","latitude":"39.78809000","longitude":"-2.69680000"},{"name":"Villarejo de Montalbán","latitude":"39.76913000","longitude":"-4.57314000"},{"name":"Villarejo de la Peñuela","latitude":"40.08745000","longitude":"-2.40996000"},{"name":"Villarejo-Periesteban","latitude":"39.87231000","longitude":"-2.44145000"},{"name":"Villares de Jadraque","latitude":"41.10169000","longitude":"-3.02558000"},{"name":"Villares del Saz","latitude":"39.84109000","longitude":"-2.50427000"},{"name":"Villarrobledo","latitude":"39.26992000","longitude":"-2.60119000"},{"name":"Villarrubia de Santiago","latitude":"39.98555000","longitude":"-3.36898000"},{"name":"Villarrubia de los Ojos","latitude":"39.22085000","longitude":"-3.60802000"},{"name":"Villarrubio","latitude":"39.94511000","longitude":"-2.89431000"},{"name":"Villarta","latitude":"39.45000000","longitude":"-1.65000000"},{"name":"Villarta de San Juan","latitude":"39.23785000","longitude":"-3.42333000"},{"name":"Villaseca de Henares","latitude":"40.96060000","longitude":"-2.79775000"},{"name":"Villaseca de Uceda","latitude":"40.81827000","longitude":"-3.34904000"},{"name":"Villaseca de la Sagra","latitude":"39.96185000","longitude":"-3.88291000"},{"name":"Villasequilla de Yepes","latitude":"39.87582000","longitude":"-3.73110000"},{"name":"Villatobas","latitude":"39.90187000","longitude":"-3.32386000"},{"name":"Villatoya","latitude":"39.33333000","longitude":"-1.30000000"},{"name":"Villavaliente","latitude":"39.12646000","longitude":"-1.45712000"},{"name":"Villaverde de Guadalimar","latitude":"38.45525000","longitude":"-2.51782000"},{"name":"Villaverde y Pasaconsol","latitude":"39.77099000","longitude":"-2.26552000"},{"name":"Villel de Mesa","latitude":"41.12616000","longitude":"-1.99072000"},{"name":"Vindel","latitude":"40.58743000","longitude":"-2.38060000"},{"name":"Viso del Marqués","latitude":"38.52208000","longitude":"-3.56348000"},{"name":"Viveros","latitude":"38.77260000","longitude":"-2.57449000"},{"name":"Viñuelas","latitude":"40.79229000","longitude":"-3.34036000"},{"name":"Yebes","latitude":"40.53162000","longitude":"-3.10782000"},{"name":"Yebra","latitude":"40.35702000","longitude":"-2.96630000"},{"name":"Yeles","latitude":"40.12035000","longitude":"-3.80487000"},{"name":"Yepes","latitude":"39.90199000","longitude":"-3.62517000"},{"name":"Yeste","latitude":"38.36852000","longitude":"-2.31756000"},{"name":"Yuncler","latitude":"40.04079000","longitude":"-3.89979000"},{"name":"Yuncos","latitude":"40.08590000","longitude":"-3.87106000"},{"name":"Yunquera de Henares","latitude":"40.75139000","longitude":"-3.16260000"},{"name":"Yélamos de Abajo","latitude":"40.63092000","longitude":"-2.85803000"},{"name":"Yélamos de Arriba","latitude":"40.64008000","longitude":"-2.84340000"},{"name":"Yémeda","latitude":"39.76667000","longitude":"-1.71667000"},{"name":"Zafra de Záncara","latitude":"39.89203000","longitude":"-2.55786000"},{"name":"Zafrilla","latitude":"40.20000000","longitude":"-1.61667000"},{"name":"Zaorejas","latitude":"40.76209000","longitude":"-2.20120000"},{"name":"Zarza de Tajo","latitude":"40.01591000","longitude":"-3.12877000"},{"name":"Zarzuela","latitude":"40.25902000","longitude":"-2.11034000"},{"name":"Zarzuela de Jadraque","latitude":"41.06838000","longitude":"-3.04436000"},{"name":"Zorita de los Canes","latitude":"40.33052000","longitude":"-2.88764000"}]