[{"name":"Amphoe Bua Chet","latitude":"14.48406000","longitude":"103.97809000"},{"name":"Amphoe Chom Phra","latitude":"15.14356000","longitude":"103.57881000"},{"name":"Amphoe Chumphon Buri","latitude":"15.37942000","longitude":"103.37095000"},{"name":"Amphoe Kap Choeng","latitude":"14.46795000","longitude":"103.58476000"},{"name":"Amphoe Khwao Sinarin","latitude":"15.00733000","longitude":"103.62064000"},{"name":"Amphoe Lamduan","latitude":"14.71907000","longitude":"103.69911000"},{"name":"Amphoe Mueang Surin","latitude":"14.88359000","longitude":"103.51272000"},{"name":"Amphoe Non Narai","latitude":"15.19111000","longitude":"103.92242000"},{"name":"Amphoe Phanom Dong Rak","latitude":"14.42745000","longitude":"103.31007000"},{"name":"Amphoe Prasat","latitude":"14.62602000","longitude":"103.41569000"},{"name":"Amphoe Rattanaburi","latitude":"15.33780000","longitude":"103.90541000"},{"name":"Amphoe Samrong Thap","latitude":"15.03980000","longitude":"103.94089000"},{"name":"Amphoe Sangkha","latitude":"14.57051000","longitude":"103.83911000"},{"name":"Amphoe Sanom","latitude":"15.17099000","longitude":"103.78475000"},{"name":"Amphoe Si Khoraphum","latitude":"14.94753000","longitude":"103.78310000"},{"name":"Amphoe Si Narong","latitude":"14.78085000","longitude":"103.88651000"},{"name":"Amphoe Tha Tum","latitude":"15.30940000","longitude":"103.65111000"},{"name":"Surin","latitude":"14.88181000","longitude":"103.49364000"}]