[{"name":"Arrondissement de Cerca La Source","latitude":"19.11667000","longitude":"-71.75000000"},{"name":"Cerca la Source","latitude":"19.16696000","longitude":"-71.79015000"},{"name":"Hinche","latitude":"19.15000000","longitude":"-72.01667000"},{"name":"Lascahobas","latitude":"18.83047000","longitude":"-71.93563000"},{"name":"Mayisad","latitude":"19.17607000","longitude":"-72.13958000"},{"name":"Mirebalais","latitude":"18.83455000","longitude":"-72.10480000"},{"name":"Thomassique","latitude":"19.08209000","longitude":"-71.83855000"},{"name":"Thomonde","latitude":"19.01730000","longitude":"-71.96235000"}]