[{"name":"Artigas Department","countryCode":"UY","fipsCode":"01","iso":"AR","latitude":"-30.61751120","longitude":"-56.95945590"},{"name":"Canelones Department","countryCode":"UY","fipsCode":"02","iso":"CA","latitude":"-34.54087170","longitude":"-55.93076000"},{"name":"Cerro Largo Department","countryCode":"UY","fipsCode":"03","iso":"CL","latitude":"-32.44110320","longitude":"-54.35217530"},{"name":"Colonia Department","countryCode":"UY","fipsCode":"04","iso":"CO","latitude":"-34.12946780","longitude":"-57.66051840"},{"name":"Durazno Department","countryCode":"UY","fipsCode":"05","iso":"DU","latitude":"-33.02324540","longitude":"-56.02846440"},{"name":"Flores Department","countryCode":"UY","fipsCode":"06","iso":"FS","latitude":"-33.57337530","longitude":"-56.89450280"},{"name":"Florida Department","countryCode":"UY","fipsCode":"07","iso":"FD","latitude":"28.03594950","longitude":"-82.45792890"},{"name":"Lavalleja Department","countryCode":"UY","fipsCode":"08","iso":"LA","latitude":"-33.92261750","longitude":"-54.97657940"},{"name":"Maldonado Department","countryCode":"UY","fipsCode":"09","iso":"MA","latitude":"-34.55979320","longitude":"-54.86285520"},{"name":"Montevideo Department","countryCode":"UY","fipsCode":"10","iso":"MO","latitude":"-34.81815870","longitude":"-56.21382560"},{"name":"Paysandú Department","countryCode":"UY","fipsCode":"11","iso":"PA","latitude":"-32.06673660","longitude":"-57.33647890"},{"name":"Rivera Department","countryCode":"UY","fipsCode":"13","iso":"RV","latitude":"-31.48174210","longitude":"-55.24357590"},{"name":"Rocha Department","countryCode":"UY","fipsCode":"14","iso":"RO","latitude":"-33.96900810","longitude":"-54.02148500"},{"name":"Río Negro Department","countryCode":"UY","fipsCode":"12","iso":"RN","latitude":"-32.76763560","longitude":"-57.42952070"},{"name":"Salto Department","countryCode":"UY","fipsCode":"15","iso":"SA","latitude":"-31.38802800","longitude":"-57.96124550"},{"name":"San José Department","countryCode":"UY","fipsCode":"16","iso":"SJ","latitude":"37.34929680","longitude":"-121.90560490"},{"name":"Soriano Department","countryCode":"UY","fipsCode":"17","iso":"SO","latitude":"-33.51027920","longitude":"-57.74981030"},{"name":"Tacuarembó Department","countryCode":"UY","fipsCode":"18","iso":"TA","latitude":"-31.72068370","longitude":"-55.98598870"},{"name":"Treinta y Tres Department","countryCode":"UY","fipsCode":"19","iso":"TT","latitude":"-33.06850860","longitude":"-54.28586270"}]