[{"name":"Dobrošte","latitude":"42.10333000","longitude":"21.07778000"},{"name":"Džepčište","latitude":"42.03287000","longitude":"20.99817000"},{"name":"Golema Rečica","latitude":"41.98803000","longitude":"20.94517000"},{"name":"Pirok","latitude":"41.91083000","longitude":"20.91056000"},{"name":"Poroj","latitude":"42.02913000","longitude":"20.99266000"},{"name":"Selce","latitude":"42.03482000","longitude":"20.94035000"},{"name":"Tetovo","latitude":"42.00973000","longitude":"20.97155000"},{"name":"Šipkovica","latitude":"42.03500000","longitude":"20.91556000"}]