[{"name":"Al Daayen","countryCode":"QA","fipsCode":"01","iso":"ZA","latitude":"25.57845590","longitude":"51.48213870"},{"name":"Al Khor","countryCode":"QA","fipsCode":"04","iso":"KH","latitude":"25.68040780","longitude":"51.49685020"},{"name":"Al Rayyan Municipality","countryCode":"QA","fipsCode":"06","iso":"RA","latitude":"25.25225510","longitude":"51.43887130"},{"name":"Al Wakrah","countryCode":"QA","fipsCode":"10","iso":"WA","latitude":"25.16593140","longitude":"51.59755240"},{"name":"Al-Shahaniya","countryCode":"QA","fipsCode":"14","iso":"SH","latitude":"25.41063860","longitude":"51.18460250"},{"name":"Doha","countryCode":"QA","fipsCode":"01","iso":"DA","latitude":"25.28544730","longitude":"51.53103980"},{"name":"Madinat ash Shamal","countryCode":"QA","fipsCode":"08","iso":"MS","latitude":"26.11827430","longitude":"51.21572650"},{"name":"Umm Salal Municipality","countryCode":"QA","fipsCode":"09","iso":"US","latitude":"25.48752420","longitude":"51.39656800"}]