[{"name":"Bel Air Rivière Sèche","latitude":"-20.25777000","longitude":"57.74976000"},{"name":"Bon Accueil","latitude":"-20.17083000","longitude":"57.65639000"},{"name":"Brisée Verdière","latitude":"-20.16389000","longitude":"57.64667000"},{"name":"Camp Ithier","latitude":"-20.21583000","longitude":"57.74556000"},{"name":"Camp de Masque","latitude":"-20.23694000","longitude":"57.66333000"},{"name":"Centre de Flacq","latitude":"-20.18972000","longitude":"57.71444000"},{"name":"Clémencia","latitude":"-20.26389000","longitude":"57.70611000"},{"name":"Ecroignard","latitude":"-20.22611000","longitude":"57.73611000"},{"name":"Grande Rivière Sud Est","latitude":"-20.28611000","longitude":"57.77583000"},{"name":"Lalmatie","latitude":"-20.18972000","longitude":"57.66111000"},{"name":"Laventure","latitude":"-20.14583000","longitude":"57.67667000"},{"name":"Mare La Chaux","latitude":"-20.19806000","longitude":"57.74944000"},{"name":"Olivia","latitude":"-20.28778000","longitude":"57.73097000"},{"name":"Poste de Flacq","latitude":"-20.16306000","longitude":"57.73056000"},{"name":"Quatre Cocos","latitude":"-20.20151000","longitude":"57.77448000"},{"name":"Quatre Soeurs","latitude":"-20.29917000","longitude":"57.77056000"},{"name":"Queen Victoria","latitude":"-20.22000000","longitude":"57.70750000"},{"name":"Saint Julien","latitude":"-20.22639000","longitude":"57.63639000"},{"name":"Sebastopol","latitude":"-20.29070000","longitude":"57.68779000"}]