[{"name":"Altunhisar","latitude":"37.99159000","longitude":"34.37334000"},{"name":"Bor","latitude":"37.89056000","longitude":"34.55889000"},{"name":"Niğde","latitude":"37.96583000","longitude":"34.67935000"},{"name":"Ulukisla","latitude":"37.54592000","longitude":"34.58737000"},{"name":"Çamardı İlçesi","latitude":"37.84157000","longitude":"34.99005000"},{"name":"Çiftlik","latitude":"38.17580000","longitude":"34.48535000"}]