[{"name":"Chanika","latitude":"-5.41667000","longitude":"38.01667000"},{"name":"Lushoto","latitude":"-4.78333000","longitude":"38.28333000"},{"name":"Magomeni","latitude":"-5.23333000","longitude":"38.11667000"},{"name":"Majengo","latitude":"-5.15000000","longitude":"38.98333000"},{"name":"Makuyuni","latitude":"-4.73333000","longitude":"38.10000000"},{"name":"Maramba","latitude":"-5.05000000","longitude":"38.61667000"},{"name":"Matui","latitude":"-4.80000000","longitude":"38.25000000"},{"name":"Mazinde","latitude":"-4.80000000","longitude":"38.21667000"},{"name":"Mlalo","latitude":"-4.93333000","longitude":"38.93333000"},{"name":"Muheza","latitude":"-5.16667000","longitude":"38.78333000"},{"name":"Mwanga","latitude":"-4.80000000","longitude":"38.20000000"},{"name":"Pangani","latitude":"-5.42526000","longitude":"38.97473000"},{"name":"Soni","latitude":"-4.85000000","longitude":"38.36667000"},{"name":"Tanga","latitude":"-5.06893000","longitude":"39.09875000"}]