[{"name":"'Adan Governorate","countryCode":"YE","fipsCode":"02","iso":"AD","latitude":"12.82574810","longitude":"44.79438040"},{"name":"'Amran Governorate","countryCode":"YE","fipsCode":"19","iso":"AM","latitude":"16.25692140","longitude":"43.94367880"},{"name":"Abyan Governorate","countryCode":"YE","fipsCode":"01","iso":"AB","latitude":"13.63434130","longitude":"46.05632120"},{"name":"Al Bayda' Governorate","countryCode":"YE","fipsCode":"20","iso":"BA","latitude":"14.35886620","longitude":"45.44980650"},{"name":"Al Hudaydah Governorate","countryCode":"YE","fipsCode":"08","iso":"HU","latitude":"15.30530720","longitude":"43.01948970"},{"name":"Al Jawf Governorate","countryCode":"YE","fipsCode":"21","iso":"JA","latitude":"16.79018190","longitude":"45.29938620"},{"name":"Al Mahrah Governorate","countryCode":"YE","fipsCode":"03","iso":"MR","latitude":"16.52384230","longitude":"51.68342750"},{"name":"Al Mahwit Governorate","countryCode":"YE","fipsCode":"10","iso":"MW","latitude":"15.39632290","longitude":"43.56069460"},{"name":"Dhamar Governorate","countryCode":"YE","fipsCode":"11","iso":"DH","latitude":"14.71953440","longitude":"44.24790150"},{"name":"Hadhramaut Governorate","countryCode":"YE","fipsCode":"04","iso":"HD","latitude":"16.93041350","longitude":"49.36531490"},{"name":"Hajjah Governorate","countryCode":"YE","fipsCode":"22","iso":"HJ","latitude":"16.11806310","longitude":"43.32946600"},{"name":"Ibb Governorate","countryCode":"YE","fipsCode":"23","iso":"IB","latitude":"14.14157170","longitude":"44.24790150"},{"name":"Lahij Governorate","countryCode":"YE","fipsCode":"24","iso":"LA","latitude":"13.14895880","longitude":"44.85054950"},{"name":"Ma'rib Governorate","countryCode":"YE","fipsCode":"14","iso":"MA","latitude":"15.51588800","longitude":"45.44980650"},{"name":"Raymah Governorate","countryCode":"YE","fipsCode":"27","iso":"RA","latitude":"14.62776820","longitude":"43.71424840"},{"name":"Saada Governorate","countryCode":"YE","fipsCode":"15","iso":"SD","latitude":"16.84765280","longitude":"43.94367880"},{"name":"Sana'a","countryCode":"YE","fipsCode":"16","iso":"SA","latitude":"15.36944510","longitude":"44.19100660"},{"name":"Sana'a Governorate","countryCode":"YE","fipsCode":"16","iso":"SN","latitude":"15.31689130","longitude":"44.47480180"},{"name":"Shabwah Governorate","countryCode":"YE","fipsCode":"05","iso":"SH","latitude":"14.75463030","longitude":"46.51626200"},{"name":"Socotra Governorate","countryCode":"YE","fipsCode":"28","iso":"SU","latitude":"12.46342050","longitude":"53.82373850"},{"name":"Ta'izz Governorate","countryCode":"YE","fipsCode":"25","iso":"TA","latitude":"13.57758860","longitude":"44.01779890"}]