[{"name":"Alexandru I. Cuza","latitude":"47.13333000","longitude":"26.85000000"},{"name":"Andrieşeni","latitude":"47.53333000","longitude":"27.28333000"},{"name":"Aroneanu","latitude":"47.20000000","longitude":"27.60000000"},{"name":"Balș","latitude":"47.29628000","longitude":"26.97856000"},{"name":"Belceşti","latitude":"47.30000000","longitude":"27.08333000"},{"name":"Bivolari","latitude":"47.53333000","longitude":"27.43333000"},{"name":"Bohotin","latitude":"46.93914000","longitude":"27.97782000"},{"name":"Borosoaia","latitude":"47.46300000","longitude":"27.09862000"},{"name":"Bosia","latitude":"47.21696000","longitude":"27.76707000"},{"name":"Boureni","latitude":"47.26497000","longitude":"26.97672000"},{"name":"Breazu","latitude":"47.21343000","longitude":"27.51815000"},{"name":"Brădicești","latitude":"46.84810000","longitude":"27.90270000"},{"name":"Brăeşti","latitude":"47.15000000","longitude":"27.10000000"},{"name":"Brătești","latitude":"47.19135000","longitude":"26.68580000"},{"name":"Buda","latitude":"47.40318000","longitude":"26.67835000"},{"name":"Budăi","latitude":"47.21773000","longitude":"27.22282000"},{"name":"Buhalnița","latitude":"47.37892000","longitude":"26.91547000"},{"name":"Butea","latitude":"47.06667000","longitude":"26.91667000"},{"name":"Buznea","latitude":"47.19515000","longitude":"27.01572000"},{"name":"Bârnova","latitude":"47.06667000","longitude":"27.61667000"},{"name":"Bădeni","latitude":"47.40581000","longitude":"26.94898000"},{"name":"Bălţaţi","latitude":"47.21667000","longitude":"27.15000000"},{"name":"Cepleniţa","latitude":"47.38333000","longitude":"27.01667000"},{"name":"Chișcăreni","latitude":"47.46974000","longitude":"27.19626000"},{"name":"Ciohorăni","latitude":"47.13520000","longitude":"26.68955000"},{"name":"Ciorteşti","latitude":"46.90000000","longitude":"27.83333000"},{"name":"Ciurea","latitude":"47.05000000","longitude":"27.56667000"},{"name":"Coarnele Caprei","latitude":"47.38333000","longitude":"27.10000000"},{"name":"Cogeasca","latitude":"47.16644000","longitude":"27.38537000"},{"name":"Comarna","latitude":"47.05000000","longitude":"27.78333000"},{"name":"Comuna Alexandru I. Cuza","latitude":"47.14424000","longitude":"26.85449000"},{"name":"Comuna Andrieşeni","latitude":"47.51112000","longitude":"27.29502000"},{"name":"Comuna Aroneanu","latitude":"47.21584000","longitude":"27.60632000"},{"name":"Comuna Balş","latitude":"47.29219000","longitude":"26.96028000"},{"name":"Comuna Belceşti","latitude":"47.30581000","longitude":"27.08747000"},{"name":"Comuna Bivolari","latitude":"47.52988000","longitude":"27.42726000"},{"name":"Comuna Brăeşti","latitude":"47.16318000","longitude":"27.09031000"},{"name":"Comuna Butea","latitude":"47.08386000","longitude":"26.93552000"},{"name":"Comuna Bârnova","latitude":"47.08669000","longitude":"27.62635000"},{"name":"Comuna Bălţaţi","latitude":"47.23366000","longitude":"27.11866000"},{"name":"Comuna Cepleniţa","latitude":"47.37581000","longitude":"26.92597000"},{"name":"Comuna Ciohorãni","latitude":"47.13520000","longitude":"26.68955000"},{"name":"Comuna Ciorteşti","latitude":"46.91766000","longitude":"27.84749000"},{"name":"Comuna Ciurea","latitude":"47.06150000","longitude":"27.57572000"},{"name":"Comuna Coarnele Caprei","latitude":"47.40195000","longitude":"27.09699000"},{"name":"Comuna Comarna","latitude":"47.07004000","longitude":"27.78668000"},{"name":"Comuna Costeşti","latitude":"47.24224000","longitude":"26.91751000"},{"name":"Comuna Costuleni","latitude":"47.01055000","longitude":"27.85829000"},{"name":"Comuna Cotnari","latitude":"47.35813000","longitude":"26.91687000"},{"name":"Comuna Cozmeşti","latitude":"46.86032000","longitude":"28.01297000"},{"name":"Comuna Cristeşti","latitude":"47.27821000","longitude":"26.58525000"},{"name":"Comuna Cucuteni","latitude":"47.27587000","longitude":"26.92807000"},{"name":"Comuna Dagâţa","latitude":"46.94469000","longitude":"27.19147000"},{"name":"Comuna Deleni","latitude":"47.47458000","longitude":"26.89451000"},{"name":"Comuna Dobrovăţ","latitude":"46.96335000","longitude":"27.72245000"},{"name":"Comuna Dolheşti","latitude":"46.86958000","longitude":"27.90652000"},{"name":"Comuna Drăguşeni","latitude":"46.89432000","longitude":"27.49491000"},{"name":"Comuna Dumeşti","latitude":"47.17668000","longitude":"27.33470000"},{"name":"Comuna Erbiceni","latitude":"47.25219000","longitude":"27.24756000"},{"name":"Comuna Focuri","latitude":"47.35113000","longitude":"27.20200000"},{"name":"Comuna Fântânele","latitude":"47.41498000","longitude":"27.18066000"},{"name":"Comuna Golãieşti","latitude":"47.26355000","longitude":"27.69515000"},{"name":"Comuna Gorban","latitude":"46.90059000","longitude":"28.07017000"},{"name":"Comuna Grajduri","latitude":"46.97069000","longitude":"27.55569000"},{"name":"Comuna Gropniţa","latitude":"47.36874000","longitude":"27.26376000"},{"name":"Comuna Grozeşti","latitude":"47.01001000","longitude":"28.02507000"},{"name":"Comuna Heleşteni","latitude":"47.19295000","longitude":"26.88060000"},{"name":"Comuna Holboca","latitude":"47.17512000","longitude":"27.68235000"},{"name":"Comuna Horleşti","latitude":"47.11718000","longitude":"27.40856000"},{"name":"Comuna Hălăuceşti","latitude":"47.10593000","longitude":"26.80967000"},{"name":"Comuna Hărmăneşti","latitude":"47.27087000","longitude":"26.81322000"},{"name":"Comuna Ion Neculce","latitude":"47.20159000","longitude":"27.03221000"},{"name":"Comuna Ipatele","latitude":"46.90390000","longitude":"27.43762000"},{"name":"Comuna Lespezi","latitude":"47.34957000","longitude":"26.68807000"},{"name":"Comuna Leţcani","latitude":"47.18012000","longitude":"27.41296000"},{"name":"Comuna Lungani","latitude":"47.17564000","longitude":"27.15749000"},{"name":"Comuna Mirceşti","latitude":"47.05486000","longitude":"26.83945000"},{"name":"Comuna Mironeasa","latitude":"46.99869000","longitude":"27.42519000"},{"name":"Comuna Miroslava","latitude":"47.13047000","longitude":"27.51039000"},{"name":"Comuna Mirosloveşti","latitude":"47.13966000","longitude":"26.64648000"},{"name":"Comuna Mogoşeşti","latitude":"47.04200000","longitude":"27.48492000"},{"name":"Comuna Mogoşeşti-Siret","latitude":"47.13190000","longitude":"26.77101000"},{"name":"Comuna Movileni","latitude":"47.32032000","longitude":"27.38016000"},{"name":"Comuna Moşna","latitude":"46.92189000","longitude":"27.95956000"},{"name":"Comuna Moţca","latitude":"47.22407000","longitude":"26.61632000"},{"name":"Comuna Mădârjac","latitude":"47.04094000","longitude":"27.27716000"},{"name":"Comuna Oţeleni","latitude":"47.08566000","longitude":"27.02730000"},{"name":"Comuna Plugari","latitude":"47.47732000","longitude":"27.11577000"},{"name":"Comuna Popeşti","latitude":"47.13704000","longitude":"27.26169000"},{"name":"Comuna Popricani","latitude":"47.26750000","longitude":"27.52729000"},{"name":"Comuna Prisăcani","latitude":"47.07015000","longitude":"27.90795000"},{"name":"Comuna Probota","latitude":"47.38792000","longitude":"27.49446000"},{"name":"Comuna Rediu-Tătar","latitude":"47.23169000","longitude":"27.48747000"},{"name":"Comuna Româneşti","latitude":"47.27171000","longitude":"27.35819000"},{"name":"Comuna Roşcani","latitude":"47.44259000","longitude":"27.41778000"},{"name":"Comuna Ruginoasa","latitude":"47.25259000","longitude":"26.85589000"},{"name":"Comuna Răchiţeni","latitude":"47.05163000","longitude":"26.90504000"},{"name":"Comuna Răducăneni","latitude":"46.95541000","longitude":"27.97344000"},{"name":"Comuna Scheia","latitude":"46.93950000","longitude":"27.49765000"},{"name":"Comuna Schitu-Duca","latitude":"47.00255000","longitude":"27.76703000"},{"name":"Comuna Scobinţi","latitude":"47.40529000","longitude":"26.89850000"},{"name":"Comuna Scânteia","latitude":"46.92408000","longitude":"27.58855000"},{"name":"Comuna Sineşti","latitude":"47.12117000","longitude":"27.18745000"},{"name":"Comuna Sireţel","latitude":"47.41840000","longitude":"26.73381000"},{"name":"Comuna Stolniceni-Prăjescu","latitude":"47.18563000","longitude":"26.73525000"},{"name":"Comuna Strunga","latitude":"47.16021000","longitude":"26.94400000"},{"name":"Comuna Tansa","latitude":"46.90812000","longitude":"27.24808000"},{"name":"Comuna Todireşti","latitude":"47.32137000","longitude":"26.87743000"},{"name":"Comuna Tomeşti","latitude":"47.11704000","longitude":"27.70476000"},{"name":"Comuna Trifeşti","latitude":"47.44992000","longitude":"27.53175000"},{"name":"Comuna Tătăruşi","latitude":"47.34254000","longitude":"26.58590000"},{"name":"Comuna Ungheni","latitude":"47.20176000","longitude":"27.74664000"},{"name":"Comuna Valea Lupului","latitude":"47.17920000","longitude":"27.49965000"},{"name":"Comuna Valea Seacă","latitude":"47.28840000","longitude":"26.66455000"},{"name":"Comuna Victoria","latitude":"47.30749000","longitude":"27.60170000"},{"name":"Comuna Vlădeni","latitude":"47.43756000","longitude":"27.33560000"},{"name":"Comuna Voineşti","latitude":"47.07509000","longitude":"27.42151000"},{"name":"Comuna Vânãtori","latitude":"47.33379000","longitude":"26.76404000"},{"name":"Comuna Şipote","latitude":"47.46038000","longitude":"27.22592000"},{"name":"Comuna Ţibana","latitude":"46.98685000","longitude":"27.32607000"},{"name":"Comuna Ţibăneşti","latitude":"46.91757000","longitude":"27.33547000"},{"name":"Comuna Ţigănaşi","latitude":"47.34867000","longitude":"27.45588000"},{"name":"Comuna Ţuţora","latitude":"47.12578000","longitude":"27.79866000"},{"name":"Conțești","latitude":"47.30960000","longitude":"26.65605000"},{"name":"Coropceni","latitude":"46.94193000","longitude":"27.83710000"},{"name":"Costești","latitude":"47.23428000","longitude":"26.92622000"},{"name":"Costuleni","latitude":"47.03333000","longitude":"27.85000000"},{"name":"Cotnari","latitude":"47.35000000","longitude":"26.98333000"},{"name":"Covasna","latitude":"47.00255000","longitude":"27.85106000"},{"name":"Cozia","latitude":"47.00319000","longitude":"27.89434000"},{"name":"Cozmeşti","latitude":"46.88333000","longitude":"27.98333000"},{"name":"Cristeşti","latitude":"47.26667000","longitude":"26.56667000"},{"name":"Crivești","latitude":"47.32430000","longitude":"26.78240000"},{"name":"Crucea","latitude":"47.16567000","longitude":"27.17093000"},{"name":"Cucuteni","latitude":"47.28333000","longitude":"26.93333000"},{"name":"Cârjoaia","latitude":"47.34032000","longitude":"26.90863000"},{"name":"Cârniceni","latitude":"47.33942000","longitude":"27.50508000"},{"name":"Dagâţa","latitude":"46.93333000","longitude":"27.18333000"},{"name":"Dancu","latitude":"47.15417000","longitude":"27.66623000"},{"name":"Deleni","latitude":"47.46667000","longitude":"26.88333000"},{"name":"Dobrovăţ","latitude":"46.95000000","longitude":"27.70000000"},{"name":"Dolheşti","latitude":"46.86667000","longitude":"27.90000000"},{"name":"Domnița","latitude":"47.02091000","longitude":"27.33500000"},{"name":"Drăgușeni","latitude":"46.90116000","longitude":"27.51260000"},{"name":"Dumbrava","latitude":"47.07578000","longitude":"27.55174000"},{"name":"Dumbrăvița","latitude":"47.25483000","longitude":"26.84169000"},{"name":"Dumeşti","latitude":"47.18333000","longitude":"27.35000000"},{"name":"Erbiceni","latitude":"47.26667000","longitude":"27.23333000"},{"name":"Fetești","latitude":"47.40932000","longitude":"26.90885000"},{"name":"Focuri","latitude":"47.35000000","longitude":"27.21667000"},{"name":"Fântânele","latitude":"47.41498000","longitude":"27.18066000"},{"name":"Fărcășeni","latitude":"47.15987000","longitude":"26.89615000"},{"name":"Glodenii Gândului","latitude":"46.95158000","longitude":"27.29938000"},{"name":"Goești","latitude":"47.15654000","longitude":"27.13659000"},{"name":"Golăiești","latitude":"47.23333000","longitude":"27.70000000"},{"name":"Gorban","latitude":"46.87611000","longitude":"28.07889000"},{"name":"Goruni","latitude":"47.10389000","longitude":"27.71854000"},{"name":"Grajduri","latitude":"46.96667000","longitude":"27.51667000"},{"name":"Gropniţa","latitude":"47.35000000","longitude":"27.25000000"},{"name":"Grozeşti","latitude":"46.99083000","longitude":"28.05056000"},{"name":"Gârbești","latitude":"46.98333000","longitude":"27.30000000"},{"name":"Heci","latitude":"47.34325000","longitude":"26.66226000"},{"name":"Heleșteni","latitude":"47.20303000","longitude":"26.87755000"},{"name":"Hodora","latitude":"47.33712000","longitude":"27.01970000"},{"name":"Holboca","latitude":"47.15000000","longitude":"27.70000000"},{"name":"Horleşti","latitude":"47.11667000","longitude":"27.36667000"},{"name":"Hârlău","latitude":"47.43333000","longitude":"26.90000000"},{"name":"Hârtoape","latitude":"47.32164000","longitude":"26.72459000"},{"name":"Hălăuceşti","latitude":"47.10000000","longitude":"26.80000000"},{"name":"Hărmăneasa","latitude":"47.20000000","longitude":"26.86667000"},{"name":"Hărmăneștii Vechi","latitude":"47.27732000","longitude":"26.81394000"},{"name":"Iazu Nou","latitude":"47.48272000","longitude":"27.20913000"},{"name":"Iaşi","latitude":"47.16667000","longitude":"27.60000000"},{"name":"Ion Neculce","latitude":"47.20344000","longitude":"27.05268000"},{"name":"Ipatele","latitude":"46.91667000","longitude":"27.41667000"},{"name":"Iugani","latitude":"47.04431000","longitude":"26.82891000"},{"name":"Izvoarele","latitude":"47.04241000","longitude":"26.90230000"},{"name":"Lespezi","latitude":"47.36667000","longitude":"26.70000000"},{"name":"Leţcani","latitude":"47.18333000","longitude":"27.41667000"},{"name":"Liteni","latitude":"47.30169000","longitude":"27.03837000"},{"name":"Lunca","latitude":"47.28144000","longitude":"26.73708000"},{"name":"Lunca Cetățuii","latitude":"47.09660000","longitude":"27.56319000"},{"name":"Lungani","latitude":"47.18333000","longitude":"27.15000000"},{"name":"Maxut","latitude":"47.44040000","longitude":"26.89204000"},{"name":"Mirceşti","latitude":"47.08333000","longitude":"26.83333000"},{"name":"Mironeasa","latitude":"46.96667000","longitude":"27.41667000"},{"name":"Miroslava","latitude":"47.15000000","longitude":"27.51667000"},{"name":"Miroslovești","latitude":"47.15000000","longitude":"26.65000000"},{"name":"Mogoşeşti","latitude":"47.03333000","longitude":"27.53333000"},{"name":"Mogoşeşti-Siret","latitude":"47.13333000","longitude":"26.78333000"},{"name":"Movileni","latitude":"47.31667000","longitude":"27.35000000"},{"name":"Moşna","latitude":"46.91667000","longitude":"27.95000000"},{"name":"Moţca","latitude":"47.25000000","longitude":"26.61667000"},{"name":"Muncelu de Sus","latitude":"47.12384000","longitude":"26.73518000"},{"name":"Municipiul Iaşi","latitude":"47.16184000","longitude":"27.58451000"},{"name":"Municipiul Paşcani","latitude":"47.24736000","longitude":"26.71235000"},{"name":"Munteni","latitude":"47.31530000","longitude":"27.13839000"},{"name":"Mădârjac","latitude":"47.04994000","longitude":"27.26182000"},{"name":"Mănăstirea","latitude":"46.95000000","longitude":"27.20000000"},{"name":"Oraş Hârlãu","latitude":"47.43153000","longitude":"26.87774000"},{"name":"Oraş Podu Iloaiei","latitude":"47.20807000","longitude":"27.26548000"},{"name":"Oraş Târgu Frumos","latitude":"47.20788000","longitude":"27.01196000"},{"name":"Osoi","latitude":"47.09479000","longitude":"27.80091000"},{"name":"Oţeleni","latitude":"47.08333000","longitude":"27.03333000"},{"name":"Paşcani","latitude":"47.24690000","longitude":"26.72291000"},{"name":"Perieni","latitude":"47.38469000","longitude":"27.47453000"},{"name":"Pietrosu","latitude":"47.34118000","longitude":"26.60817000"},{"name":"Plugari","latitude":"47.48333000","longitude":"27.10000000"},{"name":"Podolenii de Sus","latitude":"46.85716000","longitude":"28.01545000"},{"name":"Podu Iloaiei","latitude":"47.21667000","longitude":"27.26667000"},{"name":"Poiana","latitude":"47.49299000","longitude":"26.86387000"},{"name":"Poiana Mărului","latitude":"47.37951000","longitude":"26.89243000"},{"name":"Poienile","latitude":"46.93333000","longitude":"27.18333000"},{"name":"Popeşti","latitude":"47.15000000","longitude":"27.23333000"},{"name":"Popricani","latitude":"47.30000000","longitude":"27.51667000"},{"name":"Prisăcani","latitude":"47.08333000","longitude":"27.88333000"},{"name":"Probota","latitude":"47.38333000","longitude":"27.50000000"},{"name":"Pârcovaci","latitude":"47.43586000","longitude":"26.85075000"},{"name":"Păușești","latitude":"47.15810000","longitude":"27.32594000"},{"name":"Rediu","latitude":"47.21667000","longitude":"27.50000000"},{"name":"Româneşti","latitude":"47.28333000","longitude":"27.31667000"},{"name":"Roșcani","latitude":"47.45581000","longitude":"27.40021000"},{"name":"Ruginoasa","latitude":"47.25000000","longitude":"26.85000000"},{"name":"Răchiteni","latitude":"47.05347000","longitude":"26.91730000"},{"name":"Răducăneni","latitude":"46.95000000","longitude":"27.93333000"},{"name":"Războieni","latitude":"47.21754000","longitude":"27.05039000"},{"name":"Satu Nou","latitude":"47.32147000","longitude":"27.09555000"},{"name":"Scheia","latitude":"47.11725000","longitude":"26.88153000"},{"name":"Schitu-Duca","latitude":"47.03333000","longitude":"27.76667000"},{"name":"Scobinţi","latitude":"47.38333000","longitude":"26.93333000"},{"name":"Scânteia","latitude":"46.91667000","longitude":"27.56667000"},{"name":"Sineşti","latitude":"47.11667000","longitude":"27.18333000"},{"name":"Sireţel","latitude":"47.40000000","longitude":"26.73333000"},{"name":"Slobozia","latitude":"47.05758000","longitude":"27.41446000"},{"name":"Soci","latitude":"47.18573000","longitude":"26.64446000"},{"name":"Sodomeni","latitude":"47.22233000","longitude":"26.68805000"},{"name":"Sticlăria","latitude":"47.40115000","longitude":"26.83797000"},{"name":"Stolniceni-Prăjescu","latitude":"47.19858000","longitude":"26.74810000"},{"name":"Stornești","latitude":"47.11667000","longitude":"27.18333000"},{"name":"Strunga","latitude":"47.16667000","longitude":"26.98333000"},{"name":"Suhuleț","latitude":"46.90368000","longitude":"27.25849000"},{"name":"Târgu Frumos","latitude":"47.20000000","longitude":"27.00000000"},{"name":"Tătăruşi","latitude":"47.35000000","longitude":"26.60000000"},{"name":"Uda","latitude":"47.33645000","longitude":"26.57165000"},{"name":"Valea Lupului","latitude":"47.17920000","longitude":"27.49965000"},{"name":"Valea Seacă","latitude":"47.29219000","longitude":"26.66876000"},{"name":"Verșeni","latitude":"47.11294000","longitude":"26.64341000"},{"name":"Victoria","latitude":"47.28333000","longitude":"27.58333000"},{"name":"Vlădeni","latitude":"47.41667000","longitude":"27.33333000"},{"name":"Voineşti","latitude":"47.06667000","longitude":"27.41667000"},{"name":"Vânători","latitude":"47.23333000","longitude":"27.53333000"},{"name":"Zagavia","latitude":"47.41911000","longitude":"26.89790000"},{"name":"Zmeu","latitude":"47.19161000","longitude":"27.17917000"},{"name":"Şipote","latitude":"47.46667000","longitude":"27.21667000"},{"name":"Ţibana","latitude":"46.98333000","longitude":"27.33333000"},{"name":"Ţibăneşti","latitude":"46.91667000","longitude":"27.33333000"},{"name":"Ţigănaşi","latitude":"47.33333000","longitude":"27.46667000"},{"name":"Ţuţora","latitude":"47.13333000","longitude":"27.78333000"},{"name":"Tabăra","latitude":"47.57395000","longitude":"27.41213000"},{"name":"Tansa","latitude":"46.91667000","longitude":"27.23333000"},{"name":"Todireşti","latitude":"47.31667000","longitude":"26.83333000"},{"name":"Tomeşti","latitude":"47.11667000","longitude":"27.68333000"},{"name":"Topile","latitude":"47.26340000","longitude":"26.66883000"},{"name":"Totoești","latitude":"47.25107000","longitude":"27.28879000"},{"name":"Trifeşti","latitude":"47.45000000","longitude":"27.51667000"}]