[{"name":"Ab Meshkin","latitude":"35.61305556","longitude":"48.26916667"},{"name":"Abarlaq-e Sofla","latitude":"34.67138889","longitude":"48.22833333"},{"name":"Abdalan","latitude":"34.65277778","longitude":"48.24555556"},{"name":"Abdol Rahim","latitude":"34.62638889","longitude":"49.01750000"},{"name":"Abrumand","latitude":"34.90277778","longitude":"48.32027778"},{"name":"Abshineh","latitude":"34.78194400","longitude":"48.61472200"},{"name":"Abu ol Fathabad","latitude":"34.05666667","longitude":"48.50916667"},{"name":"Aghcheh Qayah","latitude":"35.35000000","longitude":"48.34250000"},{"name":"Ahmadabad-e Tappeh","latitude":"34.61277778","longitude":"48.99277778"},{"name":"Ahu Tappeh","latitude":"34.93777778","longitude":"48.00111111"},{"name":"Ajin","latitude":"34.73611111","longitude":"47.92416667"},{"name":"Ajorlu","latitude":"35.13833333","longitude":"49.22944444"},{"name":"Akanlu","latitude":"35.61416667","longitude":"48.18805556"},{"name":"Akleh","latitude":"35.20277778","longitude":"49.08250000"},{"name":"Alan-e Sofla","latitude":"35.28416667","longitude":"48.21583333"},{"name":"Alanjeh","latitude":"34.75083333","longitude":"47.95972222"},{"name":"Alfavut","latitude":"34.64000000","longitude":"48.74972222"},{"name":"Aliabad-e Posht Shahr","latitude":"34.83777778","longitude":"48.51111111"},{"name":"Amirabad-e Kord","latitude":"34.97611111","longitude":"49.09166667"},{"name":"Amzajerd","latitude":"34.93666667","longitude":"48.53250000"},{"name":"Angoshteh","latitude":"34.09138900","longitude":"48.54000000"},{"name":"Anjir Baghi","latitude":"35.19250000","longitude":"48.53166667"},{"name":"Ansar ol Emam","latitude":"34.85861111","longitude":"48.49083333"},{"name":"Anuch","latitude":"34.10805600","longitude":"48.57333300"},{"name":"Aq Bolagh-e Aqdaq","latitude":"35.61166667","longitude":"48.44138889"},{"name":"Aq Bolagh-e Latgah","latitude":"34.98444400","longitude":"48.55527800"},{"name":"Aq Bolagh-e Morshed","latitude":"35.61777778","longitude":"48.02972222"},{"name":"Aq Chay","latitude":"35.47916667","longitude":"49.10388889"},{"name":"Aqa Bolaghi","latitude":"35.36694444","longitude":"48.24361111"},{"name":"Aqa Jan Bolaghi","latitude":"34.84583333","longitude":"48.05305556"},{"name":"Aqaj","latitude":"34.95583333","longitude":"49.32416667"},{"name":"Aqcheh Kharabeh","latitude":"35.71361111","longitude":"48.77638889"},{"name":"Aqchelu","latitude":"35.13138889","longitude":"48.49166667"},{"name":"Arges-e Sofla","latitude":"34.07388889","longitude":"48.86388889"},{"name":"Arikan","latitude":"34.53222222","longitude":"48.36055556"},{"name":"Arpa Darreh","latitude":"35.69138889","longitude":"48.80500000"},{"name":"Arteh Bolagh","latitude":"34.32638889","longitude":"48.54916667"},{"name":"Artiman","latitude":"34.57944400","longitude":"48.44777800"},{"name":"Arzan Fud","latitude":"34.65527778","longitude":"48.65416667"},{"name":"Arzuvaj","latitude":"34.65444444","longitude":"48.37305556"},{"name":"Asadabad","latitude":"34.78222222","longitude":"48.11833333"},{"name":"Ashmizan","latitude":"34.10361111","longitude":"48.88444444"},{"name":"Avarzaman","latitude":"34.26638889","longitude":"48.51222222"},{"name":"Azandarian","latitude":"34.50888889","longitude":"48.68666667"},{"name":"Aznahri","latitude":"34.23750000","longitude":"48.14833333"},{"name":"Baba Khanjar","latitude":"35.55166667","longitude":"48.54972222"},{"name":"Baba Pir","latitude":"34.61416667","longitude":"48.40194444"},{"name":"Baba Qasem","latitude":"34.08000000","longitude":"48.44805556"},{"name":"Babolqani","latitude":"34.24277778","longitude":"49.05750000"},{"name":"Bad Khvoreh","latitude":"34.74305556","longitude":"48.08027778"},{"name":"Bahar","latitude":"34.90694444","longitude":"48.44138889"},{"name":"Band Aman","latitude":"34.22388889","longitude":"48.22861111"},{"name":"Banesareh","latitude":"34.23750000","longitude":"48.43333333"},{"name":"Baraband","latitude":"34.75194444","longitude":"48.79861111"},{"name":"Bargecheh","latitude":"34.45138900","longitude":"48.30111100"},{"name":"Barreh Farakh","latitude":"34.38555556","longitude":"48.08638889"},{"name":"Barzul","latitude":"34.21277778","longitude":"48.25888889"},{"name":"Bashqurtaran","latitude":"35.63722222","longitude":"48.11694444"},{"name":"Bazeran","latitude":"35.15611111","longitude":"49.42305556"},{"name":"Behkandan","latitude":"35.27222222","longitude":"49.09888889"},{"name":"Belartu","latitude":"34.33555556","longitude":"48.51583333"},{"name":"Beshik Tappeh","latitude":"35.53611111","longitude":"48.41805556"},{"name":"Biaj","latitude":"34.81500000","longitude":"48.09916667"},{"name":"Biatan-e Sofla","latitude":"34.02527778","longitude":"48.95805556"},{"name":"Bid Korpeh-ye Sofla","latitude":"34.02111111","longitude":"48.89166667"},{"name":"Bid Korpeh-ye Vosta","latitude":"34.01944444","longitude":"48.88722222"},{"name":"Bifanaj","latitude":"34.61472222","longitude":"48.01694444"},{"name":"Bighash","latitude":"34.09111111","longitude":"49.06833333"},{"name":"Bish Aghaj","latitude":"34.46111111","longitude":"48.78583333"},{"name":"Bitervan","latitude":"34.65444444","longitude":"47.91055556"},{"name":"Borjaki","latitude":"34.32861111","longitude":"48.03305556"},{"name":"Boyukabad","latitude":"35.05972222","longitude":"48.84166667"},{"name":"Bozchalu","latitude":"35.16888889","longitude":"49.22444444"},{"name":"Bozineh Jerd","latitude":"35.02472222","longitude":"48.94388889"},{"name":"Bujin","latitude":"34.80722222","longitude":"48.05916667"},{"name":"Bustandar","latitude":"34.44861111","longitude":"48.41944444"},{"name":"Buyaqchi","latitude":"34.84750000","longitude":"49.08916667"},{"name":"Chahar Bolagh","latitude":"35.58111111","longitude":"48.65000000"},{"name":"Chal Boqa","latitude":"35.42055556","longitude":"48.92750000"},{"name":"Chaleh Kand","latitude":"35.27500000","longitude":"48.29944444"},{"name":"Charoq","latitude":"34.84416667","longitude":"48.06611111"},{"name":"Chasht Khvoreh","latitude":"34.46444444","longitude":"48.26694444"},{"name":"Chenari","latitude":"34.23194444","longitude":"48.17611111"},{"name":"Cheshmeh Malek","latitude":"34.75500000","longitude":"48.49305556"},{"name":"Cheshmeh Pahn-e Nanaj","latitude":"34.45888889","longitude":"48.76750000"},{"name":"Cheshmeh Qandab","latitude":"34.62694444","longitude":"48.09111111"},{"name":"Cheshmeh Qareh","latitude":"34.90611111","longitude":"47.87111111"},{"name":"Cheshmeh Qassaban","latitude":"34.85777778","longitude":"48.41888889"},{"name":"Cheshmeh Valad","latitude":"34.87805556","longitude":"47.98388889"},{"name":"Cheshmeh Zowraq","latitude":"34.06611111","longitude":"49.10083333"},{"name":"Choqa Sarahi","latitude":"34.31527778","longitude":"48.04888889"},{"name":"Chowtash","latitude":"34.83694444","longitude":"48.25194444"},{"name":"Chulak Qapanuri","latitude":"34.23472222","longitude":"48.30000000"},{"name":"Dahnejerd","latitude":"34.96750000","longitude":"48.50055600"},{"name":"Dali Chu","latitude":"35.52138889","longitude":"48.02027778"},{"name":"Damaq","latitude":"35.44277778","longitude":"48.82305556"},{"name":"Daqdaqabad","latitude":"35.18277778","longitude":"48.78833333"},{"name":"Dar Qeshlaq","latitude":"35.49222222","longitude":"48.05583333"},{"name":"Darani-ye Sofla","latitude":"34.49888889","longitude":"48.41222222"},{"name":"Darcham","latitude":"34.26027778","longitude":"48.82083333"},{"name":"Darreh Chenar","latitude":"34.09944444","longitude":"48.80305556"},{"name":"Darreh Mianeh-ye Sofla","latitude":"34.07277778","longitude":"48.83527778"},{"name":"Darreh Mirza","latitude":"34.37611111","longitude":"48.00750000"},{"name":"Darreh-ye Ebrahim","latitude":"34.10166667","longitude":"48.39444444"},{"name":"Darsibeh","latitude":"34.26972222","longitude":"48.00694444"},{"name":"Davijan","latitude":"34.22027778","longitude":"48.85833333"},{"name":"Deh Chaneh","latitude":"34.10527778","longitude":"49.12027778"},{"name":"Deh Dalian","latitude":"34.80472222","longitude":"48.71138889"},{"name":"Deh Ful","latitude":"34.22694444","longitude":"48.31388889"},{"name":"Deh Mianeh","latitude":"34.17305556","longitude":"49.04944444"},{"name":"Deh Nush","latitude":"34.76111111","longitude":"48.00305556"},{"name":"Deh Piaz","latitude":"34.88194444","longitude":"48.51472222"},{"name":"Deh-e Shaker","latitude":"34.37888889","longitude":"48.54777778"},{"name":"Dehnow-e Avarzaman","latitude":"34.30694444","longitude":"48.55694444"},{"name":"Dingeleh Kahriz","latitude":"34.81111111","longitude":"48.68472222"},{"name":"Do Rudan","latitude":"34.55972222","longitude":"48.41472222"},{"name":"Doraneh","latitude":"34.23138889","longitude":"48.21944444"},{"name":"Dorudgaran","latitude":"34.02027800","longitude":"48.92472200"},{"name":"Dow Baraleh","latitude":"34.90222222","longitude":"48.03361111"},{"name":"Dowlatabad-e Hajjilu","latitude":"35.28111111","longitude":"48.88694444"},{"name":"Dowlujerdin-e Bala","latitude":"35.34777778","longitude":"49.10944444"},{"name":"Durijan","latitude":"34.30555556","longitude":"48.48972222"},{"name":"Durnian","latitude":"35.48194444","longitude":"49.04000000"},{"name":"Emamzadeh Khatun","latitude":"34.04972222","longitude":"48.95222222"},{"name":"Emamzadeh Pir Nahan","latitude":"35.01138889","longitude":"49.04111111"},{"name":"Eskanan","latitude":"34.35805556","longitude":"48.59277778"},{"name":"Fahrumand","latitude":"34.22416667","longitude":"48.31194444"},{"name":"Famast","latitude":"34.03897000","longitude":"48.46260000"},{"name":"Famenin","latitude":"35.11388889","longitude":"48.97166667"},{"name":"Farasfaj","latitude":"34.48611111","longitude":"48.28555556"},{"name":"Farsban","latitude":"34.24416667","longitude":"48.11916667"},{"name":"Farvaz","latitude":"34.22694444","longitude":"48.90111111"},{"name":"Faryazan","latitude":"34.52305600","longitude":"48.33250000"},{"name":"Fasijan","latitude":"34.83666667","longitude":"48.30472222"},{"name":"Fiazaman","latitude":"34.13111111","longitude":"48.39638889"},{"name":"Firuzabad-e Sofla","latitude":"34.34694444","longitude":"48.09638889"},{"name":"Firuzan","latitude":"34.27861111","longitude":"48.24000000"},{"name":"Gamasa","latitude":"34.23027778","longitude":"49.08750000"},{"name":"Gamasb","latitude":"34.04000000","longitude":"48.46500000"},{"name":"Ganj Tappeh","latitude":"34.93333300","longitude":"48.46361100"},{"name":"Ganjab","latitude":"34.45277778","longitude":"48.98722222"},{"name":"Gashani","latitude":"34.66055556","longitude":"48.39138889"},{"name":"Gav Zaban","latitude":"35.22916667","longitude":"48.30527778"},{"name":"Gavkaran","latitude":"34.48694444","longitude":"48.12000000"},{"name":"Ghazyatan","latitude":"35.33222222","longitude":"48.93166667"},{"name":"Gholam Veys","latitude":"35.63000000","longitude":"48.52583333"},{"name":"Givaki","latitude":"34.27250000","longitude":"48.08111111"},{"name":"Giyan","latitude":"34.17805556","longitude":"48.24416667"},{"name":"Gol Darreh-ye Anuch","latitude":"34.10222222","longitude":"48.59861111"},{"name":"Gol Heydar","latitude":"34.06250000","longitude":"48.41666667"},{"name":"Golparabad","latitude":"34.15500000","longitude":"49.05777778"},{"name":"Golshir","latitude":"34.40000000","longitude":"48.68333333"},{"name":"Golushjerd","latitude":"34.36611111","longitude":"48.79000000"},{"name":"Gomush Bolagh","latitude":"34.93194444","longitude":"48.28972222"},{"name":"Gonbad Chay","latitude":"34.86833300","longitude":"48.83138900"},{"name":"Gonbad-e Kabud","latitude":"34.21722222","longitude":"48.14777778"},{"name":"Gostar","latitude":"35.46388889","longitude":"48.87638889"},{"name":"Gozal Abdal","latitude":"35.32166667","longitude":"48.23861111"},{"name":"Gug Qash","latitude":"35.68750000","longitude":"48.02530000"},{"name":"Gujak","latitude":"34.54083333","longitude":"48.84027778"},{"name":"Gulvand","latitude":"34.38083333","longitude":"48.97527778"},{"name":"Gunestan","latitude":"34.03027778","longitude":"48.91833333"},{"name":"Gur Gaz","latitude":"34.93333333","longitude":"48.79111111"},{"name":"Gurjiu","latitude":"34.18583333","longitude":"48.40555556"},{"name":"Gushalan","latitude":"34.83500000","longitude":"48.32250000"},{"name":"Gusheh-ye Kasavand","latitude":"34.15527778","longitude":"48.95944444"},{"name":"Hajji Kheder","latitude":"34.12722222","longitude":"48.74833333"},{"name":"Hajji Maqsud","latitude":"34.96972222","longitude":"48.87972222"},{"name":"Hajji Tu","latitude":"34.45083300","longitude":"48.35361100"},{"name":"Hamadan","latitude":"34.80000000","longitude":"48.51666667"},{"name":"Hamilabad","latitude":"34.40250000","longitude":"48.46083333"},{"name":"Hamzehlu-ye Sofla","latitude":"34.05777778","longitude":"49.07777778"},{"name":"Haramabad","latitude":"34.28166667","longitude":"48.78250000"},{"name":"Hasan Kusej","latitude":"34.24833333","longitude":"48.57527778"},{"name":"Hasan Teymur","latitude":"35.37583333","longitude":"48.36361111"},{"name":"Hasanabad-e Emam","latitude":"34.95027778","longitude":"48.05083333"},{"name":"Hasanabad-e Qush Bolagh","latitude":"34.42361111","longitude":"48.65444444"},{"name":"Hasanabad-e Sheverin","latitude":"34.84250000","longitude":"48.54916667"},{"name":"Heriraz","latitude":"34.20527778","longitude":"48.74305556"},{"name":"Hesar-e Qarah Baghi","latitude":"34.82250000","longitude":"48.26861111"},{"name":"Hesar-e Qujeh Baghi","latitude":"35.23861111","longitude":"48.55972222"},{"name":"Heydareh-ye Dar-e Emam","latitude":"34.82055556","longitude":"48.34694444"},{"name":"Heydareh-ye Posht-e Shahr","latitude":"34.80250000","longitude":"48.45750000"},{"name":"Hizaj","latitude":"34.93000000","longitude":"49.14333333"},{"name":"Holvar-e Sofla","latitude":"34.68000000","longitude":"48.13472222"},{"name":"Hom-e Khosrow","latitude":"34.31472222","longitude":"48.01000000"},{"name":"Horhoreh","latitude":"34.39111111","longitude":"48.36027778"},{"name":"Hoseynabad-e Bahar","latitude":"34.86750000","longitude":"48.36833333"},{"name":"Hoseynabad-e Nazem","latitude":"34.29527800","longitude":"48.60416700"},{"name":"Hoseynabad-e Shamlu","latitude":"34.44611111","longitude":"48.62055556"},{"name":"Hudaraj","latitude":"34.73361111","longitude":"48.16194444"},{"name":"Iraneh","latitude":"34.24305556","longitude":"48.59750000"},{"name":"Isti Bolagh","latitude":"35.69500000","longitude":"48.26611111"},{"name":"Jamishlu","latitude":"35.24583333","longitude":"48.97666667"},{"name":"Jaria","latitude":"34.35166667","longitude":"48.46861111"},{"name":"Javar Sajin","latitude":"35.28583333","longitude":"49.22138889"},{"name":"Jerbanlu","latitude":"35.58638889","longitude":"48.92916667"},{"name":"Jighi","latitude":"35.20027778","longitude":"48.49388889"},{"name":"Jijan Kuh","latitude":"34.48111111","longitude":"48.50694444"},{"name":"Jijian Rud","latitude":"34.35638889","longitude":"48.60861111"},{"name":"Jin Taraqayah","latitude":"35.34555556","longitude":"48.43250000"},{"name":"Juraqan","latitude":"34.88472222","longitude":"48.55444444"},{"name":"Kaboodrahang","latitude":"35.20833333","longitude":"48.72388889"},{"name":"Kahard","latitude":"35.28555556","longitude":"49.00527778"},{"name":"Kahkadan","latitude":"34.14388889","longitude":"48.65805556"},{"name":"Kahriz-e Baba Hoseyn","latitude":"35.53388889","longitude":"47.94027778"},{"name":"Kahriz-e Boqazi","latitude":"35.51138889","longitude":"48.81833333"},{"name":"Kahriz-e Hoseynabad-e Nazem","latitude":"34.31888889","longitude":"48.62777778"},{"name":"Kahriz-e Jamal","latitude":"34.33500000","longitude":"48.14611111"},{"name":"Kahriz-e Salim","latitude":"34.32888889","longitude":"48.16222222"},{"name":"Kal Kabud","latitude":"35.48083333","longitude":"48.85277778"},{"name":"Kalb Hesari","latitude":"35.36694444","longitude":"48.39583333"},{"name":"Kalilabad","latitude":"34.33916667","longitude":"48.54472222"},{"name":"Kamak-e Sofla","latitude":"34.88750000","longitude":"47.96861111"},{"name":"Kamar Boneh","latitude":"34.17500000","longitude":"48.63500000"},{"name":"Kamazan","latitude":"34.15083333","longitude":"48.95333333"},{"name":"Kand Halan","latitude":"34.50111111","longitude":"48.78194444"},{"name":"Kand Tappeh","latitude":"35.20138889","longitude":"48.30555556"},{"name":"Kand-e Bolaghi","latitude":"35.43000000","longitude":"48.32277778"},{"name":"Kangavar-e Kohneh","latitude":"34.34194444","longitude":"47.97611111"},{"name":"Karafs","latitude":"35.36333333","longitude":"49.29888889"},{"name":"Kark-e Sofla","latitude":"34.16944444","longitude":"48.29138889"},{"name":"Kartilabad","latitude":"34.31361111","longitude":"48.64916667"},{"name":"Kasavand","latitude":"34.15222222","longitude":"48.96972222"},{"name":"Kaslan Qayah","latitude":"35.19388889","longitude":"48.18611111"},{"name":"Kavanaj","latitude":"34.66388889","longitude":"47.89694444"},{"name":"Kesb","latitude":"34.41416667","longitude":"48.72250000"},{"name":"Keykaleh","latitude":"34.11500000","longitude":"48.93916667"},{"name":"Keyni Sayeh","latitude":"34.82583333","longitude":"47.88638889"},{"name":"Khabar Arkhi","latitude":"35.36333333","longitude":"48.27666667"},{"name":"Khaku","latitude":"34.72638889","longitude":"48.53638889"},{"name":"Khaleq Verdi","latitude":"35.41083333","longitude":"48.18111111"},{"name":"Khalil Kord","latitude":"34.97805556","longitude":"48.25305556"},{"name":"Kheradmand","latitude":"34.62583333","longitude":"48.93138889"},{"name":"Kheyr Qoli","latitude":"34.20222222","longitude":"48.40138889"},{"name":"Khomeygan","latitude":"35.36972222","longitude":"49.02333333"},{"name":"Khvajeh Hesar","latitude":"35.00000000","longitude":"49.33916667"},{"name":"Khvajeh Hoseyni","latitude":"34.15500000","longitude":"48.37861111"},{"name":"Khvajeh Kandi","latitude":"35.36194444","longitude":"48.38500000"},{"name":"Khvoshab-e Sofla","latitude":"35.01777778","longitude":"48.35750000"},{"name":"Kitu","latitude":"35.31972222","longitude":"48.15333333"},{"name":"Kohnush","latitude":"34.72583333","longitude":"48.27777778"},{"name":"Kolanjan","latitude":"34.59444444","longitude":"48.39250000"},{"name":"Konjineh","latitude":"34.79222222","longitude":"48.62972222"},{"name":"Kord Bolagh","latitude":"34.76722222","longitude":"48.65277778"},{"name":"Korzan","latitude":"34.59444444","longitude":"48.35361111"},{"name":"Kowzareh","latitude":"34.69861100","longitude":"49.01138900"},{"name":"Kuhani","latitude":"34.15388900","longitude":"48.40500000"},{"name":"Kur Kahriz","latitude":"34.71722222","longitude":"48.77333333"},{"name":"Kusaj Khalil","latitude":"34.40416667","longitude":"48.58805556"},{"name":"Kutah Darreh","latitude":"34.32055556","longitude":"47.95388889"},{"name":"Laleh Dan","latitude":"35.58111111","longitude":"48.95416667"},{"name":"Lalejin","latitude":"34.97444444","longitude":"48.47555556"},{"name":"Lamiyan","latitude":"34.46277778","longitude":"48.19277778"},{"name":"Latgah","latitude":"34.98944400","longitude":"48.54638900"},{"name":"Lavashan","latitude":"34.25055556","longitude":"48.27416667"},{"name":"Leyli Yadegar","latitude":"34.28583333","longitude":"48.21027778"},{"name":"Luluhar","latitude":"34.31611111","longitude":"48.45416667"},{"name":"Mahanabad","latitude":"34.18083333","longitude":"48.20972222"},{"name":"Mahbar","latitude":"34.87611111","longitude":"48.80777778"},{"name":"Mahdaviyeh","latitude":"34.08333333","longitude":"48.88333333"},{"name":"Mahnian","latitude":"35.50250000","longitude":"49.06583333"},{"name":"Malayer","latitude":"34.29416667","longitude":"48.82000000"},{"name":"Malek-e Ashtar","latitude":"34.95222222","longitude":"48.31500000"},{"name":"Malusan","latitude":"34.32333333","longitude":"48.33000000"},{"name":"Mangavi","latitude":"34.65750000","longitude":"48.70861111"},{"name":"Marvil","latitude":"34.16805556","longitude":"48.88694444"},{"name":"Maryanaj","latitude":"34.83083333","longitude":"48.45916667"},{"name":"Masjedin","latitude":"35.54277778","longitude":"48.26333333"},{"name":"Menjan","latitude":"34.44805556","longitude":"48.23555556"},{"name":"Mesinak","latitude":"35.27222222","longitude":"49.15111111"},{"name":"Meyvaleh","latitude":"34.83194444","longitude":"47.85527778"},{"name":"Mianzulan","latitude":"34.31222222","longitude":"48.51555556"},{"name":"Mihamleh-ye Sofla","latitude":"35.10000000","longitude":"48.30805556"},{"name":"Milab","latitude":"34.05277778","longitude":"48.47972222"},{"name":"Mirza Hesari","latitude":"35.12750000","longitude":"48.45944400"},{"name":"Mishen","latitude":"34.15750000","longitude":"48.92722222"},{"name":"Mobarakin","latitude":"35.09805556","longitude":"49.42416667"},{"name":"Mohajeran","latitude":"35.07388889","longitude":"48.61666667"},{"name":"Mohammadabad-e Chulak","latitude":"34.24666667","longitude":"48.30444444"},{"name":"Mohammadiyeh-e Sofla","latitude":"34.14611111","longitude":"48.33861111"},{"name":"Mohara","latitude":"34.55527778","longitude":"48.86861111"},{"name":"Mokarrabi","latitude":"34.62500000","longitude":"48.69777778"},{"name":"Molham Darreh","latitude":"34.83138889","longitude":"48.14527778"},{"name":"Molla Bodagh","latitude":"35.63138889","longitude":"48.73888889"},{"name":"Monavvar Tappeh","latitude":"34.72027778","longitude":"47.91111111"},{"name":"Morghabad","latitude":"35.18833333","longitude":"49.28277778"},{"name":"Mowdaran","latitude":"34.33250000","longitude":"48.47138889"},{"name":"Musa Bolaghi","latitude":"34.59888889","longitude":"48.94111111"},{"name":"Nahandar","latitude":"34.14944444","longitude":"48.96833333"},{"name":"Nahavand","latitude":"34.18833333","longitude":"48.37694444"},{"name":"Najafiyeh","latitude":"34.55500000","longitude":"48.38638889"},{"name":"Nakilabad","latitude":"34.36777778","longitude":"48.65694444"},{"name":"Nakin","latitude":"35.38805556","longitude":"49.26527778"},{"name":"Namileh","latitude":"34.27111111","longitude":"48.82000000"},{"name":"Nanaj","latitude":"34.42000000","longitude":"48.75388889"},{"name":"Nazul","latitude":"34.22833333","longitude":"48.71805556"},{"name":"Negar Khatun","latitude":"35.11861111","longitude":"48.92555556"},{"name":"Negarabad","latitude":"35.47583333","longitude":"48.53277778"},{"name":"Nehenjeh","latitude":"34.54111111","longitude":"48.71722222"},{"name":"Nesar","latitude":"34.07694444","longitude":"48.46861111"},{"name":"Neshar","latitude":"34.67722222","longitude":"48.86694444"},{"name":"Niyanj","latitude":"35.34861111","longitude":"48.91722222"},{"name":"Nosratabad-e Behraz","latitude":"34.69222222","longitude":"48.08555556"},{"name":"Nosratabad-e Laklak","latitude":"34.66472222","longitude":"47.96277778"},{"name":"Nurabad-e Simineh","latitude":"34.82194444","longitude":"48.29277778"},{"name":"Ojaq","latitude":"35.64000000","longitude":"48.84583333"},{"name":"Ommatlar","latitude":"35.43611111","longitude":"48.96861111"},{"name":"Oshtoran","latitude":"34.63805556","longitude":"48.29555556"},{"name":"Oshtorjin","latitude":"34.77583333","longitude":"48.17222222"},{"name":"Ovraqin","latitude":"35.28222222","longitude":"48.69111111"},{"name":"Owrteh Qamish","latitude":"35.57083333","longitude":"48.62916667"},{"name":"Owryad","latitude":"35.26277778","longitude":"48.37250000"},{"name":"Pahnabad","latitude":"34.84166667","longitude":"48.61472222"},{"name":"Panbeh Dar","latitude":"34.06527778","longitude":"48.44555556"},{"name":"Parluk","latitude":"35.06555556","longitude":"48.24611111"},{"name":"Parvaraq","latitude":"35.15583333","longitude":"48.76777778"},{"name":"Payandeh","latitude":"35.44194444","longitude":"48.85305556"},{"name":"Peyhan","latitude":"34.12972222","longitude":"48.86750000"},{"name":"Pileh Jin","latitude":"35.38388889","longitude":"48.85583333"},{"name":"Pir Anbar","latitude":"35.24250000","longitude":"48.51361111"},{"name":"Pir Badam","latitude":"35.56722222","longitude":"48.13888889"},{"name":"Pir Khodaverdi","latitude":"34.32500000","longitude":"48.92861111"},{"name":"Pir Malu","latitude":"34.91222222","longitude":"48.06611111"},{"name":"Pir Mishan","latitude":"34.39166667","longitude":"48.66611111"},{"name":"Pir Savaran","latitude":"34.11805556","longitude":"48.77861111"},{"name":"Pir Yusof","latitude":"34.68888889","longitude":"47.89277778"},{"name":"Piruz","latitude":"34.13500000","longitude":"49.04527778"},{"name":"Poshtjin","latitude":"35.31416667","longitude":"49.07166667"},{"name":"Qabanqoli","latitude":"35.19833333","longitude":"49.17833333"},{"name":"Qader Khalaj","latitude":"35.40111111","longitude":"48.73000000"},{"name":"Qadimi","latitude":"34.65194444","longitude":"48.73666667"},{"name":"Qahavand","latitude":"34.86027778","longitude":"49.00472222"},{"name":"Qajar Ab-e Sofla","latitude":"34.43527778","longitude":"48.97527778"},{"name":"Qarah Day","latitude":"35.12527778","longitude":"49.28222222"},{"name":"Qarah Tegini","latitude":"34.44027778","longitude":"48.93555556"},{"name":"Qaranqu Darreh","latitude":"35.51305556","longitude":"48.17750000"},{"name":"Qasabestan","latitude":"34.42000000","longitude":"48.18777778"},{"name":"Qasemabad-e Laklak","latitude":"34.67527778","longitude":"47.97222222"},{"name":"Qater Owlan","latitude":"35.37527778","longitude":"48.93166667"},{"name":"Qayesh","latitude":"35.49611111","longitude":"48.86694444"},{"name":"Qazan Qarah","latitude":"35.66190000","longitude":"48.08220000"},{"name":"Qazi Mardan","latitude":"34.77694444","longitude":"48.01416667"},{"name":"Qeshlaq Baba Rostam","latitude":"34.14194444","longitude":"48.36250000"},{"name":"Qeshlaq-e Anuch","latitude":"34.11611111","longitude":"48.57777778"},{"name":"Qeshlaq-e Deh Ful","latitude":"34.24388889","longitude":"48.33750000"},{"name":"Qeshlaq-e Dehnow","latitude":"34.50000000","longitude":"48.56666667"},{"name":"Qeshlaq-e Mohammadi","latitude":"34.06666667","longitude":"48.91666667"},{"name":"Qeshlaq-e Najaf","latitude":"34.37222222","longitude":"48.24500000"},{"name":"Qeshlaq-e Pust Shuran","latitude":"34.40305556","longitude":"48.21638889"},{"name":"Qeshlaq-e Qobad","latitude":"34.58777778","longitude":"48.89583333"},{"name":"Qeshlaq-e Shirazi","latitude":"34.38388889","longitude":"48.93916667"},{"name":"Qeshlaq-e Sofla","latitude":"34.70083333","longitude":"49.06972222"},{"name":"Qeshlaq-e Valiollah","latitude":"34.35222222","longitude":"48.22416667"},{"name":"Qeydli Bolagh","latitude":"35.01500000","longitude":"48.28750000"},{"name":"Qilab","latitude":"34.30444444","longitude":"48.06083333"},{"name":"Qohurd-e Sofla","latitude":"35.47111100","longitude":"48.05944400"},{"name":"Qoli Laleh-ye Sofla","latitude":"34.52805556","longitude":"48.25972222"},{"name":"Qolqolabad","latitude":"35.13083333","longitude":"49.29083333"},{"name":"Quch Tappeh","latitude":"34.92722222","longitude":"48.02611111"},{"name":"Qushjeh","latitude":"35.66416667","longitude":"48.30555556"},{"name":"Rahmanabad, Malayer","latitude":"34.08861111","longitude":"48.58555556"},{"name":"Ramishan","latitude":"35.15972222","longitude":"48.80500000"},{"name":"Rastguyan","latitude":"34.91666667","longitude":"48.21666667"},{"name":"Rasulabad-e Sofla","latitude":"34.87888889","longitude":"48.21861111"},{"name":"Ravand-e Vosta","latitude":"34.13333333","longitude":"48.34916667"},{"name":"Rayegan-e Sofla","latitude":"35.07111100","longitude":"48.66333300"},{"name":"Razaj","latitude":"34.89527778","longitude":"49.14666667"},{"name":"Razan","latitude":"35.38638889","longitude":"49.03361111"},{"name":"Razini","latitude":"34.26777778","longitude":"48.12611111"},{"name":"Reza Baghi","latitude":"35.18277778","longitude":"49.31444444"},{"name":"Rezvankadeh","latitude":"34.25000000","longitude":"48.83333333"},{"name":"Rivasijan","latitude":"34.57722222","longitude":"48.43194444"},{"name":"Robat-e Sheverin","latitude":"34.86111111","longitude":"48.60027778"},{"name":"Rud Avar","latitude":"34.55055556","longitude":"48.41055556"},{"name":"Rud-e Hasan-e Sofla","latitude":"34.12444444","longitude":"48.37166667"},{"name":"Safa Riz","latitude":"35.40694444","longitude":"48.30611111"},{"name":"Sahamabad","latitude":"34.55388889","longitude":"48.30472222"},{"name":"Salehabad","latitude":"34.92361111","longitude":"48.34250000"},{"name":"Salilak","latitude":"35.25277778","longitude":"49.11888889"},{"name":"Saluk","latitude":"34.34138889","longitude":"48.99305556"},{"name":"Samen","latitude":"34.20916667","longitude":"48.70583333"},{"name":"Sanaj","latitude":"35.12222222","longitude":"49.02555556"},{"name":"Sanjuzan","latitude":"34.65611111","longitude":"48.39333333"},{"name":"Sar Duran","latitude":"34.20305556","longitude":"48.26388889"},{"name":"Sarab-e Tajar","latitude":"34.23222222","longitude":"48.60638889"},{"name":"Saravak","latitude":"35.17916667","longitude":"48.94638889"},{"name":"Sarayjuq","latitude":"35.42888889","longitude":"47.96194444"},{"name":"Sarijlu","latitude":"35.61250000","longitude":"48.89222222"},{"name":"Sarkan","latitude":"34.60166667","longitude":"48.45055556"},{"name":"Saziyan","latitude":"34.57361111","longitude":"48.15361111"},{"name":"Sefid Khaneh","latitude":"34.06972222","longitude":"48.50805556"},{"name":"Segavi","latitude":"34.58527778","longitude":"48.10083333"},{"name":"Setaq","latitude":"35.04583300","longitude":"49.29638900"},{"name":"Shademaneh","latitude":"34.36166667","longitude":"48.28055556"},{"name":"Shanabad","latitude":"34.60888889","longitude":"48.10416667"},{"name":"Shanjur","latitude":"35.29722222","longitude":"49.17638889"},{"name":"Sharifabad-e Quzan","latitude":"34.41222222","longitude":"48.82583333"},{"name":"Sharifabad-e Tajar","latitude":"34.26472222","longitude":"48.63833333"},{"name":"Shatzal","latitude":"34.30305556","longitude":"47.97388889"},{"name":"Shavand","latitude":"35.37527778","longitude":"49.20972222"},{"name":"Sheverin","latitude":"34.80750000","longitude":"48.57027778"},{"name":"Sheykh Jarrah","latitude":"35.50222222","longitude":"48.22250000"},{"name":"Shilandar-e Sofla","latitude":"34.66750000","longitude":"48.16861111"},{"name":"Shir Barat","latitude":"35.63333333","longitude":"48.38250000"},{"name":"Shirin Su","latitude":"35.49277778","longitude":"48.45055556"},{"name":"Shush Ab","latitude":"34.35361111","longitude":"48.63222222"},{"name":"Siah Goleh","latitude":"34.94583333","longitude":"47.96833333"},{"name":"Sib Dar","latitude":"34.21694444","longitude":"48.78472222"},{"name":"Silvar","latitude":"34.74583333","longitude":"48.50666667"},{"name":"Simin-e Abaru","latitude":"34.68250000","longitude":"48.58583300"},{"name":"Simin-e Zagheh","latitude":"34.87666667","longitude":"48.32166667"},{"name":"Siravand","latitude":"34.79527778","longitude":"47.99638889"},{"name":"Sistaneh","latitude":"34.66333333","longitude":"48.32055556"},{"name":"Solulan","latitude":"34.82611111","longitude":"48.42944444"},{"name":"Sorkh Kand","latitude":"34.08750000","longitude":"48.42916667"},{"name":"Sulijeh","latitude":"35.26860000","longitude":"48.33440000"},{"name":"Surtajin","latitude":"35.53560000","longitude":"49.01390000"},{"name":"Sutlaq","latitude":"34.57640000","longitude":"48.27750000"},{"name":"Tafrijan","latitude":"34.76330000","longitude":"48.58190000"},{"name":"Tahunabad","latitude":"34.83860000","longitude":"48.86640000"},{"name":"Tajar-e Samen","latitude":"34.22560000","longitude":"48.66500000"},{"name":"Takhtiabad","latitude":"34.81220000","longitude":"47.83780000"},{"name":"Taleh Jerd-e Sofla","latitude":"34.04580000","longitude":"48.87780000"},{"name":"Tamuzan","latitude":"35.27970000","longitude":"49.13280000"},{"name":"Tappeh Yazdan","latitude":"34.33670000","longitude":"48.02250000"},{"name":"Tappeh-ye Dibi","latitude":"35.42920000","longitude":"48.69420000"},{"name":"Taraqayah","latitude":"35.31890000","longitude":"48.37110000"},{"name":"Tarik Darreh-ye Bala","latitude":"34.27330000","longitude":"47.93920000"},{"name":"Tarkhinabad","latitude":"34.81530000","longitude":"48.12250000"},{"name":"Tas Tappeh","latitude":"35.16390000","longitude":"48.48330000"},{"name":"Tasbandi","latitude":"34.56140000","longitude":"48.79060000"},{"name":"Tasran","latitude":"35.33830000","longitude":"48.63390000"},{"name":"Tavaleh","latitude":"35.15440000","longitude":"49.04390000"},{"name":"Tavaneh","latitude":"34.21138900","longitude":"48.18583300"},{"name":"Taveh","latitude":"35.11670000","longitude":"49.02720000"},{"name":"Tavilan-e Sofla","latitude":"34.79940000","longitude":"47.86940000"},{"name":"Tazehnab-e Sofla","latitude":"34.09780000","longitude":"48.31530000"},{"name":"Termianak","latitude":"34.63190000","longitude":"48.17360000"},{"name":"Timi Jan","latitude":"34.69030000","longitude":"48.34140000"},{"name":"Tuchaqaz","latitude":"34.29970000","longitude":"48.71500000"},{"name":"Tulki Tappeh","latitude":"35.49530000","longitude":"48.95780000"},{"name":"Tusk-e Sofla","latitude":"34.25000000","longitude":"48.99000000"},{"name":"Tutal","latitude":"34.51500000","longitude":"49.02140000"},{"name":"Tuyserkan","latitude":"34.54805556","longitude":"48.44666667"},{"name":"Vafr-e Jin","latitude":"34.81030000","longitude":"48.38420000"},{"name":"Vahandeh","latitude":"35.50940000","longitude":"49.04750000"},{"name":"Vahman","latitude":"34.26080000","longitude":"48.27080000"},{"name":"Vahnan","latitude":"34.79000000","longitude":"48.28860000"},{"name":"Vali Mohammad","latitude":"35.15190000","longitude":"48.38060000"},{"name":"Vali Sir Ab","latitude":"34.23280000","longitude":"48.18940000"},{"name":"Vandarabad","latitude":"34.66970000","longitude":"48.07890000"},{"name":"Varayeneh","latitude":"34.07920000","longitude":"48.40560000"},{"name":"Varazaneh","latitude":"34.18640000","longitude":"48.18610000"},{"name":"Varchaq","latitude":"34.37170000","longitude":"48.89780000"},{"name":"Vardavard-e Sofla","latitude":"34.70030000","longitude":"48.29390000"},{"name":"Vardavard-e Vosta","latitude":"34.70440000","longitude":"48.30170000"},{"name":"Varkaneh","latitude":"34.67690000","longitude":"48.61920000"},{"name":"Varqestan","latitude":"35.39640000","longitude":"49.00920000"},{"name":"Varvazin","latitude":"35.36580000","longitude":"48.96060000"},{"name":"Vasaj","latitude":"34.32060000","longitude":"48.22580000"},{"name":"Vashur","latitude":"35.23170000","longitude":"48.35170000"},{"name":"Vasleh","latitude":"35.21280000","longitude":"48.34640000"},{"name":"Vesht","latitude":"34.13860000","longitude":"48.46830000"},{"name":"Vezendan","latitude":"34.95810000","longitude":"49.31250000"},{"name":"Yalfan","latitude":"34.73640000","longitude":"48.61110000"},{"name":"Yarom Qayah","latitude":"35.06890000","longitude":"49.38170000"},{"name":"Yaromjeh Bagh","latitude":"35.51750000","longitude":"48.67640000"},{"name":"Yeganeh","latitude":"34.80720000","longitude":"48.63780000"},{"name":"Yekanabad","latitude":"34.87360000","longitude":"48.45420000"},{"name":"Yekleh","latitude":"34.87777800","longitude":"49.00666700"},{"name":"Yeserlu","latitude":"35.06110000","longitude":"48.78360000"},{"name":"Yunes","latitude":"34.15860000","longitude":"48.67330000"},{"name":"Yunji","latitude":"34.35860000","longitude":"48.78170000"},{"name":"Zagheh-ye Anuch","latitude":"34.14780000","longitude":"48.55420000"},{"name":"Zagheh-ye Tasbandi","latitude":"34.60360000","longitude":"48.81110000"},{"name":"Zaghlijeh","latitude":"35.15280000","longitude":"49.37580000"},{"name":"Zamanabad-e Mohammadabad","latitude":"34.41250000","longitude":"48.64220000"},{"name":"Zangeneh-ye Sofla","latitude":"34.14670000","longitude":"49.01670000"},{"name":"Zapon","latitude":"34.38390000","longitude":"48.18940000"},{"name":"Zaramin-e Sofla","latitude":"34.19360000","longitude":"48.30000000"},{"name":"Zarrin Bagh","latitude":"34.29470000","longitude":"48.05190000"},{"name":"Zeraq","latitude":"35.07140000","longitude":"49.16940000"},{"name":"Zirabiyeh","latitude":"34.41330000","longitude":"48.61690000"}]