[{"name":"Babimost","latitude":"52.16488000","longitude":"15.82769000"},{"name":"Bledzew","latitude":"52.51711000","longitude":"15.41382000"},{"name":"Bobrowice","latitude":"51.94850000","longitude":"15.09058000"},{"name":"Bogdaniec","latitude":"52.68897000","longitude":"15.07127000"},{"name":"Bojadła","latitude":"51.95321000","longitude":"15.81036000"},{"name":"Brody","latitude":"51.79046000","longitude":"14.77335000"},{"name":"Brójce","latitude":"52.31745000","longitude":"15.67414000"},{"name":"Bytnica","latitude":"52.15066000","longitude":"15.16946000"},{"name":"Bytom Odrzański","latitude":"51.73062000","longitude":"15.82362000"},{"name":"Cybinka","latitude":"52.19446000","longitude":"14.79567000"},{"name":"Czerwieńsk","latitude":"52.01289000","longitude":"15.42317000"},{"name":"Deszczno","latitude":"52.66988000","longitude":"15.31975000"},{"name":"Dobiegniew","latitude":"52.96947000","longitude":"15.75362000"},{"name":"Drezdenko","latitude":"52.83831000","longitude":"15.83079000"},{"name":"Dąbie","latitude":"52.01056000","longitude":"15.15221000"},{"name":"Gorzów Wielkopolski","latitude":"52.73679000","longitude":"15.22878000"},{"name":"Gozdnica","latitude":"51.43630000","longitude":"15.09856000"},{"name":"Gubin","latitude":"51.94956000","longitude":"14.72837000"},{"name":"Górzyca","latitude":"52.49447000","longitude":"14.65503000"},{"name":"Iłowa","latitude":"51.50060000","longitude":"15.19980000"},{"name":"Jasień","latitude":"51.75142000","longitude":"15.01419000"},{"name":"Jenin","latitude":"52.69647000","longitude":"15.09796000"},{"name":"Kargowa","latitude":"52.07140000","longitude":"15.86138000"},{"name":"Klenica","latitude":"51.99217000","longitude":"15.78392000"},{"name":"Kolsko","latitude":"51.96146000","longitude":"15.95987000"},{"name":"Konotop","latitude":"51.93157000","longitude":"15.90391000"},{"name":"Kostrzyn nad Odrą","latitude":"52.58713000","longitude":"14.64953000"},{"name":"Kożuchów","latitude":"51.74558000","longitude":"15.59492000"},{"name":"Krosno Odrzańskie","latitude":"52.05492000","longitude":"15.09882000"},{"name":"Krzeszyce","latitude":"52.58329000","longitude":"15.00707000"},{"name":"Kunice Żarskie","latitude":"51.59944000","longitude":"15.16495000"},{"name":"Kłodawa","latitude":"52.78595000","longitude":"15.21452000"},{"name":"Lipinki Łużyckie","latitude":"51.63954000","longitude":"14.99874000"},{"name":"Lubiszyn","latitude":"52.78075000","longitude":"14.94793000"},{"name":"Lubniewice","latitude":"52.51638000","longitude":"15.25005000"},{"name":"Lubrza","latitude":"52.30418000","longitude":"15.44317000"},{"name":"Lubsko","latitude":"51.78467000","longitude":"14.97196000"},{"name":"Maszewo","latitude":"52.06896000","longitude":"14.90553000"},{"name":"Małomice","latitude":"51.55597000","longitude":"15.45004000"},{"name":"Międzylesie","latitude":"52.14487000","longitude":"15.38283000"},{"name":"Międzyrzecz","latitude":"52.44461000","longitude":"15.57801000"},{"name":"Nowa Sól","latitude":"51.80333000","longitude":"15.71702000"},{"name":"Nowe Miasteczko","latitude":"51.69097000","longitude":"15.73174000"},{"name":"Nowogród Bobrzański","latitude":"51.79856000","longitude":"15.23520000"},{"name":"Ochla","latitude":"51.87903000","longitude":"15.47132000"},{"name":"Otyń","latitude":"51.84766000","longitude":"15.71105000"},{"name":"Ośno Lubuskie","latitude":"52.45360000","longitude":"14.87549000"},{"name":"Powiat gorzowski","latitude":"52.73863000","longitude":"15.08508000"},{"name":"Powiat krośnieński","latitude":"52.00988000","longitude":"14.95209000"},{"name":"Powiat międzyrzecki","latitude":"52.49891000","longitude":"15.58284000"},{"name":"Powiat nowosolski","latitude":"51.84218000","longitude":"15.72698000"},{"name":"Powiat strzelecko-drezdenecki","latitude":"52.91220000","longitude":"15.64061000"},{"name":"Powiat sulęciński","latitude":"52.42850000","longitude":"15.04896000"},{"name":"Powiat słubicki","latitude":"52.32267000","longitude":"14.78921000"},{"name":"Powiat wschowski","latitude":"51.83019000","longitude":"16.12096000"},{"name":"Powiat zielonogórski","latitude":"51.93326000","longitude":"15.44403000"},{"name":"Powiat świebodziński","latitude":"52.23799000","longitude":"15.48522000"},{"name":"Powiat żagański","latitude":"51.59471000","longitude":"15.42253000"},{"name":"Powiat żarski","latitude":"51.62858000","longitude":"14.96170000"},{"name":"Przewóz","latitude":"51.48053000","longitude":"14.95188000"},{"name":"Przyborów","latitude":"51.79991000","longitude":"15.76890000"},{"name":"Przytoczna","latitude":"52.57755000","longitude":"15.67878000"},{"name":"Pszczew","latitude":"52.47724000","longitude":"15.78160000"},{"name":"Rzepin","latitude":"52.34640000","longitude":"14.83227000"},{"name":"Santok","latitude":"52.73785000","longitude":"15.41021000"},{"name":"Siedlisko","latitude":"51.76864000","longitude":"15.81396000"},{"name":"Sieniawa","latitude":"52.36344000","longitude":"15.37768000"},{"name":"Sieniawa Żarska","latitude":"51.64007000","longitude":"15.06045000"},{"name":"Skwierzyna","latitude":"52.59914000","longitude":"15.50652000"},{"name":"Skąpe","latitude":"52.15292000","longitude":"15.45845000"},{"name":"Stare Kurowo","latitude":"52.85669000","longitude":"15.67749000"},{"name":"Strzelce Krajeńskie","latitude":"52.87726000","longitude":"15.52978000"},{"name":"Sulechów","latitude":"52.08362000","longitude":"15.62513000"},{"name":"Szczaniec","latitude":"52.26874000","longitude":"15.68170000"},{"name":"Szlichtyngowa","latitude":"51.71222000","longitude":"16.24427000"},{"name":"Szprotawa","latitude":"51.56563000","longitude":"15.53664000"},{"name":"Sława","latitude":"51.87623000","longitude":"16.07205000"},{"name":"Słońsk","latitude":"52.56345000","longitude":"14.80526000"},{"name":"Słubice","latitude":"52.35088000","longitude":"14.56065000"},{"name":"Torzym","latitude":"52.31331000","longitude":"15.08243000"},{"name":"Trzciel","latitude":"52.36504000","longitude":"15.87306000"},{"name":"Trzebiechów","latitude":"52.02113000","longitude":"15.73620000"},{"name":"Trzebiel","latitude":"51.63496000","longitude":"14.81609000"},{"name":"Tuplice","latitude":"51.67639000","longitude":"14.82914000"},{"name":"Witnica","latitude":"52.67318000","longitude":"14.89765000"},{"name":"Wschowa","latitude":"51.80705000","longitude":"16.31663000"},{"name":"Wymiarki","latitude":"51.51109000","longitude":"15.08208000"},{"name":"Zabór","latitude":"51.95194000","longitude":"15.71676000"},{"name":"Zbąszynek","latitude":"52.24315000","longitude":"15.81654000"},{"name":"Zielona Góra","latitude":"51.93768000","longitude":"15.51216000"},{"name":"Zwierzyń","latitude":"52.83212000","longitude":"15.56763000"},{"name":"Łagów","latitude":"52.33429000","longitude":"15.29769000"},{"name":"Łęknica","latitude":"51.54148000","longitude":"14.73584000"},{"name":"Świdnica","latitude":"51.88836000","longitude":"15.39013000"},{"name":"Świebodzin","latitude":"52.24751000","longitude":"15.53355000"},{"name":"Żagań","latitude":"51.61759000","longitude":"15.31486000"},{"name":"Żary","latitude":"51.64205000","longitude":"15.13727000"}]