[{"name":"Coyah","latitude":"9.75000000","longitude":"-13.41667000"},{"name":"Dubréka","latitude":"9.79111000","longitude":"-13.52333000"},{"name":"Forécariah","latitude":"9.43056000","longitude":"-13.08806000"},{"name":"Kindia","latitude":"10.08333000","longitude":"-12.80000000"},{"name":"Préfecture de Dubréka","latitude":"10.25000000","longitude":"-13.41667000"},{"name":"Préfecture de Forécariah","latitude":"9.43333000","longitude":"-13.10000000"},{"name":"Telimele Prefecture","latitude":"10.91667000","longitude":"-13.33333000"},{"name":"Tondon","latitude":"10.36667000","longitude":"-13.35000000"},{"name":"Télimélé","latitude":"10.90000000","longitude":"-13.03333000"}]