[{"name":"Bến Tre","latitude":"10.24147000","longitude":"106.37585000"},{"name":"Huyện Ba Tri","latitude":"10.06627000","longitude":"106.60554000"},{"name":"Huyện Bình Đại","latitude":"10.19354000","longitude":"106.64455000"},{"name":"Huyện Châu Thành","latitude":"10.29212000","longitude":"106.30827000"},{"name":"Huyện Chợ Lách","latitude":"10.22674000","longitude":"106.17077000"},{"name":"Huyện Giồng Trôm","latitude":"10.15909000","longitude":"106.47004000"},{"name":"Huyện Thạnh Phú","latitude":"9.92993000","longitude":"106.54316000"},{"name":"Ấp Tân Ngãi","latitude":"10.23333000","longitude":"106.28333000"}]