[{"name":"Acton","latitude":"43.53425000","longitude":"-70.90978000"},{"name":"Addison","latitude":"44.61841000","longitude":"-67.74416000"},{"name":"Albion","latitude":"44.53229000","longitude":"-69.44254000"},{"name":"Alfred","latitude":"43.47647000","longitude":"-70.71839000"},{"name":"Androscoggin County","latitude":"44.16585000","longitude":"-70.20645000"},{"name":"Appleton","latitude":"44.28924000","longitude":"-69.25088000"},{"name":"Aroostook County","latitude":"46.65881000","longitude":"-68.59889000"},{"name":"Arundel","latitude":"43.38259000","longitude":"-70.47783000"},{"name":"Auburn","latitude":"44.09785000","longitude":"-70.23117000"},{"name":"Augusta","latitude":"44.31062000","longitude":"-69.77949000"},{"name":"Bangor","latitude":"44.80118000","longitude":"-68.77781000"},{"name":"Bar Harbor","latitude":"44.38758000","longitude":"-68.20390000"},{"name":"Bath","latitude":"43.91064000","longitude":"-69.82060000"},{"name":"Belfast","latitude":"44.42591000","longitude":"-69.00642000"},{"name":"Belgrade","latitude":"44.44729000","longitude":"-69.83255000"},{"name":"Benton","latitude":"44.58618000","longitude":"-69.55088000"},{"name":"Berwick","latitude":"43.26592000","longitude":"-70.86450000"},{"name":"Bethel","latitude":"44.40423000","longitude":"-70.79062000"},{"name":"Biddeford","latitude":"43.49258000","longitude":"-70.45338000"},{"name":"Boothbay","latitude":"43.87647000","longitude":"-69.63366000"},{"name":"Boothbay Harbor","latitude":"43.85230000","longitude":"-69.62810000"},{"name":"Bradford","latitude":"45.06673000","longitude":"-68.93781000"},{"name":"Bradley","latitude":"44.92090000","longitude":"-68.62809000"},{"name":"Brewer","latitude":"44.79674000","longitude":"-68.76142000"},{"name":"Bridgton","latitude":"44.05479000","longitude":"-70.71284000"},{"name":"Bristol","latitude":"43.95758000","longitude":"-69.50921000"},{"name":"Brooks","latitude":"44.55035000","longitude":"-69.12087000"},{"name":"Brownfield","latitude":"43.93813000","longitude":"-70.90868000"},{"name":"Brownville","latitude":"45.30700000","longitude":"-69.03337000"},{"name":"Brunswick","latitude":"43.91452000","longitude":"-69.96533000"},{"name":"Buckfield","latitude":"44.28951000","longitude":"-70.36534000"},{"name":"Bucksport","latitude":"44.57369000","longitude":"-68.79559000"},{"name":"Burnham","latitude":"44.69284000","longitude":"-69.42755000"},{"name":"Buxton","latitude":"43.63786000","longitude":"-70.51894000"},{"name":"Calais","latitude":"45.18376000","longitude":"-67.27662000"},{"name":"Camden","latitude":"44.20980000","longitude":"-69.06476000"},{"name":"Canaan","latitude":"44.76173000","longitude":"-69.56144000"},{"name":"Canton","latitude":"44.44080000","longitude":"-70.31649000"},{"name":"Cape Neddick","latitude":"43.19370000","longitude":"-70.62089000"},{"name":"Caribou","latitude":"46.86060000","longitude":"-68.01197000"},{"name":"Carmel","latitude":"44.79757000","longitude":"-69.05115000"},{"name":"Castine","latitude":"44.38785000","longitude":"-68.79975000"},{"name":"Charleston","latitude":"45.08506000","longitude":"-69.04059000"},{"name":"Chelsea","latitude":"44.25035000","longitude":"-69.71727000"},{"name":"Cherryfield","latitude":"44.60730000","longitude":"-67.92584000"},{"name":"Chesterville","latitude":"44.55117000","longitude":"-70.08617000"},{"name":"China","latitude":"44.47868000","longitude":"-69.51726000"},{"name":"Chisholm","latitude":"44.48145000","longitude":"-70.19950000"},{"name":"Clinton","latitude":"44.63784000","longitude":"-69.50310000"},{"name":"Corinna","latitude":"44.92117000","longitude":"-69.26171000"},{"name":"Cornish","latitude":"43.80480000","longitude":"-70.80117000"},{"name":"Cornville","latitude":"44.83673000","longitude":"-69.67311000"},{"name":"Cumberland Center","latitude":"43.79647000","longitude":"-70.25894000"},{"name":"Cumberland County","latitude":"43.80608000","longitude":"-70.33020000"},{"name":"Cushing","latitude":"44.01925000","longitude":"-69.23977000"},{"name":"Damariscotta","latitude":"44.03286000","longitude":"-69.51866000"},{"name":"Dayton","latitude":"43.54972000","longitude":"-70.57555000"},{"name":"Dedham","latitude":"44.69174000","longitude":"-68.66198000"},{"name":"Deer Isle","latitude":"44.22397000","longitude":"-68.67753000"},{"name":"Denmark","latitude":"43.97035000","longitude":"-70.80340000"},{"name":"Dexter","latitude":"45.02395000","longitude":"-69.28977000"},{"name":"Dixfield","latitude":"44.53395000","longitude":"-70.45590000"},{"name":"Dixmont","latitude":"44.68035000","longitude":"-69.16282000"},{"name":"Dover-Foxcroft","latitude":"45.18339000","longitude":"-69.22699000"},{"name":"East Machias","latitude":"44.73924000","longitude":"-67.38999000"},{"name":"East Millinocket","latitude":"45.62755000","longitude":"-68.57448000"},{"name":"Easton","latitude":"46.64115000","longitude":"-67.90947000"},{"name":"Eastport","latitude":"44.90619000","longitude":"-66.98998000"},{"name":"Eddington","latitude":"44.82618000","longitude":"-68.69337000"},{"name":"Edgecomb","latitude":"43.95841000","longitude":"-69.63060000"},{"name":"Eliot","latitude":"43.15314000","longitude":"-70.80006000"},{"name":"Ellsworth","latitude":"44.54341000","longitude":"-68.41946000"},{"name":"Enfield","latitude":"45.24894000","longitude":"-68.56836000"},{"name":"Etna","latitude":"44.82090000","longitude":"-69.11115000"},{"name":"Fairfield","latitude":"44.58840000","longitude":"-69.59866000"},{"name":"Falmouth","latitude":"43.72953000","longitude":"-70.24199000"},{"name":"Falmouth Foreside","latitude":"43.73480000","longitude":"-70.20783000"},{"name":"Farmingdale","latitude":"44.24451000","longitude":"-69.77143000"},{"name":"Farmington","latitude":"44.67062000","longitude":"-70.15117000"},{"name":"Fayette","latitude":"44.40896000","longitude":"-70.03367000"},{"name":"Fort Fairfield","latitude":"46.77227000","longitude":"-67.83391000"},{"name":"Fort Kent","latitude":"47.25865000","longitude":"-68.58949000"},{"name":"Frankfort","latitude":"44.60980000","longitude":"-68.87670000"},{"name":"Franklin","latitude":"44.58702000","longitude":"-68.23224000"},{"name":"Franklin County","latitude":"44.97417000","longitude":"-70.44410000"},{"name":"Freeport","latitude":"43.85702000","longitude":"-70.10311000"},{"name":"Frenchville","latitude":"47.28087000","longitude":"-68.37976000"},{"name":"Friendship","latitude":"43.98369000","longitude":"-69.33394000"},{"name":"Fryeburg","latitude":"44.01646000","longitude":"-70.98062000"},{"name":"Gardiner","latitude":"44.23007000","longitude":"-69.77532000"},{"name":"Garland","latitude":"45.03840000","longitude":"-69.16032000"},{"name":"Gorham","latitude":"43.67952000","longitude":"-70.44422000"},{"name":"Gouldsboro","latitude":"44.47841000","longitude":"-68.03834000"},{"name":"Greenbush","latitude":"45.08034000","longitude":"-68.65086000"},{"name":"Greene","latitude":"44.18979000","longitude":"-70.14033000"},{"name":"Greenville","latitude":"45.45949000","longitude":"-69.59061000"},{"name":"Hallowell","latitude":"44.28590000","longitude":"-69.79088000"},{"name":"Hampden","latitude":"44.74452000","longitude":"-68.83698000"},{"name":"Hancock","latitude":"44.52924000","longitude":"-68.25363000"},{"name":"Hancock County","latitude":"44.56289000","longitude":"-68.36821000"},{"name":"Harpswell Center","latitude":"43.80175000","longitude":"-69.98421000"},{"name":"Harrison","latitude":"44.11035000","longitude":"-70.67923000"},{"name":"Hartford","latitude":"44.37284000","longitude":"-70.34673000"},{"name":"Hebron","latitude":"44.19813000","longitude":"-70.40645000"},{"name":"Hermon","latitude":"44.81007000","longitude":"-68.91337000"},{"name":"Hiram","latitude":"43.87868000","longitude":"-70.80340000"},{"name":"Hodgdon","latitude":"46.05394000","longitude":"-67.86668000"},{"name":"Holden","latitude":"44.75285000","longitude":"-68.67892000"},{"name":"Hollis Center","latitude":"43.60508000","longitude":"-70.59311000"},{"name":"Hope","latitude":"44.26508000","longitude":"-69.15893000"},{"name":"Houlton","latitude":"46.12616000","longitude":"-67.84030000"},{"name":"Howland","latitude":"45.23867000","longitude":"-68.66364000"},{"name":"Hudson","latitude":"45.00118000","longitude":"-68.88059000"},{"name":"Jay","latitude":"44.50395000","longitude":"-70.21617000"},{"name":"Jefferson","latitude":"44.20674000","longitude":"-69.45254000"},{"name":"Jonesport","latitude":"44.53286000","longitude":"-67.59833000"},{"name":"Kenduskeag","latitude":"44.91951000","longitude":"-68.93170000"},{"name":"Kennebec County","latitude":"44.40916000","longitude":"-69.76726000"},{"name":"Kennebunk","latitude":"43.38397000","longitude":"-70.54478000"},{"name":"Kennebunkport","latitude":"43.36175000","longitude":"-70.47672000"},{"name":"Kingfield","latitude":"44.95922000","longitude":"-70.15395000"},{"name":"Kittery","latitude":"43.08814000","longitude":"-70.73616000"},{"name":"Kittery Point","latitude":"43.08342000","longitude":"-70.70783000"},{"name":"Knox County","latitude":"44.07575000","longitude":"-69.12598000"},{"name":"Lake Arrowhead","latitude":"43.66369000","longitude":"-70.73478000"},{"name":"Lebanon","latitude":"43.39453000","longitude":"-70.85089000"},{"name":"Leeds","latitude":"44.30340000","longitude":"-70.11950000"},{"name":"Levant","latitude":"44.86924000","longitude":"-68.93476000"},{"name":"Lewiston","latitude":"44.10035000","longitude":"-70.21478000"},{"name":"Limerick","latitude":"43.68841000","longitude":"-70.79367000"},{"name":"Limestone","latitude":"46.90866000","longitude":"-67.82585000"},{"name":"Limington","latitude":"43.73174000","longitude":"-70.71089000"},{"name":"Lincoln","latitude":"45.36228000","longitude":"-68.50502000"},{"name":"Lincoln County","latitude":"43.99779000","longitude":"-69.52576000"},{"name":"Lincolnville","latitude":"44.28119000","longitude":"-69.00865000"},{"name":"Lisbon","latitude":"44.03146000","longitude":"-70.10450000"},{"name":"Lisbon Falls","latitude":"43.99619000","longitude":"-70.06061000"},{"name":"Livermore","latitude":"44.38396000","longitude":"-70.24922000"},{"name":"Livermore Falls","latitude":"44.47534000","longitude":"-70.18811000"},{"name":"Lovell","latitude":"44.12674000","longitude":"-70.89173000"},{"name":"Machias","latitude":"44.71508000","longitude":"-67.46138000"},{"name":"Machiasport","latitude":"44.69869000","longitude":"-67.39471000"},{"name":"Madawaska","latitude":"46.88421000","longitude":"-67.94725000"},{"name":"Madison","latitude":"44.79756000","longitude":"-69.87978000"},{"name":"Manchester","latitude":"44.32451000","longitude":"-69.86033000"},{"name":"Mechanic Falls","latitude":"44.11174000","longitude":"-70.39172000"},{"name":"Medway","latitude":"45.60894000","longitude":"-68.53086000"},{"name":"Mexico","latitude":"44.56090000","longitude":"-70.54534000"},{"name":"Milbridge","latitude":"44.53536000","longitude":"-67.88083000"},{"name":"Milford","latitude":"44.94618000","longitude":"-68.64392000"},{"name":"Millinocket","latitude":"45.65727000","longitude":"-68.70976000"},{"name":"Milo","latitude":"45.25366000","longitude":"-68.98587000"},{"name":"Minot","latitude":"44.08563000","longitude":"-70.32006000"},{"name":"Monmouth","latitude":"44.23868000","longitude":"-70.03561000"},{"name":"Mount Vernon","latitude":"44.50118000","longitude":"-69.98756000"},{"name":"New Gloucester","latitude":"43.96285000","longitude":"-70.28255000"},{"name":"New Sharon","latitude":"44.63895000","longitude":"-70.01561000"},{"name":"Newfield","latitude":"43.64813000","longitude":"-70.84701000"},{"name":"Newport","latitude":"44.83534000","longitude":"-69.27394000"},{"name":"Nobleboro","latitude":"44.07952000","longitude":"-69.48505000"},{"name":"Norridgewock","latitude":"44.71312000","longitude":"-69.79061000"},{"name":"North Bath","latitude":"43.93480000","longitude":"-69.81588000"},{"name":"North Berwick","latitude":"43.30370000","longitude":"-70.73339000"},{"name":"North Windham","latitude":"43.83424000","longitude":"-70.43839000"},{"name":"Northport","latitude":"44.33786000","longitude":"-68.96142000"},{"name":"Norway","latitude":"44.21396000","longitude":"-70.54478000"},{"name":"Oakland","latitude":"44.54034000","longitude":"-69.72199000"},{"name":"Ogunquit","latitude":"43.24898000","longitude":"-70.59922000"},{"name":"Old Orchard Beach","latitude":"43.51731000","longitude":"-70.37755000"},{"name":"Old Town","latitude":"44.93423000","longitude":"-68.64531000"},{"name":"Orland","latitude":"44.57035000","longitude":"-68.73586000"},{"name":"Orono","latitude":"44.88312000","longitude":"-68.67198000"},{"name":"Orrington","latitude":"44.73118000","longitude":"-68.82643000"},{"name":"Owls Head","latitude":"44.08230000","longitude":"-69.05726000"},{"name":"Oxford","latitude":"44.13174000","longitude":"-70.49311000"},{"name":"Oxford County","latitude":"44.49977000","longitude":"-70.75657000"},{"name":"Palermo","latitude":"44.40785000","longitude":"-69.47393000"},{"name":"Palmyra","latitude":"44.84645000","longitude":"-69.35866000"},{"name":"Paris","latitude":"44.25979000","longitude":"-70.50062000"},{"name":"Parsonsfield","latitude":"43.72702000","longitude":"-70.92868000"},{"name":"Patten","latitude":"45.99644000","longitude":"-68.44614000"},{"name":"Penobscot","latitude":"44.46452000","longitude":"-68.71114000"},{"name":"Penobscot County","latitude":"45.40051000","longitude":"-68.64943000"},{"name":"Peru","latitude":"44.50673000","longitude":"-70.40534000"},{"name":"Phillips","latitude":"44.82311000","longitude":"-70.33951000"},{"name":"Phippsburg","latitude":"43.82064000","longitude":"-69.81477000"},{"name":"Piscataquis County","latitude":"45.83736000","longitude":"-69.28452000"},{"name":"Pittsfield","latitude":"44.78256000","longitude":"-69.38338000"},{"name":"Pittston","latitude":"44.22174000","longitude":"-69.75560000"},{"name":"Plymouth","latitude":"44.76729000","longitude":"-69.21033000"},{"name":"Poland","latitude":"44.06063000","longitude":"-70.39367000"},{"name":"Porter","latitude":"43.79591000","longitude":"-70.93256000"},{"name":"Portland","latitude":"43.65737000","longitude":"-70.25890000"},{"name":"Presque Isle","latitude":"46.68115000","longitude":"-68.01586000"},{"name":"Randolph","latitude":"44.23035000","longitude":"-69.76671000"},{"name":"Raymond","latitude":"43.90146000","longitude":"-70.47033000"},{"name":"Readfield","latitude":"44.38785000","longitude":"-69.96672000"},{"name":"Richmond","latitude":"44.08730000","longitude":"-69.79893000"},{"name":"Rockland","latitude":"44.10369000","longitude":"-69.10893000"},{"name":"Rockport","latitude":"44.18452000","longitude":"-69.07615000"},{"name":"Rome","latitude":"44.58506000","longitude":"-69.86922000"},{"name":"Rumford","latitude":"44.55367000","longitude":"-70.55090000"},{"name":"Sabattus","latitude":"44.11980000","longitude":"-70.10755000"},{"name":"Saco","latitude":"43.50092000","longitude":"-70.44283000"},{"name":"Sagadahoc County","latitude":"43.91173000","longitude":"-69.83931000"},{"name":"Saint Albans","latitude":"44.91006000","longitude":"-69.41005000"},{"name":"Saint George","latitude":"44.01647000","longitude":"-69.19893000"},{"name":"Sanford","latitude":"43.43925000","longitude":"-70.77422000"},{"name":"Sangerville","latitude":"45.16478000","longitude":"-69.35644000"},{"name":"Scarborough","latitude":"43.57814000","longitude":"-70.32172000"},{"name":"Searsmont","latitude":"44.36174000","longitude":"-69.19504000"},{"name":"Sedgwick","latitude":"44.30369000","longitude":"-68.61614000"},{"name":"Shapleigh","latitude":"43.54064000","longitude":"-70.84812000"},{"name":"Sidney","latitude":"44.41312000","longitude":"-69.72893000"},{"name":"Skowhegan","latitude":"44.76506000","longitude":"-69.71922000"},{"name":"Somerset County","latitude":"45.51385000","longitude":"-69.95882000"},{"name":"South Berwick","latitude":"43.23453000","longitude":"-70.80950000"},{"name":"South Eliot","latitude":"43.10814000","longitude":"-70.77755000"},{"name":"South Paris","latitude":"44.22368000","longitude":"-70.51339000"},{"name":"South Portland","latitude":"43.64147000","longitude":"-70.24088000"},{"name":"South Portland Gardens","latitude":"43.63897000","longitude":"-70.31533000"},{"name":"South Sanford","latitude":"43.41119000","longitude":"-70.74256000"},{"name":"South Thomaston","latitude":"44.05147000","longitude":"-69.12782000"},{"name":"South Windham","latitude":"43.73619000","longitude":"-70.42366000"},{"name":"Springvale","latitude":"43.46675000","longitude":"-70.79367000"},{"name":"Steep Falls","latitude":"43.79397000","longitude":"-70.65256000"},{"name":"Stetson","latitude":"44.89173000","longitude":"-69.14282000"},{"name":"Steuben","latitude":"44.51098000","longitude":"-67.96662000"},{"name":"Stockton Springs","latitude":"44.48952000","longitude":"-68.85698000"},{"name":"Stonington","latitude":"44.15619000","longitude":"-68.66669000"},{"name":"Strong","latitude":"44.80756000","longitude":"-70.22090000"},{"name":"Sullivan","latitude":"44.52036000","longitude":"-68.19668000"},{"name":"Surry","latitude":"44.49591000","longitude":"-68.50169000"},{"name":"Swanville","latitude":"44.52119000","longitude":"-68.99781000"},{"name":"Thomaston","latitude":"44.07897000","longitude":"-69.18171000"},{"name":"Topsham","latitude":"43.92758000","longitude":"-69.97588000"},{"name":"Tremont","latitude":"44.25369000","longitude":"-68.35141000"},{"name":"Trenton","latitude":"44.43897000","longitude":"-68.37002000"},{"name":"Troy","latitude":"44.66479000","longitude":"-69.24088000"},{"name":"Turner","latitude":"44.25646000","longitude":"-70.25617000"},{"name":"Union","latitude":"44.21147000","longitude":"-69.27421000"},{"name":"Van Buren","latitude":"47.15727000","longitude":"-67.93530000"},{"name":"Vassalboro","latitude":"44.45923000","longitude":"-69.67755000"},{"name":"Veazie","latitude":"44.83868000","longitude":"-68.70531000"},{"name":"Vinalhaven","latitude":"44.04814000","longitude":"-68.83170000"},{"name":"Waldo County","latitude":"44.48525000","longitude":"-69.12188000"},{"name":"Waldoboro","latitude":"44.09536000","longitude":"-69.37560000"},{"name":"Warren","latitude":"44.12036000","longitude":"-69.24005000"},{"name":"Washington","latitude":"44.27369000","longitude":"-69.36727000"},{"name":"Washington County","latitude":"44.96946000","longitude":"-67.60906000"},{"name":"Waterboro","latitude":"43.53564000","longitude":"-70.71506000"},{"name":"Waterville","latitude":"44.55201000","longitude":"-69.63171000"},{"name":"Wayne","latitude":"44.34868000","longitude":"-70.06616000"},{"name":"Wells Beach Station","latitude":"43.32397000","longitude":"-70.59144000"},{"name":"West Kennebunk","latitude":"43.40870000","longitude":"-70.58144000"},{"name":"West Paris","latitude":"44.32423000","longitude":"-70.57395000"},{"name":"West Scarborough","latitude":"43.57036000","longitude":"-70.38783000"},{"name":"Westbrook","latitude":"43.67703000","longitude":"-70.37116000"},{"name":"Whitefield","latitude":"44.17007000","longitude":"-69.62532000"},{"name":"Wilton","latitude":"44.59284000","longitude":"-70.22812000"},{"name":"Windsor","latitude":"44.31063000","longitude":"-69.58060000"},{"name":"Winslow","latitude":"44.54701000","longitude":"-69.62116000"},{"name":"Winterport","latitude":"44.63785000","longitude":"-68.84504000"},{"name":"Winthrop","latitude":"44.30507000","longitude":"-69.97700000"},{"name":"Wiscasset","latitude":"44.00286000","longitude":"-69.66560000"},{"name":"Woodstock","latitude":"44.37494000","longitude":"-70.60849000"},{"name":"Woolwich","latitude":"43.91869000","longitude":"-69.80116000"},{"name":"Yarmouth","latitude":"43.80064000","longitude":"-70.18672000"},{"name":"York Beach","latitude":"43.17148000","longitude":"-70.60894000"},{"name":"York County","latitude":"43.42923000","longitude":"-70.67015000"},{"name":"York Harbor","latitude":"43.13676000","longitude":"-70.64561000"}]