[{"name":"Ar Rumaythīyah","latitude":"29.31167000","longitude":"48.07417000"},{"name":"As Sālimīyah","latitude":"29.33389000","longitude":"48.07611000"},{"name":"Bayān","latitude":"29.30320000","longitude":"48.04881000"},{"name":"Salwá","latitude":"29.29583000","longitude":"48.07861000"},{"name":"Ḩawallī","latitude":"29.33278000","longitude":"48.02861000"}]