[{"name":"Būkān","latitude":"36.52100000","longitude":"46.20890000"},{"name":"Chāypāreh","latitude":"38.86667000","longitude":"45.00000000"},{"name":"Khowy","latitude":"38.55030000","longitude":"44.95210000"},{"name":"Mahābād","latitude":"36.76310000","longitude":"45.72220000"},{"name":"Mīāndoāb","latitude":"36.96667000","longitude":"46.10961000"},{"name":"Naqadeh","latitude":"36.95530000","longitude":"45.38800000"},{"name":"Orūmīyeh","latitude":"37.55274000","longitude":"45.07605000"},{"name":"Oshnavīyeh","latitude":"37.03970000","longitude":"45.09830000"},{"name":"Piranshahr","latitude":"36.70100000","longitude":"45.14130000"},{"name":"Poldasht","latitude":"39.34800000","longitude":"45.07100000"},{"name":"Qarah Ẕīā’ od Dīn","latitude":"38.89150000","longitude":"45.02550000"},{"name":"Salmās","latitude":"38.19730000","longitude":"44.76530000"},{"name":"Sardasht","latitude":"36.21670000","longitude":"45.48320000"},{"name":"Shahrestān-e Būkān","latitude":"36.60002000","longitude":"46.16664000"},{"name":"Shahrestān-e Chāldorān","latitude":"39.06667000","longitude":"44.33333000"},{"name":"Shahrestān-e Mahābād","latitude":"36.76667000","longitude":"45.73333000"},{"name":"Shahrestān-e Mākū","latitude":"39.41669000","longitude":"44.58336000"},{"name":"Shahrestān-e Mīāndoāb","latitude":"36.89999000","longitude":"46.20002000"},{"name":"Shahrestān-e Orūmīyeh","latitude":"37.55000000","longitude":"45.00000000"},{"name":"Shahrestān-e Oshnavīyeh","latitude":"37.05000000","longitude":"45.08333000"},{"name":"Shahrestān-e Pīrānshahr","latitude":"36.70000000","longitude":"45.16667000"},{"name":"Shahrestān-e Salmās","latitude":"38.18333000","longitude":"44.73333000"},{"name":"Shahrestān-e Shāhīn Dezh","latitude":"36.68337000","longitude":"46.66676000"},{"name":"Shahrestān-e Takāb","latitude":"36.53345000","longitude":"47.16669000"},{"name":"Shāhīn Dezh","latitude":"36.67930000","longitude":"46.56690000"},{"name":"Takāb","latitude":"36.40090000","longitude":"47.11330000"}]