[{"name":"Bermejo","latitude":"-22.73206000","longitude":"-64.33724000"},{"name":"Entre Ríos","latitude":"-21.52661000","longitude":"-64.17299000"},{"name":"Provincia Arce","latitude":"-22.16667000","longitude":"-64.33333000"},{"name":"Provincia Avilez","latitude":"-21.66667000","longitude":"-65.00000000"},{"name":"Provincia Cercado","latitude":"-21.58333000","longitude":"-64.58333000"},{"name":"Provincia Gran Chaco","latitude":"-21.66667000","longitude":"-63.00000000"},{"name":"Provincia Méndez","latitude":"-21.16667000","longitude":"-64.91667000"},{"name":"Provincia O’Connor","latitude":"-21.58333000","longitude":"-64.16667000"},{"name":"Tarija","latitude":"-21.53549000","longitude":"-64.72956000"},{"name":"Villamontes","latitude":"-21.26235000","longitude":"-63.46903000"},{"name":"Yacuiba","latitude":"-22.01643000","longitude":"-63.67753000"}]