[{"name":"Abertamy","latitude":"50.36874000","longitude":"12.81826000"},{"name":"Aš","latitude":"50.22387000","longitude":"12.19499000"},{"name":"Bochov","latitude":"50.14872000","longitude":"13.05227000"},{"name":"Bukovany","latitude":"50.16632000","longitude":"12.57265000"},{"name":"Březová","latitude":"50.14557000","longitude":"12.64996000"},{"name":"Cheb","latitude":"50.07963000","longitude":"12.37392000"},{"name":"Chodov","latitude":"50.24018000","longitude":"12.74551000"},{"name":"Dalovice","latitude":"50.24779000","longitude":"12.89581000"},{"name":"Dolní Rychnov","latitude":"50.16462000","longitude":"12.64507000"},{"name":"Dolní Žandov","latitude":"50.01794000","longitude":"12.55101000"},{"name":"Františkovy Lázně","latitude":"50.12033000","longitude":"12.35174000"},{"name":"Habartov","latitude":"50.18297000","longitude":"12.55054000"},{"name":"Hazlov","latitude":"50.15634000","longitude":"12.27238000"},{"name":"Horní Slavkov","latitude":"50.13863000","longitude":"12.80758000"},{"name":"Hranice","latitude":"50.30459000","longitude":"12.17577000"},{"name":"Hroznětín","latitude":"50.30940000","longitude":"12.87180000"},{"name":"Jáchymov","latitude":"50.35846000","longitude":"12.93465000"},{"name":"Karlovy Vary","latitude":"50.23271000","longitude":"12.87117000"},{"name":"Klášter","latitude":"49.96762000","longitude":"12.87623000"},{"name":"Kraslice","latitude":"50.32372000","longitude":"12.51747000"},{"name":"Kynšperk nad Ohří","latitude":"50.11893000","longitude":"12.53027000"},{"name":"Loket","latitude":"50.18600000","longitude":"12.75405000"},{"name":"Lomnice","latitude":"50.21174000","longitude":"12.63267000"},{"name":"Luby","latitude":"50.25248000","longitude":"12.40595000"},{"name":"Lázně Kynžvart","latitude":"50.01058000","longitude":"12.62474000"},{"name":"Mariánské Lázně","latitude":"49.96459000","longitude":"12.70118000"},{"name":"Merklín","latitude":"50.32808000","longitude":"12.86350000"},{"name":"Město","latitude":"49.97997000","longitude":"12.86432000"},{"name":"Nejdek","latitude":"50.32242000","longitude":"12.72936000"},{"name":"Nová Role","latitude":"50.27092000","longitude":"12.78422000"},{"name":"Nové Sedlo","latitude":"50.20647000","longitude":"12.73800000"},{"name":"Okres Cheb","latitude":"50.08333000","longitude":"12.50000000"},{"name":"Okres Karlovy Vary","latitude":"50.16667000","longitude":"13.00000000"},{"name":"Okres Sokolov","latitude":"50.21667000","longitude":"12.63333000"},{"name":"Oloví","latitude":"50.25113000","longitude":"12.55877000"},{"name":"Ostrov","latitude":"50.30592000","longitude":"12.93907000"},{"name":"Plesná","latitude":"50.22070000","longitude":"12.34669000"},{"name":"Rotava","latitude":"50.29627000","longitude":"12.57341000"},{"name":"Sadov","latitude":"50.26711000","longitude":"12.89708000"},{"name":"Skalná","latitude":"50.17030000","longitude":"12.36144000"},{"name":"Sokolov","latitude":"50.18130000","longitude":"12.64010000"},{"name":"Svatava","latitude":"50.19223000","longitude":"12.62524000"},{"name":"Toužim","latitude":"50.06049000","longitude":"12.98506000"},{"name":"Velká Hleďsebe","latitude":"49.96151000","longitude":"12.66763000"},{"name":"Vintířov","latitude":"50.23382000","longitude":"12.71748000"},{"name":"Žlutice","latitude":"50.09192000","longitude":"13.16297000"}]