[{"name":"Abrīsham","latitude":"32.55613000","longitude":"51.57325000"},{"name":"Ardestān","latitude":"33.37610000","longitude":"52.36940000"},{"name":"Buin va Miandasht","latitude":"33.07241000","longitude":"50.14641000"},{"name":"Chādegān","latitude":"32.76825000","longitude":"50.62873000"},{"name":"Dehāqān","latitude":"31.94004000","longitude":"51.64786000"},{"name":"Dorcheh Pīāz","latitude":"32.61528000","longitude":"51.55556000"},{"name":"Dowlatābād","latitude":"32.79978000","longitude":"51.69553000"},{"name":"Dārān","latitude":"32.98871000","longitude":"50.41267000"},{"name":"Falāvarjān","latitude":"32.55530000","longitude":"51.50973000"},{"name":"Fareydūnshahr","latitude":"32.94098000","longitude":"50.12100000"},{"name":"Fereydan","latitude":"33.10000000","longitude":"50.26667000"},{"name":"Golpāyegān","latitude":"33.45370000","longitude":"50.28836000"},{"name":"Isfahan","latitude":"32.65246000","longitude":"51.67462000"},{"name":"Kelīshād va Sūdarjān","latitude":"32.55118000","longitude":"51.52758000"},{"name":"Khomeynī Shahr","latitude":"32.68560000","longitude":"51.53609000"},{"name":"Khvānsār","latitude":"33.22052000","longitude":"50.31497000"},{"name":"Khūr","latitude":"33.77512000","longitude":"55.08329000"},{"name":"Mobārakeh","latitude":"32.34651000","longitude":"51.50449000"},{"name":"Najafābād","latitude":"32.63440000","longitude":"51.36680000"},{"name":"Naţanz","latitude":"33.51118000","longitude":"51.91808000"},{"name":"Nā’īn","latitude":"32.86006000","longitude":"53.08749000"},{"name":"Qahderījān","latitude":"32.57670000","longitude":"51.45500000"},{"name":"Rehnān","latitude":"32.68325000","longitude":"51.60158000"},{"name":"Semīrom","latitude":"31.41667000","longitude":"51.56667000"},{"name":"Shahrestān-e Ardestān","latitude":"33.45000000","longitude":"52.43333000"},{"name":"Shahrestān-e Borkhvār","latitude":"32.98333000","longitude":"51.76667000"},{"name":"Shahrestān-e Chādegān","latitude":"32.75000000","longitude":"50.50000000"},{"name":"Shahrestān-e Dehāqān","latitude":"31.98333000","longitude":"51.60000000"},{"name":"Shahrestān-e Eşfahān","latitude":"32.26667000","longitude":"52.45000000"},{"name":"Shahrestān-e Falāvarjān","latitude":"32.50000000","longitude":"51.50000000"},{"name":"Shahrestān-e Fareydūnshahr","latitude":"32.86667000","longitude":"49.98333000"},{"name":"Shahrestān-e Golpāyegān","latitude":"33.50000000","longitude":"50.33333000"},{"name":"Shahrestān-e Khomeynī Shahr","latitude":"32.65000000","longitude":"51.50000000"},{"name":"Shahrestān-e Khvānsār","latitude":"33.25000000","longitude":"50.33333000"},{"name":"Shahrestān-e Khūr va Bīābānak","latitude":"33.76667000","longitude":"54.88333000"},{"name":"Shahrestān-e Kāshān","latitude":"33.88333000","longitude":"51.28333000"},{"name":"Shahrestān-e Lenjān","latitude":"32.36667000","longitude":"51.20000000"},{"name":"Shahrestān-e Mobārakeh","latitude":"32.26667000","longitude":"51.48333000"},{"name":"Shahrestān-e Najafābād","latitude":"32.93333000","longitude":"51.11667000"},{"name":"Shahrestān-e Naţanz","latitude":"33.55000000","longitude":"51.86667000"},{"name":"Shahrestān-e Nā’īn","latitude":"33.46664000","longitude":"53.71674000"},{"name":"Shahrestān-e Semīrom","latitude":"31.30000000","longitude":"51.53333000"},{"name":"Shahrestān-e Shahreẕā","latitude":"31.90000000","longitude":"51.83333000"},{"name":"Shahrestān-e Shāhīn Shahr va Meymeh","latitude":"33.28333000","longitude":"51.20000000"},{"name":"Shahrestān-e Tīrān va Karvan","latitude":"32.83333000","longitude":"50.91667000"},{"name":"Shahrestān-e Ārān va Bīdgol","latitude":"34.10000000","longitude":"51.90000000"},{"name":"Shahreẕā","latitude":"32.00890000","longitude":"51.86680000"},{"name":"Shāhīn Shahr","latitude":"32.85788000","longitude":"51.55290000"},{"name":"Tīrān","latitude":"32.70260000","longitude":"51.15370000"},{"name":"Zarrīn Shahr","latitude":"32.38970000","longitude":"51.37660000"}]