[{"name":"Buga","latitude":"8.49056000","longitude":"7.34139000"},{"name":"Doma","latitude":"8.39307000","longitude":"8.35544000"},{"name":"Keffi","latitude":"8.84651000","longitude":"7.87354000"},{"name":"Lafia","latitude":"8.49390000","longitude":"8.51532000"},{"name":"Nasarawa","latitude":"8.53895000","longitude":"7.70821000"},{"name":"Wamba","latitude":"8.94153000","longitude":"8.60315000"}]