[{"name":"Dryanovo","latitude":"42.97897000","longitude":"25.47850000"},{"name":"Gabrovo","latitude":"42.87472000","longitude":"25.33417000"},{"name":"Obshtina Dryanovo","latitude":"43.00000000","longitude":"25.46667000"},{"name":"Obshtina Gabrovo","latitude":"42.90000000","longitude":"25.30000000"},{"name":"Obshtina Sevlievo","latitude":"43.01667000","longitude":"25.10000000"},{"name":"Obshtina Tryavna","latitude":"42.85000000","longitude":"25.55000000"},{"name":"Sevlievo","latitude":"43.02583000","longitude":"25.11361000"},{"name":"Tryavna","latitude":"42.86667000","longitude":"25.50000000"}]