[{"name":"Aguçadoura","latitude":"41.43116000","longitude":"-8.77844000"},{"name":"Alfena","latitude":"41.23671000","longitude":"-8.52454000"},{"name":"Alpendurada","latitude":"41.08944000","longitude":"-8.24643000"},{"name":"Amarante","latitude":"41.27271000","longitude":"-8.08245000"},{"name":"Amorim","latitude":"41.40503000","longitude":"-8.75046000"},{"name":"Anta","latitude":"41.26634000","longitude":"-8.62844000"},{"name":"Arcozelo","latitude":"41.06187000","longitude":"-8.63192000"},{"name":"Argivai","latitude":"41.37744000","longitude":"-8.72987000"},{"name":"Aver-o-Mar","latitude":"41.40607000","longitude":"-8.77958000"},{"name":"Aves","latitude":"41.37034000","longitude":"-8.41010000"},{"name":"Avintes","latitude":"41.10711000","longitude":"-8.55131000"},{"name":"Azenha","latitude":"41.07651000","longitude":"-8.62468000"},{"name":"Baguim do Monte","latitude":"41.19203000","longitude":"-8.54118000"},{"name":"Baião","latitude":"41.16384000","longitude":"-8.03581000"},{"name":"Balazar","latitude":"41.40435000","longitude":"-8.62386000"},{"name":"Baltar","latitude":"41.19272000","longitude":"-8.38768000"},{"name":"Barrosas","latitude":"41.35534000","longitude":"-8.29943000"},{"name":"Beiriz de Baixo","latitude":"41.39727000","longitude":"-8.72385000"},{"name":"Bougado","latitude":"41.33979000","longitude":"-8.55180000"},{"name":"Campo","latitude":"41.18516000","longitude":"-8.46493000"},{"name":"Canelas","latitude":"41.08333000","longitude":"-8.60000000"},{"name":"Canidelo","latitude":"41.12314000","longitude":"-8.64654000"},{"name":"Carvalhosa","latitude":"41.30057000","longitude":"-8.36080000"},{"name":"Castelões de Cepeda","latitude":"41.20265000","longitude":"-8.33516000"},{"name":"Ermesinde","latitude":"41.21653000","longitude":"-8.55318000"},{"name":"Estela","latitude":"41.44944000","longitude":"-8.75166000"},{"name":"Felgueiras","latitude":"41.34774000","longitude":"-8.20808000"},{"name":"Ferreira","latitude":"41.26718000","longitude":"-8.34434000"},{"name":"Figueiró","latitude":"41.29922000","longitude":"-8.16779000"},{"name":"Foz do Douro","latitude":"41.15119000","longitude":"-8.67125000"},{"name":"Foz do Sousa","latitude":"41.09668000","longitude":"-8.50184000"},{"name":"Frazão","latitude":"41.25866000","longitude":"-8.40014000"},{"name":"Freamunde","latitude":"41.28835000","longitude":"-8.33533000"},{"name":"Fânzeres","latitude":"41.16754000","longitude":"-8.52981000"},{"name":"Gandra","latitude":"41.20116000","longitude":"-8.43376000"},{"name":"Gemunde","latitude":"41.26766000","longitude":"-8.64515000"},{"name":"Gondomar","latitude":"41.12015000","longitude":"-8.49595000"},{"name":"Grijó","latitude":"41.02836000","longitude":"-8.58017000"},{"name":"Guifões","latitude":"41.19748000","longitude":"-8.66899000"},{"name":"Gulpilhares","latitude":"41.08292000","longitude":"-8.62679000"},{"name":"Jovim","latitude":"41.11102000","longitude":"-8.51903000"},{"name":"Lavra","latitude":"41.25935000","longitude":"-8.71849000"},{"name":"Leça da Palmeira","latitude":"41.19100000","longitude":"-8.70027000"},{"name":"Leça do Bailio","latitude":"41.21201000","longitude":"-8.63422000"},{"name":"Lordelo","latitude":"41.23451000","longitude":"-8.40297000"},{"name":"Lousada","latitude":"41.28355000","longitude":"-8.27437000"},{"name":"Lustosa","latitude":"41.34081000","longitude":"-8.31715000"},{"name":"Madalena","latitude":"41.21616000","longitude":"-8.33451000"},{"name":"Maia","latitude":"41.24254000","longitude":"-8.60257000"},{"name":"Marco de Canaveses","latitude":"41.15545000","longitude":"-8.16954000"},{"name":"Marco de Canavezes","latitude":"41.18389000","longitude":"-8.14864000"},{"name":"Margaride","latitude":"41.36478000","longitude":"-8.19999000"},{"name":"Matosinhos","latitude":"41.18207000","longitude":"-8.68908000"},{"name":"Meinedo","latitude":"41.24827000","longitude":"-8.25807000"},{"name":"Melres","latitude":"41.06989000","longitude":"-8.40091000"},{"name":"Milheirós","latitude":"41.21478000","longitude":"-8.58837000"},{"name":"Mindelo","latitude":"41.31527000","longitude":"-8.72124000"},{"name":"Moreira","latitude":"41.05600000","longitude":"-8.38939000"},{"name":"Negrelos","latitude":"41.34946000","longitude":"-8.40145000"},{"name":"Nogueira","latitude":"41.24246000","longitude":"-8.58685000"},{"name":"Olival","latitude":"41.05024000","longitude":"-8.54416000"},{"name":"Oliveira do Douro","latitude":"41.12466000","longitude":"-8.58463000"},{"name":"Paredes","latitude":"41.20501000","longitude":"-8.37506000"},{"name":"Paços de Ferreira","latitude":"41.28964000","longitude":"-8.37584000"},{"name":"Pedroso","latitude":"41.41103000","longitude":"-8.74897000"},{"name":"Pedrouços","latitude":"41.18880000","longitude":"-8.58624000"},{"name":"Penafiel","latitude":"41.20931000","longitude":"-8.26996000"},{"name":"Perafita","latitude":"41.18252000","longitude":"-8.25450000"},{"name":"Perozinho","latitude":"41.06513000","longitude":"-8.58531000"},{"name":"Porto","latitude":"41.14961000","longitude":"-8.61099000"},{"name":"Póvoa de Varzim","latitude":"41.38344000","longitude":"-8.76364000"},{"name":"Rebordosa","latitude":"41.22405000","longitude":"-8.40669000"},{"name":"Rebordões","latitude":"41.35509000","longitude":"-8.42355000"},{"name":"Recarei","latitude":"41.15356000","longitude":"-8.41178000"},{"name":"Rio Mau","latitude":"41.40422000","longitude":"-8.67994000"},{"name":"Rio Tinto","latitude":"41.17872000","longitude":"-8.55953000"},{"name":"Sandim","latitude":"41.03508000","longitude":"-8.50700000"},{"name":"Santa Cruz do Bispo","latitude":"41.21462000","longitude":"-8.67406000"},{"name":"Santo Izidoro","latitude":"41.21083000","longitude":"-8.14224000"},{"name":"Santo Tirso","latitude":"41.33014000","longitude":"-8.43827000"},{"name":"Senhora da Hora","latitude":"41.18641000","longitude":"-8.65172000"},{"name":"Sermonde","latitude":"41.04712000","longitude":"-8.58449000"},{"name":"Seroa","latitude":"41.26511000","longitude":"-8.42892000"},{"name":"Serzedo","latitude":"41.05105000","longitude":"-8.61605000"},{"name":"Sobrado","latitude":"41.21041000","longitude":"-8.45488000"},{"name":"São Félix da Marinha","latitude":"41.03555000","longitude":"-8.62259000"},{"name":"São Mamede de Infesta","latitude":"41.19183000","longitude":"-8.61105000"},{"name":"São Miguel do Couto","latitude":"41.33167000","longitude":"-8.46185000"},{"name":"São Pedro da Cova","latitude":"41.14331000","longitude":"-8.50033000"},{"name":"São Romão do Coronado","latitude":"41.28544000","longitude":"-8.56320000"},{"name":"Telões","latitude":"41.31054000","longitude":"-8.11101000"},{"name":"Trofa","latitude":"41.30646000","longitude":"-8.57640000"},{"name":"Vairão","latitude":"41.33290000","longitude":"-8.66657000"},{"name":"Valadares","latitude":"41.14737000","longitude":"-7.98120000"},{"name":"Valbom","latitude":"41.12921000","longitude":"-8.56199000"},{"name":"Valongo","latitude":"41.20797000","longitude":"-8.50086000"},{"name":"Vila Meã","latitude":"41.25116000","longitude":"-8.18397000"},{"name":"Vila Nova da Telha","latitude":"41.07170000","longitude":"-8.64146000"},{"name":"Vila Nova de Gaia","latitude":"41.12401000","longitude":"-8.61241000"},{"name":"Vila do Conde","latitude":"41.35326000","longitude":"-8.74516000"},{"name":"Vilar de Andorinho","latitude":"41.10574000","longitude":"-8.58622000"},{"name":"Vilar do Paraíso","latitude":"41.08974000","longitude":"-8.62110000"},{"name":"Vilarinho","latitude":"41.35955000","longitude":"-8.33123000"},{"name":"Vizela","latitude":"41.38242000","longitude":"-8.24887000"},{"name":"Água Longa","latitude":"41.24972000","longitude":"-8.49285000"},{"name":"Águas Santas","latitude":"41.21017000","longitude":"-8.57599000"},{"name":"Árvore","latitude":"41.33922000","longitude":"-8.71806000"}]