[{"name":"Aguiar","latitude":"-7.07620000","longitude":"-38.24255000"},{"name":"Alagoa Grande","latitude":"-7.07831000","longitude":"-35.59525000"},{"name":"Alagoa Nova","latitude":"-7.04733000","longitude":"-35.75397000"},{"name":"Alagoinha","latitude":"-6.96256000","longitude":"-35.51465000"},{"name":"Alcantil","latitude":"-7.69816000","longitude":"-36.06604000"},{"name":"Algodão de Jandaíra","latitude":"-6.86987000","longitude":"-35.97724000"},{"name":"Alhandra","latitude":"-7.35043000","longitude":"-34.92835000"},{"name":"Amparo","latitude":"-7.55889000","longitude":"-37.03372000"},{"name":"Aparecida","latitude":"-6.80925000","longitude":"-38.07182000"},{"name":"Arara","latitude":"-6.82833000","longitude":"-35.75833000"},{"name":"Araruna","latitude":"-6.55833000","longitude":"-35.74167000"},{"name":"Araçagi","latitude":"-6.85419000","longitude":"-35.36047000"},{"name":"Areia","latitude":"-6.94723000","longitude":"-35.66927000"},{"name":"Areia de Baraúnas","latitude":"-7.11328000","longitude":"-36.97177000"},{"name":"Areial","latitude":"-7.04397000","longitude":"-35.92622000"},{"name":"Aroeiras","latitude":"-7.52057000","longitude":"-35.69927000"},{"name":"Assunção","latitude":"-7.07371000","longitude":"-36.69894000"},{"name":"Bananeiras","latitude":"-6.75000000","longitude":"-35.63333000"},{"name":"Baraúna","latitude":"-6.61853000","longitude":"-36.26964000"},{"name":"Barra de Santa Rosa","latitude":"-6.79042000","longitude":"-36.00175000"},{"name":"Barra de Santana","latitude":"-7.59054000","longitude":"-35.98824000"},{"name":"Barra de São Miguel","latitude":"-7.71640000","longitude":"-36.25481000"},{"name":"Bayeux","latitude":"-7.12136000","longitude":"-34.91725000"},{"name":"Baía da Traição","latitude":"-6.66287000","longitude":"-34.97272000"},{"name":"Belém","latitude":"-6.69167000","longitude":"-35.53333000"},{"name":"Belém do Brejo do Cruz","latitude":"-6.18861000","longitude":"-37.53583000"},{"name":"Bernardino Batista","latitude":"-6.47656000","longitude":"-38.56998000"},{"name":"Boa Ventura","latitude":"-7.45676000","longitude":"-38.17678000"},{"name":"Boa Vista","latitude":"-7.26995000","longitude":"-36.15741000"},{"name":"Bom Jesus","latitude":"-6.81845000","longitude":"-38.62549000"},{"name":"Bom Sucesso","latitude":"-6.47349000","longitude":"-37.95770000"},{"name":"Bonito de Santa Fé","latitude":"-7.28940000","longitude":"-38.47977000"},{"name":"Boqueirão","latitude":"-7.48237000","longitude":"-36.13422000"},{"name":"Borborema","latitude":"-6.79913000","longitude":"-35.62094000"},{"name":"Brejo do Cruz","latitude":"-6.32578000","longitude":"-37.49716000"},{"name":"Brejo dos Santos","latitude":"-6.39546000","longitude":"-37.86070000"},{"name":"Caaporã","latitude":"-7.51556000","longitude":"-34.90833000"},{"name":"Cabaceiras","latitude":"-7.50856000","longitude":"-36.33351000"},{"name":"Cabedelo","latitude":"-6.98111000","longitude":"-34.83389000"},{"name":"Cachoeira dos Índios","latitude":"-6.94486000","longitude":"-38.69902000"},{"name":"Cacimba de Areia","latitude":"-7.13451000","longitude":"-37.15370000"},{"name":"Cacimba de Dentro","latitude":"-6.64167000","longitude":"-35.79000000"},{"name":"Cacimbas","latitude":"-7.23180000","longitude":"-37.09984000"},{"name":"Caiçara","latitude":"-6.59631000","longitude":"-35.39497000"},{"name":"Cajazeiras","latitude":"-6.89028000","longitude":"-38.55528000"},{"name":"Cajazeirinhas","latitude":"-6.94633000","longitude":"-37.81454000"},{"name":"Caldas Brandão","latitude":"-7.15105000","longitude":"-35.34870000"},{"name":"Camalaú","latitude":"-7.92695000","longitude":"-36.74211000"},{"name":"Campina Grande","latitude":"-7.23056000","longitude":"-35.88111000"},{"name":"Capim","latitude":"-6.89150000","longitude":"-35.18300000"},{"name":"Caraúbas","latitude":"-7.79092000","longitude":"-36.50278000"},{"name":"Carrapateira","latitude":"-7.02919000","longitude":"-38.32951000"},{"name":"Casserengue","latitude":"-6.78130000","longitude":"-35.81676000"},{"name":"Catingueira","latitude":"-7.13699000","longitude":"-37.59654000"},{"name":"Catolé do Rocha","latitude":"-6.34389000","longitude":"-37.74667000"},{"name":"Caturité","latitude":"-7.41991000","longitude":"-36.04194000"},{"name":"Conceição","latitude":"-7.49917000","longitude":"-38.51375000"},{"name":"Condado","latitude":"-6.85244000","longitude":"-37.61864000"},{"name":"Conde","latitude":"-7.25972000","longitude":"-34.90750000"},{"name":"Congo","latitude":"-7.79578000","longitude":"-36.63487000"},{"name":"Coremas","latitude":"-7.01444000","longitude":"-37.94583000"},{"name":"Coxixola","latitude":"-7.66749000","longitude":"-36.61824000"},{"name":"Cruz do Espírito Santo","latitude":"-7.14000000","longitude":"-35.08639000"},{"name":"Cubati","latitude":"-6.86116000","longitude":"-36.33415000"},{"name":"Cuitegi","latitude":"-6.90639000","longitude":"-35.53423000"},{"name":"Cuité","latitude":"-6.48361000","longitude":"-36.15361000"},{"name":"Cuité de Mamanguape","latitude":"-6.89788000","longitude":"-35.26042000"},{"name":"Curral Velho","latitude":"-7.55796000","longitude":"-38.19847000"},{"name":"Curral de Cima","latitude":"-6.72359000","longitude":"-35.28596000"},{"name":"Damião","latitude":"-6.67843000","longitude":"-35.92205000"},{"name":"Desterro","latitude":"-7.29056000","longitude":"-37.09389000"},{"name":"Diamante","latitude":"-7.41004000","longitude":"-38.30873000"},{"name":"Dona Inês","latitude":"-6.61354000","longitude":"-35.62654000"},{"name":"Duas Estradas","latitude":"-6.71946000","longitude":"-35.39737000"},{"name":"Emas","latitude":"-7.12680000","longitude":"-37.73881000"},{"name":"Esperança","latitude":"-6.99864000","longitude":"-35.90777000"},{"name":"Fagundes","latitude":"-7.35500000","longitude":"-35.77500000"},{"name":"Frei Martinho","latitude":"-6.44605000","longitude":"-36.48061000"},{"name":"Gado Bravo","latitude":"-7.59984000","longitude":"-35.81967000"},{"name":"Guarabira","latitude":"-6.85472000","longitude":"-35.49000000"},{"name":"Gurinhém","latitude":"-7.12389000","longitude":"-35.42444000"},{"name":"Gurjão","latitude":"-7.26100000","longitude":"-36.50008000"},{"name":"Ibiara","latitude":"-7.48251000","longitude":"-38.38051000"},{"name":"Igaracy","latitude":"-7.13856000","longitude":"-38.13526000"},{"name":"Imaculada","latitude":"-7.38972000","longitude":"-37.50917000"},{"name":"Ingá","latitude":"-7.25441000","longitude":"-35.62897000"},{"name":"Itabaiana","latitude":"-7.32861000","longitude":"-35.33250000"},{"name":"Itaporanga","latitude":"-7.30035000","longitude":"-38.25159000"},{"name":"Itapororoca","latitude":"-6.81152000","longitude":"-35.24478000"},{"name":"Itatuba","latitude":"-7.37500000","longitude":"-35.62833000"},{"name":"Jacaraú","latitude":"-6.61222000","longitude":"-35.29278000"},{"name":"Jericó","latitude":"-6.50746000","longitude":"-37.80665000"},{"name":"Joca Claudino","latitude":"-6.48432000","longitude":"-38.46407000"},{"name":"João Pessoa","latitude":"-7.11500000","longitude":"-34.86306000"},{"name":"Juarez Távora","latitude":"-7.15975000","longitude":"-35.57160000"},{"name":"Juazeirinho","latitude":"-6.99463000","longitude":"-36.60213000"},{"name":"Junco do Seridó","latitude":"-6.97843000","longitude":"-36.72769000"},{"name":"Juripiranga","latitude":"-7.35000000","longitude":"-35.22087000"},{"name":"Juru","latitude":"-7.49131000","longitude":"-37.78854000"},{"name":"Lagoa","latitude":"-6.59521000","longitude":"-37.84991000"},{"name":"Lagoa Seca","latitude":"-7.17083000","longitude":"-35.85361000"},{"name":"Lagoa de Dentro","latitude":"-6.68308000","longitude":"-35.35907000"},{"name":"Lastro","latitude":"-6.53740000","longitude":"-38.18946000"},{"name":"Livramento","latitude":"-7.34008000","longitude":"-36.93209000"},{"name":"Logradouro","latitude":"-6.55268000","longitude":"-35.42864000"},{"name":"Lucena","latitude":"-6.92461000","longitude":"-34.90267000"},{"name":"Malta","latitude":"-6.90400000","longitude":"-37.51251000"},{"name":"Mamanguape","latitude":"-6.83861000","longitude":"-35.12611000"},{"name":"Manaíra","latitude":"-7.70611000","longitude":"-38.15444000"},{"name":"Marcação","latitude":"-6.74717000","longitude":"-34.99103000"},{"name":"Mari","latitude":"-7.07138000","longitude":"-35.30258000"},{"name":"Marizópolis","latitude":"-6.82133000","longitude":"-38.33496000"},{"name":"Massaranduba","latitude":"-7.20476000","longitude":"-35.78379000"},{"name":"Mataraca","latitude":"-6.55476000","longitude":"-35.03690000"},{"name":"Matinhas","latitude":"-7.12428000","longitude":"-35.76070000"},{"name":"Mato Grosso","latitude":"-6.54728000","longitude":"-37.75067000"},{"name":"Maturéia","latitude":"-7.27175000","longitude":"-37.33940000"},{"name":"Mogeiro","latitude":"-7.29944000","longitude":"-35.47944000"},{"name":"Montadas","latitude":"-7.08947000","longitude":"-35.90300000"},{"name":"Monte Horebe","latitude":"-7.20792000","longitude":"-38.52503000"},{"name":"Monteiro","latitude":"-7.91637000","longitude":"-37.17496000"},{"name":"Mulungu","latitude":"-7.02444000","longitude":"-35.46194000"},{"name":"Mãe d'Água","latitude":"-7.21990000","longitude":"-37.45284000"},{"name":"Natuba","latitude":"-7.64139000","longitude":"-35.55000000"},{"name":"Nazarezinho","latitude":"-6.91991000","longitude":"-38.32592000"},{"name":"Nova Floresta","latitude":"-6.48792000","longitude":"-36.20101000"},{"name":"Nova Olinda","latitude":"-7.45231000","longitude":"-38.01122000"},{"name":"Nova Palmeira","latitude":"-6.67346000","longitude":"-36.44186000"},{"name":"Olho d'Água","latitude":"-7.26106000","longitude":"-37.73242000"},{"name":"Olivedos","latitude":"-6.99403000","longitude":"-36.23822000"},{"name":"Ouro Velho","latitude":"-7.60554000","longitude":"-37.13565000"},{"name":"Parari","latitude":"-7.31136000","longitude":"-36.67699000"},{"name":"Passagem","latitude":"-7.11889000","longitude":"-37.03671000"},{"name":"Patos","latitude":"-7.02444000","longitude":"-37.28000000"},{"name":"Paulista","latitude":"-6.59504000","longitude":"-37.60966000"},{"name":"Pedra Branca","latitude":"-7.46068000","longitude":"-38.07996000"},{"name":"Pedra Lavrada","latitude":"-6.78024000","longitude":"-36.44200000"},{"name":"Pedras de Fogo","latitude":"-7.40194000","longitude":"-35.11639000"},{"name":"Pedro Régis","latitude":"-6.67047000","longitude":"-35.31031000"},{"name":"Piancó","latitude":"-7.19806000","longitude":"-37.92917000"},{"name":"Picuí","latitude":"-6.51056000","longitude":"-36.34694000"},{"name":"Pilar","latitude":"-7.25739000","longitude":"-35.26971000"},{"name":"Pilões","latitude":"-6.89446000","longitude":"-35.59432000"},{"name":"Pilõezinhos","latitude":"-6.85269000","longitude":"-35.54455000"},{"name":"Pirpirituba","latitude":"-6.78000000","longitude":"-35.49861000"},{"name":"Pitimbu","latitude":"-7.41381000","longitude":"-34.83686000"},{"name":"Pocinhos","latitude":"-7.07667000","longitude":"-36.06111000"},{"name":"Pombal","latitude":"-6.77028000","longitude":"-37.80167000"},{"name":"Poço Dantas","latitude":"-6.38792000","longitude":"-38.53359000"},{"name":"Poço de José de Moura","latitude":"-6.59957000","longitude":"-38.50574000"},{"name":"Prata","latitude":"-7.71250000","longitude":"-37.09411000"},{"name":"Princesa Isabel","latitude":"-7.73667000","longitude":"-37.99333000"},{"name":"Puxinanã","latitude":"-7.16111000","longitude":"-35.96056000"},{"name":"Queimadas","latitude":"-7.42696000","longitude":"-35.89774000"},{"name":"Quixaba","latitude":"-7.05081000","longitude":"-37.11783000"},{"name":"Remígio","latitude":"-6.94646000","longitude":"-35.78039000"},{"name":"Riacho de Santo Antônio","latitude":"-7.66143000","longitude":"-36.13551000"},{"name":"Riacho dos Cavalos","latitude":"-6.47140000","longitude":"-37.64024000"},{"name":"Riachão","latitude":"-6.55515000","longitude":"-35.62324000"},{"name":"Riachão do Bacamarte","latitude":"-7.26337000","longitude":"-35.67518000"},{"name":"Riachão do Poço","latitude":"-7.17041000","longitude":"-35.30300000"},{"name":"Rio Tinto","latitude":"-6.79673000","longitude":"-35.03715000"},{"name":"Salgadinho","latitude":"-7.08934000","longitude":"-36.86318000"},{"name":"Salgado de São Félix","latitude":"-7.35694000","longitude":"-35.44056000"},{"name":"Santa Cecília","latitude":"-7.72027000","longitude":"-35.93681000"},{"name":"Santa Cruz","latitude":"-6.54542000","longitude":"-38.04968000"},{"name":"Santa Helena","latitude":"-6.72745000","longitude":"-38.59506000"},{"name":"Santa Inês","latitude":"-7.68334000","longitude":"-38.59346000"},{"name":"Santa Luzia","latitude":"-6.87222000","longitude":"-36.91861000"},{"name":"Santa Rita","latitude":"-7.10437000","longitude":"-34.97387000"},{"name":"Santa Teresinha","latitude":"-7.12089000","longitude":"-37.49654000"},{"name":"Santana de Mangueira","latitude":"-7.66593000","longitude":"-38.35848000"},{"name":"Santana dos Garrotes","latitude":"-7.38163000","longitude":"-37.95386000"},{"name":"Santo André","latitude":"-7.24178000","longitude":"-36.61460000"},{"name":"Sapé","latitude":"-7.07937000","longitude":"-35.21734000"},{"name":"Serra Branca","latitude":"-6.53333000","longitude":"-38.26667000"},{"name":"Serra Grande","latitude":"-7.25090000","longitude":"-38.39588000"},{"name":"Serra Redonda","latitude":"-7.15665000","longitude":"-35.67628000"},{"name":"Serra da Raiz","latitude":"-6.69703000","longitude":"-35.43579000"},{"name":"Serraria","latitude":"-6.86365000","longitude":"-35.66926000"},{"name":"Sertãozinho","latitude":"-6.73939000","longitude":"-35.41628000"},{"name":"Sobrado","latitude":"-7.16887000","longitude":"-35.23251000"},{"name":"Soledade","latitude":"-7.05722000","longitude":"-36.36278000"},{"name":"Solânea","latitude":"-6.73321000","longitude":"-35.69495000"},{"name":"Sossêgo","latitude":"-6.67592000","longitude":"-36.17875000"},{"name":"Sousa","latitude":"-6.73098000","longitude":"-38.18614000"},{"name":"Sumé","latitude":"-7.67167000","longitude":"-36.88000000"},{"name":"São Bentinho","latitude":"-6.88452000","longitude":"-37.75898000"},{"name":"São Bento","latitude":"-6.47344000","longitude":"-37.47144000"},{"name":"São Domingos","latitude":"-6.80733000","longitude":"-37.91657000"},{"name":"São Domingos do Cariri","latitude":"-7.56749000","longitude":"-36.36393000"},{"name":"São Francisco","latitude":"-6.63302000","longitude":"-38.03780000"},{"name":"São José da Lagoa Tapada","latitude":"-6.94245000","longitude":"-38.09393000"},{"name":"São José de Caiana","latitude":"-7.25916000","longitude":"-38.34483000"},{"name":"São José de Espinharas","latitude":"-6.80244000","longitude":"-37.38224000"},{"name":"São José de Piranhas","latitude":"-7.12056000","longitude":"-38.50194000"},{"name":"São José de Princesa","latitude":"-7.70649000","longitude":"-38.08465000"},{"name":"São José do Bonfim","latitude":"-7.13715000","longitude":"-37.31607000"},{"name":"São José do Brejo do Cruz","latitude":"-6.23731000","longitude":"-37.37932000"},{"name":"São José do Sabugi","latitude":"-6.82784000","longitude":"-36.80335000"},{"name":"São José dos Cordeiros","latitude":"-7.41638000","longitude":"-36.84773000"},{"name":"São José dos Ramos","latitude":"-7.25103000","longitude":"-35.37410000"},{"name":"São João do Cariri","latitude":"-7.48465000","longitude":"-36.48602000"},{"name":"São João do Rio do Peixe","latitude":"-6.71851000","longitude":"-38.42942000"},{"name":"São João do Tigre","latitude":"-8.10906000","longitude":"-36.79766000"},{"name":"São Mamede","latitude":"-6.92111000","longitude":"-37.09131000"},{"name":"São Miguel de Taipu","latitude":"-7.21706000","longitude":"-35.20175000"},{"name":"São Sebastião de Lagoa de Roça","latitude":"-7.08497000","longitude":"-35.84445000"},{"name":"São Sebastião do Umbuzeiro","latitude":"-8.15690000","longitude":"-37.02220000"},{"name":"São Vicente do Seridó","latitude":"-6.88683000","longitude":"-36.42652000"},{"name":"Tacima","latitude":"-6.53805000","longitude":"-35.52277000"},{"name":"Taperoá","latitude":"-7.16870000","longitude":"-36.79197000"},{"name":"Tavares","latitude":"-7.61418000","longitude":"-37.87959000"},{"name":"Teixeira","latitude":"-7.24821000","longitude":"-37.27523000"},{"name":"Tenório","latitude":"-6.97568000","longitude":"-36.62216000"},{"name":"Triunfo","latitude":"-6.58475000","longitude":"-38.57827000"},{"name":"Uiraúna","latitude":"-6.49650000","longitude":"-38.38015000"},{"name":"Umbuzeiro","latitude":"-7.67111000","longitude":"-35.73927000"},{"name":"Vieirópolis","latitude":"-6.55838000","longitude":"-38.27091000"},{"name":"Vista Serrana","latitude":"-6.74167000","longitude":"-37.57597000"},{"name":"Várzea","latitude":"-6.80276000","longitude":"-37.03707000"},{"name":"Zabelê","latitude":"-8.07634000","longitude":"-37.05635000"},{"name":"Água Branca","latitude":"-7.46957000","longitude":"-37.66100000"}]