[{"name":"'t Zand","latitude":"52.83667000","longitude":"4.75556000"},{"name":"Aalsmeer","latitude":"52.25917000","longitude":"4.75972000"},{"name":"Abbekerk","latitude":"52.73167000","longitude":"5.01806000"},{"name":"Alkmaar","latitude":"52.63167000","longitude":"4.74861000"},{"name":"Amstelveen","latitude":"52.30083000","longitude":"4.86389000"},{"name":"Amsterdam","latitude":"52.37403000","longitude":"4.88969000"},{"name":"Amsterdam-Zuidoost","latitude":"52.30750000","longitude":"4.97222000"},{"name":"Ankeveense Rade","latitude":"52.25891000","longitude":"5.10160000"},{"name":"Avenhorn","latitude":"52.61750000","longitude":"4.95139000"},{"name":"Bangert","latitude":"52.73582000","longitude":"5.18010000"},{"name":"Bennebroek","latitude":"52.32083000","longitude":"4.59861000"},{"name":"Berkhout","latitude":"52.64083000","longitude":"5.00139000"},{"name":"Beverwijk","latitude":"52.48333000","longitude":"4.65694000"},{"name":"Bijvanck","latitude":"52.28585000","longitude":"5.26534000"},{"name":"Blaricum","latitude":"52.27250000","longitude":"5.24167000"},{"name":"Bloemendaal","latitude":"52.40250000","longitude":"4.62222000"},{"name":"Breezand","latitude":"52.89000000","longitude":"4.80417000"},{"name":"Broek in Waterland","latitude":"52.43417000","longitude":"4.99583000"},{"name":"Broek op Langedijk","latitude":"52.67417000","longitude":"4.80556000"},{"name":"Bussum","latitude":"52.27333000","longitude":"5.16111000"},{"name":"Callantsoog","latitude":"52.84000000","longitude":"4.69583000"},{"name":"Castricum","latitude":"52.54833000","longitude":"4.66944000"},{"name":"Commandeurs","latitude":"52.50902000","longitude":"4.65843000"},{"name":"De Glip","latitude":"52.33083000","longitude":"4.61111000"},{"name":"De Goorn","latitude":"52.62583000","longitude":"4.94722000"},{"name":"De Koog","latitude":"53.09750000","longitude":"4.76111000"},{"name":"De Maer","latitude":"52.51901000","longitude":"4.68171000"},{"name":"De Noord","latitude":"52.70750000","longitude":"4.85139000"},{"name":"De Rijp","latitude":"52.55667000","longitude":"4.84583000"},{"name":"Den Burg","latitude":"53.05417000","longitude":"4.79722000"},{"name":"Den Helder","latitude":"52.95988000","longitude":"4.75933000"},{"name":"Den Oever","latitude":"52.93353000","longitude":"5.03079000"},{"name":"Diemen","latitude":"52.33964000","longitude":"4.96256000"},{"name":"Dirkshorn","latitude":"52.75000000","longitude":"4.77500000"},{"name":"Driemond","latitude":"52.30583000","longitude":"5.01667000"},{"name":"Duivendrecht","latitude":"52.32941000","longitude":"4.93964000"},{"name":"Edam","latitude":"52.51215000","longitude":"5.04805000"},{"name":"Egmond aan Zee","latitude":"52.62040000","longitude":"4.62705000"},{"name":"Egmond-Binnen","latitude":"52.59583000","longitude":"4.65556000"},{"name":"Enkhuizen","latitude":"52.70333000","longitude":"5.29167000"},{"name":"Gemeente Aalsmeer","latitude":"52.26406000","longitude":"4.76532000"},{"name":"Gemeente Alkmaar","latitude":"52.62890000","longitude":"4.74403000"},{"name":"Gemeente Amstelveen","latitude":"52.29840000","longitude":"4.85767000"},{"name":"Gemeente Amsterdam","latitude":"52.37302000","longitude":"4.89856000"},{"name":"Gemeente Beemster","latitude":"52.55402000","longitude":"4.91810000"},{"name":"Gemeente Bergen","latitude":"52.65783000","longitude":"4.67610000"},{"name":"Gemeente Beverwijk","latitude":"52.48273000","longitude":"4.65468000"},{"name":"Gemeente Blaricum","latitude":"52.28548000","longitude":"5.26830000"},{"name":"Gemeente Bloemendaal","latitude":"52.36230000","longitude":"4.58968000"},{"name":"Gemeente Castricum","latitude":"52.55577000","longitude":"4.68945000"},{"name":"Gemeente Den Helder","latitude":"52.92366000","longitude":"4.75793000"},{"name":"Gemeente Diemen","latitude":"52.34163000","longitude":"4.96805000"},{"name":"Gemeente Drechterland","latitude":"52.66454000","longitude":"5.16569000"},{"name":"Gemeente Edam-Volendam","latitude":"52.50556000","longitude":"5.05920000"},{"name":"Gemeente Enkhuizen","latitude":"52.71653000","longitude":"5.27615000"},{"name":"Gemeente Haarlem","latitude":"52.38074000","longitude":"4.64400000"},{"name":"Gemeente Haarlemmermeer","latitude":"52.30623000","longitude":"4.68418000"},{"name":"Gemeente Heemskerk","latitude":"52.50945000","longitude":"4.65386000"},{"name":"Gemeente Heemstede","latitude":"52.34719000","longitude":"4.61838000"},{"name":"Gemeente Heerhugowaard","latitude":"52.68210000","longitude":"4.84363000"},{"name":"Gemeente Heiloo","latitude":"52.60122000","longitude":"4.70945000"},{"name":"Gemeente Hilversum","latitude":"52.22252000","longitude":"5.16789000"},{"name":"Gemeente Hollands Kroon","latitude":"52.84882000","longitude":"4.90711000"},{"name":"Gemeente Hoorn","latitude":"52.64312000","longitude":"5.05779000"},{"name":"Gemeente Huizen","latitude":"52.29664000","longitude":"5.24132000"},{"name":"Gemeente Koggenland","latitude":"52.64163000","longitude":"4.94909000"},{"name":"Gemeente Landsmeer","latitude":"52.43100000","longitude":"4.91570000"},{"name":"Gemeente Langedijk","latitude":"52.69151000","longitude":"4.78659000"},{"name":"Gemeente Laren","latitude":"52.24518000","longitude":"5.21701000"},{"name":"Gemeente Medemblik","latitude":"52.72496000","longitude":"5.12204000"},{"name":"Gemeente Oostzaan","latitude":"52.43780000","longitude":"4.87604000"},{"name":"Gemeente Opmeer","latitude":"52.71468000","longitude":"4.95334000"},{"name":"Gemeente Ouder-Amstel","latitude":"52.30659000","longitude":"4.91432000"},{"name":"Gemeente Purmerend","latitude":"52.50515000","longitude":"4.95243000"},{"name":"Gemeente Schagen","latitude":"52.78823000","longitude":"4.79965000"},{"name":"Gemeente Stede Broec","latitude":"52.69617000","longitude":"5.22389000"},{"name":"Gemeente Texel","latitude":"53.07883000","longitude":"4.81166000"},{"name":"Gemeente Uitgeest","latitude":"52.52855000","longitude":"4.71176000"},{"name":"Gemeente Uithoorn","latitude":"52.23999000","longitude":"4.83072000"},{"name":"Gemeente Velsen","latitude":"52.45182000","longitude":"4.63211000"},{"name":"Gemeente Waterland","latitude":"52.43760000","longitude":"5.01371000"},{"name":"Gemeente Weesp","latitude":"52.30575000","longitude":"5.04152000"},{"name":"Gemeente Wijdemeren","latitude":"52.22756000","longitude":"5.08445000"},{"name":"Gemeente Wormerland","latitude":"52.49700000","longitude":"4.83364000"},{"name":"Gemeente Zaanstad","latitude":"52.45308000","longitude":"4.81253000"},{"name":"Gemeente Zandvoort","latitude":"52.35769000","longitude":"4.54388000"},{"name":"Gooise Meren","latitude":"52.29735000","longitude":"5.13371000"},{"name":"Haarlem","latitude":"52.38084000","longitude":"4.63683000"},{"name":"Halfweg","latitude":"52.38250000","longitude":"4.75417000"},{"name":"Harenkarspel","latitude":"52.73416000","longitude":"4.77682000"},{"name":"Heemskerk","latitude":"52.51108000","longitude":"4.67165000"},{"name":"Heemstede","latitude":"52.34992000","longitude":"4.62301000"},{"name":"Heerhugowaard","latitude":"52.67144000","longitude":"4.84862000"},{"name":"Heiloo","latitude":"52.60252000","longitude":"4.68815000"},{"name":"Hem","latitude":"52.66083000","longitude":"5.18333000"},{"name":"Hensbroek","latitude":"52.65833000","longitude":"4.88472000"},{"name":"Hilversum","latitude":"52.22333000","longitude":"5.17639000"},{"name":"Hilversumse Meent","latitude":"52.27115000","longitude":"5.13729000"},{"name":"Hippolytushoef","latitude":"52.90750000","longitude":"4.96250000"},{"name":"Hofgeest","latitude":"52.44333000","longitude":"4.65833000"},{"name":"Hoofddorp","latitude":"52.30250000","longitude":"4.68889000"},{"name":"Hoogwoud","latitude":"52.71583000","longitude":"4.93889000"},{"name":"Hoorn","latitude":"52.64250000","longitude":"5.05972000"},{"name":"Huizen","latitude":"52.29917000","longitude":"5.24167000"},{"name":"Ilpendam","latitude":"52.46333000","longitude":"4.95000000"},{"name":"Kadoelen","latitude":"52.41750000","longitude":"4.90561000"},{"name":"Kerkelanden","latitude":"52.21755000","longitude":"5.13575000"},{"name":"Kortenhoef","latitude":"52.23917000","longitude":"5.10694000"},{"name":"Kudelstaart","latitude":"52.23417000","longitude":"4.75139000"},{"name":"Landsmeer","latitude":"52.43083000","longitude":"4.91528000"},{"name":"Langeheit","latitude":"52.49200000","longitude":"4.75849000"},{"name":"Laren","latitude":"52.25667000","longitude":"5.22778000"},{"name":"Limmen","latitude":"52.56917000","longitude":"4.69444000"},{"name":"Lisserbroek","latitude":"52.25667000","longitude":"4.57222000"},{"name":"Lutjebroek","latitude":"52.69750000","longitude":"5.20417000"},{"name":"Marken","latitude":"52.45833000","longitude":"5.10278000"},{"name":"Medemblik","latitude":"52.77167000","longitude":"5.10556000"},{"name":"Middenbeemster","latitude":"52.54917000","longitude":"4.91250000"},{"name":"Middenmeer","latitude":"52.80667000","longitude":"4.99861000"},{"name":"Midwoud","latitude":"52.71667000","longitude":"5.07500000"},{"name":"Monnickendam","latitude":"52.45833000","longitude":"5.03750000"},{"name":"Muiden","latitude":"52.33000000","longitude":"5.06944000"},{"name":"Muiderberg","latitude":"52.32583000","longitude":"5.12083000"},{"name":"Naarden","latitude":"52.29583000","longitude":"5.16250000"},{"name":"Nieuw-Loosdrecht","latitude":"52.19917000","longitude":"5.13889000"},{"name":"Nieuwe-Niedorp","latitude":"52.74000000","longitude":"4.89861000"},{"name":"Noord-Scharwoude","latitude":"52.69833000","longitude":"4.81111000"},{"name":"Obdam","latitude":"52.67583000","longitude":"4.90694000"},{"name":"Onderdijk","latitude":"52.74333000","longitude":"5.13750000"},{"name":"Oosteinde","latitude":"52.27917000","longitude":"4.79583000"},{"name":"Oosterblokker","latitude":"52.66917000","longitude":"5.11806000"},{"name":"Oosterzij","latitude":"52.58500000","longitude":"4.70556000"},{"name":"Oosthuizen","latitude":"52.57250000","longitude":"4.99583000"},{"name":"Opmeer","latitude":"52.70667000","longitude":"4.94444000"},{"name":"Opperdoes","latitude":"52.75915000","longitude":"5.07534000"},{"name":"Oud-Loosdrecht","latitude":"52.20667000","longitude":"5.08056000"},{"name":"Ouderkerk aan de Amstel","latitude":"52.29504000","longitude":"4.90746000"},{"name":"Oudeschild","latitude":"53.03917000","longitude":"4.84722000"},{"name":"Oudkarspel","latitude":"52.71583000","longitude":"4.80556000"},{"name":"Overveen","latitude":"52.39167000","longitude":"4.61389000"},{"name":"Petten","latitude":"52.76667000","longitude":"4.66111000"},{"name":"Purmerend","latitude":"52.50500000","longitude":"4.95972000"},{"name":"Schagen","latitude":"52.78750000","longitude":"4.79861000"},{"name":"Schagerbrug","latitude":"52.80250000","longitude":"4.75833000"},{"name":"Schermerhorn","latitude":"52.60083000","longitude":"4.89167000"},{"name":"Sint Pancras","latitude":"52.66000000","longitude":"4.78333000"},{"name":"Slootdorp","latitude":"52.84250000","longitude":"4.97222000"},{"name":"Spierdijk","latitude":"52.65083000","longitude":"4.94306000"},{"name":"Stompetoren","latitude":"52.61333000","longitude":"4.82083000"},{"name":"Twisk","latitude":"52.74083000","longitude":"5.05278000"},{"name":"Uitgeest","latitude":"52.52917000","longitude":"4.70972000"},{"name":"Uithoorn","latitude":"52.23750000","longitude":"4.82639000"},{"name":"Velsen-Zuid","latitude":"52.46000000","longitude":"4.65000000"},{"name":"Vijfhuizen","latitude":"52.35083000","longitude":"4.67778000"},{"name":"Vogelenzang","latitude":"52.31917000","longitude":"4.57778000"},{"name":"Volendam","latitude":"52.49500000","longitude":"5.07083000"},{"name":"Waarland","latitude":"52.72667000","longitude":"4.83194000"},{"name":"Waterakkers","latitude":"52.50440000","longitude":"4.65608000"},{"name":"Weesp","latitude":"52.30750000","longitude":"5.04167000"},{"name":"Westwoud","latitude":"52.68500000","longitude":"5.13472000"},{"name":"Wieringerwaard","latitude":"52.83583000","longitude":"4.86528000"},{"name":"Wieringerwerf","latitude":"52.85083000","longitude":"5.02639000"},{"name":"Wijdenes","latitude":"52.63500000","longitude":"5.15694000"},{"name":"Wijk aan Zee","latitude":"52.49360000","longitude":"4.59409000"},{"name":"Winkel","latitude":"52.75417000","longitude":"4.90278000"},{"name":"Zaandam","latitude":"52.43854000","longitude":"4.82643000"},{"name":"Zaandijk","latitude":"52.47494000","longitude":"4.80686000"},{"name":"Zaanstad","latitude":"52.45313000","longitude":"4.81356000"},{"name":"Zandvoort","latitude":"52.37125000","longitude":"4.53306000"},{"name":"Zuid-Scharwoude","latitude":"52.68667000","longitude":"4.80833000"},{"name":"Zwaagdijk-Oost","latitude":"52.70750000","longitude":"5.14028000"},{"name":"Zwaanshoek","latitude":"52.31250000","longitude":"4.61667000"}]