[{"name":"Agirish","latitude":"61.92472000","longitude":"63.02306000"},{"name":"Andra","latitude":"62.51472000","longitude":"65.88778000"},{"name":"Barsovo","latitude":"61.16667000","longitude":"73.16667000"},{"name":"Beloyarskiy","latitude":"63.71194000","longitude":"66.67222000"},{"name":"Berëzovo","latitude":"63.93806000","longitude":"65.04194000"},{"name":"Fedorovskiy","latitude":"61.60630000","longitude":"73.71415000"},{"name":"Gornopravdinsk","latitude":"60.05000000","longitude":"69.90000000"},{"name":"Igrim","latitude":"63.19060000","longitude":"64.41620000"},{"name":"Izluchinsk","latitude":"60.97944000","longitude":"76.92421000"},{"name":"Khanty-Mansiysk","latitude":"61.00417000","longitude":"69.00194000"},{"name":"Khulimsunt","latitude":"62.86333000","longitude":"61.64361000"},{"name":"Kogalym","latitude":"62.26537000","longitude":"74.47906000"},{"name":"Kommunisticheskiy","latitude":"61.67889000","longitude":"64.48194000"},{"name":"Kondinskoye","latitude":"59.64806000","longitude":"67.41000000"},{"name":"Kuminskiy","latitude":"58.66667000","longitude":"66.56667000"},{"name":"Langepas","latitude":"61.25439000","longitude":"75.21240000"},{"name":"Lokosovo","latitude":"61.13333000","longitude":"74.81667000"},{"name":"Lyantor","latitude":"61.61945000","longitude":"72.15546000"},{"name":"Malinovskiy","latitude":"61.19528000","longitude":"62.83972000"},{"name":"Megion","latitude":"61.02960000","longitude":"76.11360000"},{"name":"Mezhdurechenskiy","latitude":"59.60000000","longitude":"65.93333000"},{"name":"Mortka","latitude":"59.33222000","longitude":"66.02139000"},{"name":"Nefteyugansk","latitude":"61.09979000","longitude":"72.60349000"},{"name":"Nizhnesortymskiy","latitude":"62.43965000","longitude":"71.76029000"},{"name":"Nizhnevartovsk","latitude":"60.93440000","longitude":"76.55310000"},{"name":"Novoagansk","latitude":"61.94490000","longitude":"76.66250000"},{"name":"Nyagan","latitude":"62.14056000","longitude":"65.39361000"},{"name":"Pionerskiy","latitude":"61.19472000","longitude":"62.86889000"},{"name":"Pokachi","latitude":"61.71982000","longitude":"75.36827000"},{"name":"Poykovskiy","latitude":"61.23333000","longitude":"73.33333000"},{"name":"Priob’ye","latitude":"62.52056000","longitude":"65.59639000"},{"name":"Pyt-Yakh","latitude":"60.74985000","longitude":"72.85824000"},{"name":"Raduzhny","latitude":"62.09611000","longitude":"77.47500000"},{"name":"Russkinskiye","latitude":"62.15380000","longitude":"73.60102000"},{"name":"Salym","latitude":"60.06250000","longitude":"71.47889000"},{"name":"Saranpaul’","latitude":"64.26102000","longitude":"60.90233000"},{"name":"Sherkaly","latitude":"62.75806000","longitude":"65.47528000"},{"name":"Singapay","latitude":"61.15452000","longitude":"72.66072000"},{"name":"Solnechniy","latitude":"61.27944000","longitude":"73.18139000"},{"name":"Sovetskiy","latitude":"61.36139000","longitude":"63.58417000"},{"name":"Surgut","latitude":"61.25000000","longitude":"73.41667000"},{"name":"Uray","latitude":"60.13044000","longitude":"64.78896000"},{"name":"Yugorsk","latitude":"61.31226000","longitude":"63.33067000"},{"name":"Zelenoborsk","latitude":"61.47088000","longitude":"64.04344000"}]