[{"name":"Atlit","latitude":"32.68889000","longitude":"34.94236000"},{"name":"Caesarea","latitude":"32.51888000","longitude":"34.90459000"},{"name":"Daliyat al Karmel","latitude":"32.69383000","longitude":"35.04686000"},{"name":"El Fureidīs","latitude":"32.59812000","longitude":"34.95153000"},{"name":"Hadera","latitude":"32.44192000","longitude":"34.90390000"},{"name":"Haifa","latitude":"32.81841000","longitude":"34.98850000"},{"name":"Ibṭīn","latitude":"32.76150000","longitude":"35.11402000"},{"name":"Nesher","latitude":"32.76622000","longitude":"35.04425000"},{"name":"Qiryat Ata","latitude":"32.81149000","longitude":"35.11323000"},{"name":"Qiryat Bialik","latitude":"32.82750000","longitude":"35.08583000"},{"name":"Qiryat Moẕqin","latitude":"32.83706000","longitude":"35.07760000"},{"name":"Qiryat Yam","latitude":"32.84966000","longitude":"35.06973000"},{"name":"Rekhasim","latitude":"32.74907000","longitude":"35.09901000"},{"name":"Tirat Karmel","latitude":"32.76021000","longitude":"34.97183000"},{"name":"Umm el Faḥm","latitude":"32.51725000","longitude":"35.15349000"}]