[{"name":"Gamba","latitude":"-5.90000000","longitude":"39.30000000"},{"name":"Kijini","latitude":"-5.85000000","longitude":"39.31667000"},{"name":"Kiwengwa","latitude":"-5.98957000","longitude":"39.37680000"},{"name":"Mkokotoni","latitude":"-5.87506000","longitude":"39.25523000"},{"name":"Nungwi","latitude":"-5.72651000","longitude":"39.29870000"}]