[{"name":"Aira Shi","latitude":"31.78460000","longitude":"130.60668000"},{"name":"Akune","latitude":"32.01667000","longitude":"130.20000000"},{"name":"Akune Shi","latitude":"32.02516000","longitude":"130.19768000"},{"name":"Amami","latitude":"28.37690000","longitude":"129.49379000"},{"name":"Amami Shi","latitude":"28.34542000","longitude":"129.50221000"},{"name":"Hamanoichi","latitude":"31.71667000","longitude":"130.73333000"},{"name":"Hioki","latitude":"31.58333000","longitude":"130.35000000"},{"name":"Hioki Shi","latitude":"31.59929000","longitude":"130.38208000"},{"name":"Ibusuki","latitude":"31.23333000","longitude":"130.65000000"},{"name":"Ibusuki Shi","latitude":"31.22962000","longitude":"130.58060000"},{"name":"Ichikikushikino Shi","latitude":"31.73281000","longitude":"130.28893000"},{"name":"Ijūin","latitude":"31.61667000","longitude":"130.40000000"},{"name":"Isa Shi","latitude":"32.05835000","longitude":"130.60104000"},{"name":"Izumi","latitude":"32.08333000","longitude":"130.36667000"},{"name":"Izumi Shi","latitude":"32.06412000","longitude":"130.36097000"},{"name":"Kagoshima","latitude":"31.56667000","longitude":"130.55000000"},{"name":"Kagoshima Shi","latitude":"31.58003000","longitude":"130.52806000"},{"name":"Kajiki","latitude":"31.73333000","longitude":"130.66667000"},{"name":"Kanoya","latitude":"31.38333000","longitude":"130.85000000"},{"name":"Kanoya Shi","latitude":"31.42664000","longitude":"130.86735000"},{"name":"Kaseda-shirakame","latitude":"31.41667000","longitude":"130.31667000"},{"name":"Kirishima Shi","latitude":"31.80558000","longitude":"130.78164000"},{"name":"Kokubu-matsuki","latitude":"31.73333000","longitude":"130.76667000"},{"name":"Koseda","latitude":"30.38796000","longitude":"130.64924000"},{"name":"Koshima","latitude":"30.23461000","longitude":"130.53517000"},{"name":"Kurio","latitude":"30.27123000","longitude":"130.42360000"},{"name":"Kushikino","latitude":"31.71667000","longitude":"130.26667000"},{"name":"Makurazaki","latitude":"31.26667000","longitude":"130.31667000"},{"name":"Makurazaki Shi","latitude":"31.29139000","longitude":"130.30681000"},{"name":"Minamikyushu Shi","latitude":"31.34038000","longitude":"130.43677000"},{"name":"Minamisatsuma Shi","latitude":"31.38793000","longitude":"130.26961000"},{"name":"Miyanoura","latitude":"30.42690000","longitude":"130.57151000"},{"name":"Nagata","latitude":"30.39516000","longitude":"130.42548000"},{"name":"Naze","latitude":"28.36667000","longitude":"129.48333000"},{"name":"Nishinoomote","latitude":"30.73333000","longitude":"131.00000000"},{"name":"Nishinoomote Shi","latitude":"30.70536000","longitude":"131.01521000"},{"name":"Satsumasendai","latitude":"31.81667000","longitude":"130.30000000"},{"name":"Satsumasendai Shi","latitude":"31.82376000","longitude":"130.25899000"},{"name":"Shibushi","latitude":"31.47600000","longitude":"131.10114000"},{"name":"Shibushi-shi","latitude":"31.48333000","longitude":"131.10000000"},{"name":"Soo Shi","latitude":"31.65615000","longitude":"130.97470000"},{"name":"Sueyoshichō-ninokata","latitude":"31.65000000","longitude":"131.01667000"},{"name":"Tarumizu","latitude":"31.48333000","longitude":"130.70000000"},{"name":"Tarumizu Shi","latitude":"31.51583000","longitude":"130.76046000"},{"name":"Yudomari","latitude":"30.23470000","longitude":"130.47942000"},{"name":"Ōkuchi-shinohara","latitude":"32.06779000","longitude":"130.62439000"}]