[{"name":"Azua Province","countryCode":"DO","fipsCode":"01","iso":"02","latitude":"18.45527090","longitude":"-70.73809280"},{"name":"Baoruco Province","countryCode":"DO","fipsCode":"02","iso":"03","latitude":"18.48798980","longitude":"-71.41822490"},{"name":"Barahona Province","countryCode":"DO","fipsCode":"03","iso":"04","latitude":"18.21390660","longitude":"-71.10437590"},{"name":"Dajabón Province","countryCode":"DO","fipsCode":"04","iso":"05","latitude":"19.54992410","longitude":"-71.70865140"},{"name":"Distrito Nacional","countryCode":"DO","fipsCode":"34","iso":"01","latitude":"18.48605750","longitude":"-69.93121170"},{"name":"Duarte Province","countryCode":"DO","fipsCode":"06","iso":"06","latitude":"19.20908230","longitude":"-70.02700040"},{"name":"El Seibo Province","countryCode":"DO","fipsCode":"28","iso":"08","latitude":"18.76584960","longitude":"-69.04066800"},{"name":"Espaillat Province","countryCode":"DO","fipsCode":"08","iso":"09","latitude":"19.62776580","longitude":"-70.27867750"},{"name":"Hato Mayor Province","countryCode":"DO","fipsCode":"29","iso":"30","latitude":"18.76357990","longitude":"-69.25576370"},{"name":"Hermanas Mirabal Province","countryCode":"DO","fipsCode":"19","iso":"19","latitude":"19.37475590","longitude":"-70.35132350"},{"name":"Independencia","countryCode":"DO","fipsCode":"09","iso":"10","latitude":"32.63357480","longitude":"-115.42892940"},{"name":"La Altagracia Province","countryCode":"DO","fipsCode":"10","iso":"11","latitude":"18.58502360","longitude":"-68.62010720"},{"name":"La Romana Province","countryCode":"DO","fipsCode":"12","iso":"12","latitude":"18.43102710","longitude":"-68.98373730"},{"name":"La Vega Province","countryCode":"DO","fipsCode":"30","iso":"13","latitude":"19.22115540","longitude":"-70.52887530"},{"name":"María Trinidad Sánchez Province","countryCode":"DO","fipsCode":"14","iso":"14","latitude":"19.37345970","longitude":"-69.85144390"},{"name":"Monseñor Nouel Province","countryCode":"DO","fipsCode":"31","iso":"28","latitude":"18.92152340","longitude":"-70.38368150"},{"name":"Monte Cristi Province","countryCode":"DO","fipsCode":"15","iso":"15","latitude":"19.73968990","longitude":"-71.44339840"},{"name":"Monte Plata Province","countryCode":"DO","fipsCode":"32","iso":"29","latitude":"18.80808780","longitude":"-69.78691460"},{"name":"Pedernales Province","countryCode":"DO","fipsCode":"16","iso":"16","latitude":"17.85376260","longitude":"-71.33032090"},{"name":"Peravia Province","countryCode":"DO","fipsCode":"35","iso":"17","latitude":"18.27865940","longitude":"-70.33358870"},{"name":"Puerto Plata Province","countryCode":"DO","fipsCode":"18","iso":"18","latitude":"19.75432250","longitude":"-70.83328470"},{"name":"Samaná Province","countryCode":"DO","fipsCode":"20","iso":"20","latitude":"19.20583710","longitude":"-69.33629490"},{"name":"San Cristóbal Province","countryCode":"DO","fipsCode":"33","iso":"21","latitude":"18.41804140","longitude":"-70.10658490"},{"name":"San José de Ocoa Province","countryCode":"DO","fipsCode":"36","iso":"31","latitude":"18.54385800","longitude":"-70.50418160"},{"name":"San Juan Province","countryCode":"DO","fipsCode":"23","iso":"22","latitude":"-31.52871270","longitude":"-68.53604030"},{"name":"San Pedro de Macorís","countryCode":"DO","fipsCode":"24","iso":"23","latitude":"18.46266000","longitude":"-69.30512340"},{"name":"Santiago Province","countryCode":"DO","fipsCode":"25","iso":"25","latitude":"-33.45000000","longitude":"-70.66670000"},{"name":"Santiago Rodríguez Province","countryCode":"DO","fipsCode":"26","iso":"26","latitude":"19.47131810","longitude":"-71.33958010"},{"name":"Santo Domingo Province","countryCode":"DO","fipsCode":"37","iso":"32","latitude":"18.51042530","longitude":"-69.84040540"},{"name":"Sánchez Ramírez Province","countryCode":"DO","fipsCode":"21","iso":"24","latitude":"19.05270600","longitude":"-70.14922640"},{"name":"Valverde Province","countryCode":"DO","fipsCode":"27","iso":"27","latitude":"19.58812210","longitude":"-70.98033100"}]