[{"name":"Adyge-Khabl’","latitude":"44.33434000","longitude":"41.93922000"},{"name":"Ali-Berdukovskiy","latitude":"43.98952000","longitude":"41.74212000"},{"name":"Besleney","latitude":"44.24050000","longitude":"41.73870000"},{"name":"Cherkessk","latitude":"44.22333000","longitude":"42.05778000"},{"name":"Druzhba","latitude":"44.19530000","longitude":"42.01700000"},{"name":"Ikon-Khalk","latitude":"44.30510000","longitude":"41.91420000"},{"name":"Ispravnaya","latitude":"44.06820000","longitude":"41.61020000"},{"name":"Karachayevsk","latitude":"43.77399000","longitude":"41.91419000"},{"name":"Karachayevskiy Rayon","latitude":"43.50000000","longitude":"42.00000000"},{"name":"Kardonikskaya","latitude":"43.86577000","longitude":"41.71432000"},{"name":"Kavkazskiy","latitude":"44.26720000","longitude":"42.23470000"},{"name":"Khabez","latitude":"44.04340000","longitude":"41.77200000"},{"name":"Krasnyy Kurgan","latitude":"43.94222000","longitude":"42.61083000"},{"name":"Kumysh","latitude":"43.88334000","longitude":"41.89323000"},{"name":"Kurdzhinovo","latitude":"43.98838000","longitude":"40.95519000"},{"name":"Kyzyl-Oktyabr’skiy","latitude":"43.82570000","longitude":"41.78605000"},{"name":"Malokarachayevskiy Rayon","latitude":"43.75000000","longitude":"42.50000000"},{"name":"Mednogorskiy","latitude":"43.91780000","longitude":"41.18255000"},{"name":"Nizhniy Arkhyz","latitude":"43.67817000","longitude":"41.45977000"},{"name":"Novyy Karachay","latitude":"43.82076000","longitude":"41.90322000"},{"name":"Ordzhonikidzevskiy","latitude":"43.84233000","longitude":"41.89636000"},{"name":"Pervomayskoye","latitude":"43.93847000","longitude":"42.47600000"},{"name":"Pravokubanskiy","latitude":"43.91721000","longitude":"41.88413000"},{"name":"Pregradnaya","latitude":"43.95395000","longitude":"41.18910000"},{"name":"Prikubanskiy Rayon","latitude":"44.08333000","longitude":"42.00000000"},{"name":"Psyzh","latitude":"44.23306000","longitude":"42.01833000"},{"name":"Sary-Tyuz","latitude":"43.90181000","longitude":"41.89523000"},{"name":"Storozhevaya","latitude":"43.87886000","longitude":"41.45143000"},{"name":"Tereze","latitude":"43.93608000","longitude":"42.44340000"},{"name":"Uchkeken","latitude":"43.93778000","longitude":"42.51167000"},{"name":"Uchkulan","latitude":"43.45705000","longitude":"42.09643000"},{"name":"Udarnyy","latitude":"44.34917000","longitude":"42.50528000"},{"name":"Ust’-Dzheguta","latitude":"44.08340000","longitude":"41.97630000"},{"name":"Zelenchukskaya","latitude":"43.85804000","longitude":"41.58940000"}]