[{"name":"Agryz","latitude":"56.52034000","longitude":"52.99422000"},{"name":"Agryzskiy Rayon","latitude":"56.25000000","longitude":"52.83333000"},{"name":"Aksubayevskiy Rayon","latitude":"54.83333000","longitude":"50.83333000"},{"name":"Aktanysh","latitude":"55.72156000","longitude":"54.08293000"},{"name":"Aktanyshskiy Rayon","latitude":"55.75000000","longitude":"53.83333000"},{"name":"Aktyubinskiy","latitude":"54.81372000","longitude":"52.80559000"},{"name":"Alekseyevskiy Rayon","latitude":"55.16667000","longitude":"50.00000000"},{"name":"Alekseyevskoye","latitude":"55.30706000","longitude":"50.11353000"},{"name":"Al’keyevskiy Rayon","latitude":"54.91667000","longitude":"50.00000000"},{"name":"Al’met’yevsk","latitude":"54.90442000","longitude":"52.31540000"},{"name":"Al’met’yevskiy Rayon","latitude":"54.91667000","longitude":"52.41667000"},{"name":"Apastovo","latitude":"55.20293000","longitude":"48.51091000"},{"name":"Apastovskiy Rayon","latitude":"55.25000000","longitude":"48.50000000"},{"name":"Arsk","latitude":"56.09151000","longitude":"49.87783000"},{"name":"Arskiy Rayon","latitude":"56.16667000","longitude":"49.91667000"},{"name":"Atninskiy Rayon","latitude":"56.25000000","longitude":"49.41667000"},{"name":"Aysha","latitude":"55.87035000","longitude":"48.63187000"},{"name":"Aznakayevskiy Rayon","latitude":"54.91667000","longitude":"53.00000000"},{"name":"Baltasi","latitude":"56.34620000","longitude":"50.20620000"},{"name":"Baltasinskiy Rayon","latitude":"56.33333000","longitude":"50.25000000"},{"name":"Bavlinskiy Rayon","latitude":"54.25000000","longitude":"53.25000000"},{"name":"Bavly","latitude":"54.39304000","longitude":"53.26023000"},{"name":"Bazarnyye Mataki","latitude":"54.88333000","longitude":"49.93333000"},{"name":"Bilyarsk","latitude":"54.98358000","longitude":"50.38671000"},{"name":"Bogatyye Saby","latitude":"56.01020000","longitude":"50.44830000"},{"name":"Bolgar","latitude":"54.95000000","longitude":"49.06667000"},{"name":"Bugul’ma","latitude":"54.53780000","longitude":"52.79850000"},{"name":"Bugul’minskiy Rayon","latitude":"54.58333000","longitude":"52.91667000"},{"name":"Buinsk","latitude":"54.97119000","longitude":"48.29184000"},{"name":"Buinskiy Rayon","latitude":"55.00000000","longitude":"48.25000000"},{"name":"Cheremshan","latitude":"54.66667000","longitude":"51.50000000"},{"name":"Cheremshanskiy Rayon","latitude":"54.75000000","longitude":"51.50000000"},{"name":"Chistopol’","latitude":"55.36311000","longitude":"50.64244000"},{"name":"Chistopol’skiy Rayon","latitude":"55.33333000","longitude":"50.75000000"},{"name":"Drozhzhanovskiy Rayon","latitude":"54.75000000","longitude":"47.58333000"},{"name":"Dzhalil’","latitude":"55.02390000","longitude":"52.73580000"},{"name":"Gorod Buinsk","latitude":"54.96694000","longitude":"48.28500000"},{"name":"Gorod Kazan’","latitude":"55.75000000","longitude":"49.13333000"},{"name":"Gorod Nizhnekamsk","latitude":"55.63333000","longitude":"51.81667000"},{"name":"Gorod Yelabuga","latitude":"55.75000000","longitude":"52.06667000"},{"name":"Gorod Zainsk","latitude":"55.31667000","longitude":"52.05000000"},{"name":"Gorod Zelënodol’sk","latitude":"55.83333000","longitude":"48.50000000"},{"name":"Kamsko-Ust’inskiy Rayon","latitude":"55.16667000","longitude":"49.00000000"},{"name":"Karabash","latitude":"54.69300000","longitude":"52.58359000"},{"name":"Kaybitskiy Rayon","latitude":"55.41667000","longitude":"48.16667000"},{"name":"Kazan","latitude":"55.78874000","longitude":"49.12214000"},{"name":"Kukmor","latitude":"56.18550000","longitude":"50.89440000"},{"name":"Kukmorskiy Rayon","latitude":"56.25000000","longitude":"50.66667000"},{"name":"Kuybyshevskiy Zaton","latitude":"55.15930000","longitude":"49.17010000"},{"name":"Laishevo","latitude":"55.40464000","longitude":"49.55037000"},{"name":"Laishevskiy Rayon","latitude":"55.50000000","longitude":"49.58333000"},{"name":"Leninogorsk","latitude":"54.60256000","longitude":"52.46087000"},{"name":"Leninogorskiy Rayon","latitude":"54.58333000","longitude":"52.08333000"},{"name":"Lubyany","latitude":"56.03780000","longitude":"51.40001000"},{"name":"Mamadysh","latitude":"55.71525000","longitude":"51.40797000"},{"name":"Mamadyshskiy Rayon","latitude":"55.66667000","longitude":"51.25000000"},{"name":"Mendeleyevsk","latitude":"55.90819000","longitude":"52.29047000"},{"name":"Mendeleyevskiy Rayon","latitude":"55.91667000","longitude":"52.33333000"},{"name":"Menzelinsk","latitude":"55.72706000","longitude":"53.10258000"},{"name":"Menzelinskiy Rayon","latitude":"55.75000000","longitude":"53.00000000"},{"name":"Muslyumovo","latitude":"55.30333000","longitude":"53.19472000"},{"name":"Muslyumovskiy Rayon","latitude":"55.25000000","longitude":"53.25000000"},{"name":"Naberezhnyye Chelny","latitude":"55.72545000","longitude":"52.41122000"},{"name":"Nizhnekamsk","latitude":"55.63657000","longitude":"51.82447000"},{"name":"Nizhnekamskiy Rayon","latitude":"55.41667000","longitude":"51.58333000"},{"name":"Nizhniye Vyazovyye","latitude":"55.79877000","longitude":"48.52476000"},{"name":"Nizhnyaya Maktama","latitude":"54.86356000","longitude":"52.42810000"},{"name":"Novosheshminsk","latitude":"55.06513000","longitude":"51.23376000"},{"name":"Novosheshminskiy Rayon","latitude":"55.08333000","longitude":"51.25000000"},{"name":"Nurlat","latitude":"54.42766000","longitude":"50.80511000"},{"name":"Nurlatskiy rayon","latitude":"54.50000000","longitude":"50.75000000"},{"name":"Osinovo","latitude":"55.88090000","longitude":"48.88100000"},{"name":"Pestrechinskiy Rayon","latitude":"55.75000000","longitude":"49.75000000"},{"name":"Pestretsy","latitude":"55.75313000","longitude":"49.65454000"},{"name":"Russkiy Aktash","latitude":"55.03840000","longitude":"52.12140000"},{"name":"Rybnaya Sloboda","latitude":"55.46129000","longitude":"50.14090000"},{"name":"Rybno-Slobodskiy Rayon","latitude":"55.58333000","longitude":"50.16667000"},{"name":"Sabinskiy Rayon","latitude":"56.00000000","longitude":"50.50000000"},{"name":"Sarmanovo","latitude":"55.25529000","longitude":"52.58907000"},{"name":"Sarmanovskiy Rayon","latitude":"55.25000000","longitude":"52.58333000"},{"name":"Shemordan","latitude":"56.18560000","longitude":"50.39720000"},{"name":"Shugurovo","latitude":"54.50828000","longitude":"52.13265000"},{"name":"Spasskiy Rayon","latitude":"55.00000000","longitude":"49.50000000"},{"name":"Staroye Arakchino","latitude":"55.80410000","longitude":"48.97090000"},{"name":"Staroye Drozhzhanoye","latitude":"54.72657000","longitude":"47.56766000"},{"name":"Stolbishchi","latitude":"55.64679000","longitude":"49.21595000"},{"name":"Sviyazhsk","latitude":"55.77329000","longitude":"48.66051000"},{"name":"Tetyushi","latitude":"54.93821000","longitude":"48.83656000"},{"name":"Tetyushskiy Rayon","latitude":"55.00000000","longitude":"48.75000000"},{"name":"Tukayevskiy Rayon","latitude":"55.66667000","longitude":"52.25000000"},{"name":"Tyulyachi","latitude":"55.89125000","longitude":"50.23992000"},{"name":"Tyulyachinskiy Rayon","latitude":"55.91667000","longitude":"50.25000000"},{"name":"Urussu","latitude":"54.59812000","longitude":"53.46313000"},{"name":"Vasil’yevo","latitude":"55.83595000","longitude":"48.65820000"},{"name":"Verkhneuslonskiy Rayon","latitude":"55.66667000","longitude":"48.75000000"},{"name":"Verkhniy Uslon","latitude":"55.77010000","longitude":"48.98230000"},{"name":"Vysokaya Gora","latitude":"55.91278000","longitude":"49.30167000"},{"name":"Vysokogorskiy Rayon","latitude":"55.90000000","longitude":"49.31667000"},{"name":"Yelabuga","latitude":"55.76127000","longitude":"52.06493000"},{"name":"Yelabuzhskiy Rayon","latitude":"55.83333000","longitude":"51.83333000"},{"name":"Yutazinskiy Rayon","latitude":"54.66667000","longitude":"53.50000000"},{"name":"Zainsk","latitude":"55.31950000","longitude":"52.06942000"},{"name":"Zainskiy Rayon","latitude":"55.30000000","longitude":"52.00000000"},{"name":"Zelenodolsk","latitude":"55.84376000","longitude":"48.51784000"},{"name":"Zelenodol’skiy Rayon","latitude":"55.91667000","longitude":"48.75000000"}]