[{"name":"Bogyiszló","latitude":"46.38638000","longitude":"18.82962000"},{"name":"Bonyhád","latitude":"46.29921000","longitude":"18.53024000"},{"name":"Bonyhádi Járás","latitude":"46.33998000","longitude":"18.49739000"},{"name":"Báta","latitude":"46.12864000","longitude":"18.77027000"},{"name":"Bátaszék","latitude":"46.19373000","longitude":"18.72307000"},{"name":"Bölcske","latitude":"46.74102000","longitude":"18.96736000"},{"name":"Decs","latitude":"46.28428000","longitude":"18.76000000"},{"name":"Dombóvár","latitude":"46.37657000","longitude":"18.13696000"},{"name":"Dombóvári Járás","latitude":"46.45592000","longitude":"18.19076000"},{"name":"Dunaföldvár","latitude":"46.80713000","longitude":"18.92763000"},{"name":"Dunaszentgyörgy","latitude":"46.52852000","longitude":"18.81771000"},{"name":"Döbrököz","latitude":"46.42178000","longitude":"18.23953000"},{"name":"Fadd","latitude":"46.46476000","longitude":"18.81925000"},{"name":"Gyönk","latitude":"46.55603000","longitude":"18.47694000"},{"name":"Hőgyész","latitude":"46.49697000","longitude":"18.41841000"},{"name":"Iregszemcse","latitude":"46.69286000","longitude":"18.18581000"},{"name":"Madocsa","latitude":"46.68790000","longitude":"18.95791000"},{"name":"Nagydorog","latitude":"46.62749000","longitude":"18.65565000"},{"name":"Nagymányok","latitude":"46.27911000","longitude":"18.45489000"},{"name":"Németkér","latitude":"46.71637000","longitude":"18.76311000"},{"name":"Ozora","latitude":"46.75133000","longitude":"18.40010000"},{"name":"Paks","latitude":"46.62210000","longitude":"18.85569000"},{"name":"Paksi Járás","latitude":"46.66035000","longitude":"18.78572000"},{"name":"Pincehely","latitude":"46.68095000","longitude":"18.43935000"},{"name":"Simontornya","latitude":"46.75462000","longitude":"18.55490000"},{"name":"Szedres","latitude":"46.47551000","longitude":"18.68305000"},{"name":"Szekszárd","latitude":"46.35014000","longitude":"18.70905000"},{"name":"Szekszárdi Járás","latitude":"46.33998000","longitude":"18.67893000"},{"name":"Szentgálpuszta","latitude":"46.37479000","longitude":"18.62601000"},{"name":"Tamási","latitude":"46.63333000","longitude":"18.28333000"},{"name":"Tamási Járás","latitude":"46.65424000","longitude":"18.35857000"},{"name":"Tengelic","latitude":"46.52878000","longitude":"18.71117000"},{"name":"Tolna","latitude":"46.42677000","longitude":"18.78248000"},{"name":"Tolnai Járás","latitude":"46.42541000","longitude":"18.82691000"},{"name":"Zomba","latitude":"46.41084000","longitude":"18.56577000"},{"name":"Őcsény","latitude":"46.31370000","longitude":"18.75749000"}]