[{"name":"Betzdorf","latitude":"49.68333000","longitude":"6.35000000"},{"name":"Biwer","latitude":"49.70605000","longitude":"6.37201000"},{"name":"Flaxweiler","latitude":"49.66602000","longitude":"6.34321000"},{"name":"Gonderange","latitude":"49.69537000","longitude":"6.24577000"},{"name":"Grevenmacher","latitude":"49.67751000","longitude":"6.44022000"},{"name":"Junglinster","latitude":"49.70722000","longitude":"6.25306000"},{"name":"Manternach","latitude":"49.70278000","longitude":"6.42639000"},{"name":"Mertert","latitude":"49.70261000","longitude":"6.47966000"},{"name":"Wasserbillig","latitude":"49.71534000","longitude":"6.49861000"},{"name":"Wormeldange","latitude":"49.61114000","longitude":"6.40546000"}]