[{"name":"Anbyŏn-ŭp","latitude":"39.04250000","longitude":"127.52389000"},{"name":"Hoeyang","latitude":"38.71028000","longitude":"127.59833000"},{"name":"Kosan","latitude":"38.85583000","longitude":"127.41806000"},{"name":"T’ongch’ŏn-ŭp","latitude":"38.95389000","longitude":"127.89167000"},{"name":"Wŏnsan","latitude":"39.15278000","longitude":"127.44361000"}]