[{"name":"Lacluta","latitude":"-8.80000000","longitude":"126.13333000"},{"name":"Ossu","latitude":"-8.73477000","longitude":"126.38324000"},{"name":"Uatocarabau","latitude":"-8.75658000","longitude":"126.68060000"},{"name":"Uatolari","latitude":"-8.76277000","longitude":"126.57353000"},{"name":"Viqueque","latitude":"-8.85908000","longitude":"126.36972000"}]