[{"name":"Boshrūyeh","latitude":"34.16667000","longitude":"57.41667000"},{"name":"Bīrjand","latitude":"32.86628000","longitude":"59.22114000"},{"name":"Qā’en","latitude":"33.72654000","longitude":"59.18439000"},{"name":"Shahrestān-e Bīrjand","latitude":"33.00669000","longitude":"59.07223000"},{"name":"Shahrestān-e Darmīān","latitude":"32.95000000","longitude":"60.16667000"},{"name":"Shahrestān-e Khūsf","latitude":"32.18333000","longitude":"58.76667000"},{"name":"Shahrestān-e Nehbandān","latitude":"31.56667000","longitude":"59.81667000"},{"name":"Shahrestān-e Qā’en","latitude":"33.74197000","longitude":"59.35020000"},{"name":"Shahrestān-e Sarbīsheh","latitude":"32.40000000","longitude":"60.08333000"},{"name":"Shahrestān-e Sarāyān","latitude":"33.41667000","longitude":"58.31667000"},{"name":"Shahrestān-e Zīrkūh","latitude":"33.58333000","longitude":"60.30000000"},{"name":"Tabas","latitude":"32.80304000","longitude":"60.22146000"}]