[{"name":"Beshariq","latitude":"40.43583000","longitude":"70.61028000"},{"name":"Fergana","latitude":"40.38421000","longitude":"71.78432000"},{"name":"Hamza","latitude":"40.42762000","longitude":"71.50534000"},{"name":"Kirguli","latitude":"40.43553000","longitude":"71.76721000"},{"name":"Marg‘ilon","latitude":"40.47237000","longitude":"71.72463000"},{"name":"Oltiariq","latitude":"40.39194000","longitude":"71.47417000"},{"name":"Qo‘qon","latitude":"40.52861000","longitude":"70.94250000"},{"name":"Quva","latitude":"40.52204000","longitude":"72.07292000"},{"name":"Quvasoy","latitude":"40.29721000","longitude":"71.98026000"},{"name":"Rishton","latitude":"40.35667000","longitude":"71.28472000"},{"name":"Shohimardon","latitude":"39.98322000","longitude":"71.80512000"},{"name":"So‘x Tumani","latitude":"40.04417000","longitude":"71.09417000"},{"name":"Toshloq","latitude":"40.47722000","longitude":"71.76778000"},{"name":"Yangi Marg‘ilon","latitude":"40.42722000","longitude":"71.71889000"},{"name":"Yaypan","latitude":"40.37583000","longitude":"70.81556000"}]