[{"name":"Aguada de Cima","latitude":"40.52291000","longitude":"-8.42700000"},{"name":"Albergaria-a-Velha","latitude":"40.68706000","longitude":"-8.50399000"},{"name":"Anadia","latitude":"40.43841000","longitude":"-8.43352000"},{"name":"Aradas","latitude":"40.62084000","longitude":"-8.64195000"},{"name":"Arcos","latitude":"40.44779000","longitude":"-8.44171000"},{"name":"Argoncilhe","latitude":"41.02541000","longitude":"-8.53885000"},{"name":"Arouca","latitude":"40.92658000","longitude":"-8.27251000"},{"name":"Arrifana","latitude":"40.91565000","longitude":"-8.49657000"},{"name":"Avanca","latitude":"40.80771000","longitude":"-8.57220000"},{"name":"Aveiro","latitude":"40.64427000","longitude":"-8.64554000"},{"name":"Beduido","latitude":"40.76427000","longitude":"-8.56110000"},{"name":"Branca","latitude":"40.76653000","longitude":"-8.48262000"},{"name":"Castelo de Paiva","latitude":"41.03353000","longitude":"-8.29822000"},{"name":"Cortegaça","latitude":"40.94883000","longitude":"-8.62130000"},{"name":"Cucujães","latitude":"40.87413000","longitude":"-8.50687000"},{"name":"Eixo","latitude":"40.62758000","longitude":"-8.56922000"},{"name":"Esgueira","latitude":"40.64899000","longitude":"-8.62943000"},{"name":"Esmoriz","latitude":"40.95773000","longitude":"-8.62753000"},{"name":"Espargo","latitude":"40.92462000","longitude":"-8.57495000"},{"name":"Espinho","latitude":"41.00763000","longitude":"-8.64125000"},{"name":"Estarreja","latitude":"40.75463000","longitude":"-8.57917000"},{"name":"Feira","latitude":"40.92535000","longitude":"-8.54277000"},{"name":"Fiães","latitude":"40.99446000","longitude":"-8.52537000"},{"name":"Gafanha da Encarnação","latitude":"40.61806000","longitude":"-8.73303000"},{"name":"Gafanha da Nazaré","latitude":"40.63621000","longitude":"-8.71338000"},{"name":"Lamas","latitude":"40.98597000","longitude":"-8.56923000"},{"name":"Lobão","latitude":"40.98664000","longitude":"-8.48566000"},{"name":"Lourosa","latitude":"40.98420000","longitude":"-8.55142000"},{"name":"Luso","latitude":"40.38429000","longitude":"-8.37845000"},{"name":"Macieira de Cambra","latitude":"40.85939000","longitude":"-8.37338000"},{"name":"Mealhada","latitude":"40.36273000","longitude":"-8.44781000"},{"name":"Milheirós de Poiares","latitude":"40.92163000","longitude":"-8.46788000"},{"name":"Mosteirô","latitude":"40.89843000","longitude":"-8.53196000"},{"name":"Murtosa","latitude":"40.74301000","longitude":"-8.64023000"},{"name":"Nogueira da Regedoura","latitude":"41.00530000","longitude":"-8.59195000"},{"name":"Oiã","latitude":"40.54264000","longitude":"-8.53856000"},{"name":"Oliveira de Azemeis","latitude":"40.84101000","longitude":"-8.47555000"},{"name":"Oliveira do Bairro","latitude":"40.50977000","longitude":"-8.56374000"},{"name":"Oliveirinha","latitude":"40.60715000","longitude":"-8.59198000"},{"name":"Ovar","latitude":"40.85862000","longitude":"-8.62513000"},{"name":"Pampilhosa do Botão","latitude":"40.33580000","longitude":"-8.42738000"},{"name":"Pardilhó","latitude":"40.79925000","longitude":"-8.62598000"},{"name":"Paços de Brandão","latitude":"40.97541000","longitude":"-8.58350000"},{"name":"Rio Meão","latitude":"40.95775000","longitude":"-8.57818000"},{"name":"Salreu","latitude":"40.73971000","longitude":"-8.55720000"},{"name":"Sanfins","latitude":"40.92979000","longitude":"-8.52563000"},{"name":"Sangalhos","latitude":"40.48678000","longitude":"-8.46968000"},{"name":"Santa Maria da Feira","latitude":"40.96043000","longitude":"-8.51545000"},{"name":"Sever do Vouga","latitude":"40.73156000","longitude":"-8.35493000"},{"name":"Silvalde","latitude":"40.99205000","longitude":"-8.62567000"},{"name":"Souto","latitude":"40.98496000","longitude":"-8.62185000"},{"name":"São João","latitude":"40.86802000","longitude":"-8.60672000"},{"name":"São João da Madeira","latitude":"40.90070000","longitude":"-8.49020000"},{"name":"São João de Ver","latitude":"40.95527000","longitude":"-8.55117000"},{"name":"São Roque","latitude":"40.87216000","longitude":"-8.47149000"},{"name":"Vagos","latitude":"40.49943000","longitude":"-8.67830000"},{"name":"Vale de Cambra","latitude":"40.84500000","longitude":"-8.36022000"},{"name":"Valongo","latitude":"40.61667000","longitude":"-8.45000000"},{"name":"Vila Chã","latitude":"40.86667000","longitude":"-8.46667000"},{"name":"Válega","latitude":"40.83629000","longitude":"-8.58061000"},{"name":"Águeda","latitude":"40.57720000","longitude":"-8.44442000"},{"name":"Ílhavo","latitude":"40.60188000","longitude":"-8.67021000"}]