[{"name":"Canton of Capellen","countryCode":"LU","fipsCode":"03","iso":"CA","latitude":"49.64039310","longitude":"5.95538460"},{"name":"Canton of Clervaux","countryCode":"LU","fipsCode":"02","iso":"CL","latitude":"50.05463130","longitude":"6.02858750"},{"name":"Canton of Diekirch","countryCode":"LU","fipsCode":"08","iso":"DI","latitude":"49.86717840","longitude":"6.15956330"},{"name":"Canton of Echternach","countryCode":"LU","fipsCode":"03","iso":"EC","latitude":"49.81141330","longitude":"6.41756350"},{"name":"Canton of Esch-sur-Alzette","countryCode":"LU","fipsCode":"03","iso":"ES","latitude":"49.50088050","longitude":"5.98609250"},{"name":"Canton of Grevenmacher","countryCode":"LU","fipsCode":"01","iso":"GR","latitude":"49.68084100","longitude":"6.44075930"},{"name":"Canton of Luxembourg","countryCode":"LU","fipsCode":"01","iso":"LU","latitude":"49.63010250","longitude":"6.15201850"},{"name":"Canton of Mersch","countryCode":"LU","fipsCode":"02","iso":"ME","latitude":"49.75429060","longitude":"6.12921850"},{"name":"Canton of Redange","countryCode":"LU","fipsCode":"03","iso":"RD","latitude":"49.76455000","longitude":"5.88948000"},{"name":"Canton of Remich","countryCode":"LU","fipsCode":"03","iso":"RM","latitude":"49.54501700","longitude":"6.36742220"},{"name":"Canton of Vianden","countryCode":"LU","fipsCode":"02","iso":"VD","latitude":"49.93419240","longitude":"6.20199170"},{"name":"Canton of Wiltz","countryCode":"LU","fipsCode":"01","iso":"WI","latitude":"49.96622000","longitude":"5.93243060"},{"name":"Diekirch District","countryCode":"LU","fipsCode":"01","iso":"D","latitude":"49.86717200","longitude":"6.15963620"},{"name":"Grevenmacher District","countryCode":"LU","fipsCode":"02","iso":"G","latitude":"49.68085100","longitude":"6.44075240"},{"name":"Luxembourg District","countryCode":"LU","fipsCode":"03","iso":"L","latitude":"49.59537060","longitude":"6.13331780"}]