[{"name":"Bentong Town","latitude":"3.52229000","longitude":"101.90866000"},{"name":"Jerantut","latitude":"3.93600000","longitude":"102.36260000"},{"name":"Kampung Bukit Tinggi, Bentong","latitude":"3.34944000","longitude":"101.82631000"},{"name":"Kampung Tekek","latitude":"2.81470000","longitude":"104.15920000"},{"name":"Kuala Lipis","latitude":"4.18420000","longitude":"102.04680000"},{"name":"Kuantan","latitude":"3.80770000","longitude":"103.32600000"},{"name":"Mentekab","latitude":"3.48540000","longitude":"102.34840000"},{"name":"Pekan","latitude":"3.48360000","longitude":"103.39960000"},{"name":"Raub","latitude":"3.78990000","longitude":"101.85700000"},{"name":"Tanah Rata","latitude":"4.46361000","longitude":"101.37630000"},{"name":"Temerluh","latitude":"3.45060000","longitude":"102.41760000"}]