[{"name":"Anadyr","latitude":"64.73424000","longitude":"177.51030000"},{"name":"Anadyrskiy Rayon","latitude":"65.00000000","longitude":"173.00000000"},{"name":"Beringovskiy","latitude":"63.06101000","longitude":"179.35046000"},{"name":"Bilibino","latitude":"68.05464000","longitude":"166.43721000"},{"name":"Egvekinot","latitude":"66.32166000","longitude":"-179.12198000"},{"name":"Lavrentiya","latitude":"65.58604000","longitude":"-171.02082000"},{"name":"Lorino","latitude":"65.50306000","longitude":"-171.70387000"},{"name":"Pevek","latitude":"69.70287000","longitude":"170.29993000"},{"name":"Provideniya","latitude":"64.42289000","longitude":"-173.22641000"},{"name":"Providenskiy Rayon","latitude":"65.25000000","longitude":"-175.00000000"}]