[{"name":"Kawambwa","latitude":"-9.79150000","longitude":"29.07913000"},{"name":"Mansa","latitude":"-11.19976000","longitude":"28.89431000"},{"name":"Mwense","latitude":"-10.38447000","longitude":"28.69800000"},{"name":"Nchelenge","latitude":"-9.34506000","longitude":"28.73396000"},{"name":"Samfya","latitude":"-11.36491000","longitude":"29.55652000"}]