[{"name":"Abelardo L. Rodríguez","latitude":"18.72842000","longitude":"-90.90456000"},{"name":"Alfredo V. Bonfil","latitude":"19.53032000","longitude":"-90.18214000"},{"name":"Altamira de Zináparo","latitude":"18.58208000","longitude":"-90.25610000"},{"name":"Atasta","latitude":"18.61954000","longitude":"-92.10326000"},{"name":"Bacabchén","latitude":"20.28903000","longitude":"-90.05602000"},{"name":"Benito Juárez Uno","latitude":"18.27695000","longitude":"-91.09914000"},{"name":"Bolonchén de Rejón","latitude":"20.00386000","longitude":"-89.74663000"},{"name":"Bécal","latitude":"20.44172000","longitude":"-90.02738000"},{"name":"Calakmul","latitude":"18.00000000","longitude":"-89.75000000"},{"name":"Calkiní","latitude":"20.38583000","longitude":"-89.98764000"},{"name":"Campeche","latitude":"19.84386000","longitude":"-90.52554000"},{"name":"Candelaria","latitude":"18.00000000","longitude":"-90.75000000"},{"name":"Carmen","latitude":"18.63000000","longitude":"-91.83000000"},{"name":"Carrillo Puerto","latitude":"19.09400000","longitude":"-90.52279000"},{"name":"Castamay","latitude":"19.83782000","longitude":"-90.43181000"},{"name":"Champotón","latitude":"19.35042000","longitude":"-90.70991000"},{"name":"Chicbul","latitude":"18.77558000","longitude":"-90.92429000"},{"name":"Chiná","latitude":"19.76993000","longitude":"-90.49595000"},{"name":"Chunchintok","latitude":"19.36145000","longitude":"-89.58218000"},{"name":"Ciudad del Carmen","latitude":"18.64592000","longitude":"-91.82991000"},{"name":"Colonia Emiliano Zapata","latitude":"18.66504000","longitude":"-92.31088000"},{"name":"Constitución","latitude":"18.62675000","longitude":"-90.13584000"},{"name":"Cumpich","latitude":"20.18612000","longitude":"-89.97081000"},{"name":"División del Norte","latitude":"18.52946000","longitude":"-90.76416000"},{"name":"Don Samuel","latitude":"18.36000000","longitude":"-90.85722000"},{"name":"Dzibalchén","latitude":"19.45847000","longitude":"-89.73111000"},{"name":"Dzitbalché","latitude":"20.31857000","longitude":"-90.05611000"},{"name":"El Aguacatal","latitude":"18.21361000","longitude":"-91.51095000"},{"name":"El Naranjo","latitude":"18.02193000","longitude":"-91.12654000"},{"name":"Escárcega","latitude":"18.61404000","longitude":"-90.72870000"},{"name":"Hampolol","latitude":"19.92716000","longitude":"-90.38924000"},{"name":"Haro","latitude":"18.44418000","longitude":"-90.79153000"},{"name":"Hecelchakán","latitude":"20.16667000","longitude":"-90.13333000"},{"name":"Hool","latitude":"19.51294000","longitude":"-90.44631000"},{"name":"Hopelchén","latitude":"19.74671000","longitude":"-89.84437000"},{"name":"Isla Aguada","latitude":"18.78714000","longitude":"-91.49277000"},{"name":"Iturbide","latitude":"19.57903000","longitude":"-89.60222000"},{"name":"La Joya","latitude":"19.48028000","longitude":"-90.67333000"},{"name":"La Libertad","latitude":"18.57042000","longitude":"-90.51399000"},{"name":"Lerma","latitude":"19.80404000","longitude":"-90.60088000"},{"name":"Licenciado Gustavo Díaz Ordaz (18 de Marzo)","latitude":"18.63222000","longitude":"-91.00278000"},{"name":"Los Laureles","latitude":"19.48778000","longitude":"-89.99444000"},{"name":"Mamantel","latitude":"18.52512000","longitude":"-91.08885000"},{"name":"Matamoros","latitude":"18.58414000","longitude":"-90.64669000"},{"name":"Maya Tecún I","latitude":"19.15292000","longitude":"-90.50641000"},{"name":"Nuevo Progreso","latitude":"18.62294000","longitude":"-92.29124000"},{"name":"Nunkiní","latitude":"20.40046000","longitude":"-90.14803000"},{"name":"Palizada","latitude":"18.25261000","longitude":"-92.07779000"},{"name":"Pich","latitude":"19.48568000","longitude":"-90.11795000"},{"name":"Pocboc","latitude":"20.23541000","longitude":"-90.10219000"},{"name":"Pomuch","latitude":"20.13727000","longitude":"-90.17488000"},{"name":"Sabancuy","latitude":"18.97270000","longitude":"-91.17783000"},{"name":"San Antonio Cárdenas","latitude":"18.61399000","longitude":"-92.22341000"},{"name":"San Antonio Sahcabchén","latitude":"20.30696000","longitude":"-90.13778000"},{"name":"San Francisco Kobén","latitude":"19.91516000","longitude":"-90.41709000"},{"name":"San Pablo Pixtún","latitude":"19.13361000","longitude":"-90.73194000"},{"name":"Santa Cruz","latitude":"20.20339000","longitude":"-90.11771000"},{"name":"Santa Cruz Ex-Hacienda","latitude":"20.39684000","longitude":"-90.24068000"},{"name":"Santa Cruz Pueblo","latitude":"20.33359000","longitude":"-90.10342000"},{"name":"Santo Domingo Kesté","latitude":"19.49972000","longitude":"-90.51139000"},{"name":"Seybaplaya","latitude":"19.63994000","longitude":"-90.68706000"},{"name":"Sihochac","latitude":"19.50120000","longitude":"-90.58472000"},{"name":"Suc-Tuc","latitude":"19.71259000","longitude":"-90.03768000"},{"name":"Tankuché","latitude":"20.50743000","longitude":"-90.24164000"},{"name":"Tenabo","latitude":"19.83333000","longitude":"-90.00000000"},{"name":"Tepakán","latitude":"20.39716000","longitude":"-90.04075000"},{"name":"Tikinmul","latitude":"19.76611000","longitude":"-90.22306000"},{"name":"Ukúm","latitude":"19.24197000","longitude":"-89.33529000"},{"name":"Villa Madero","latitude":"19.52833000","longitude":"-90.69917000"},{"name":"Xbacab","latitude":"18.94139000","longitude":"-90.72194000"},{"name":"Xmabén","latitude":"19.23530000","longitude":"-89.31426000"},{"name":"Xpujil","latitude":"18.50760000","longitude":"-89.39437000"},{"name":"Zoh-Laguna","latitude":"18.59306000","longitude":"-89.41714000"}]