[{"name":"Gharyan","latitude":"32.17222000","longitude":"13.02028000"},{"name":"Giado","latitude":"31.95506000","longitude":"12.02901000"},{"name":"Mizdah","latitude":"31.44934000","longitude":"12.98530000"},{"name":"Yafran","latitude":"32.06329000","longitude":"12.52859000"},{"name":"Zintan","latitude":"31.93155000","longitude":"12.25291000"}]