[{"name":"Antofagasta","latitude":"-23.65236000","longitude":"-70.39540000"},{"name":"Calama","latitude":"-22.45667000","longitude":"-68.92371000"},{"name":"Mejillones","latitude":"-23.10000000","longitude":"-70.45000000"},{"name":"Sierra Gorda","latitude":"-22.88333333","longitude":"-69.31666667"},{"name":"Ollagüe","latitude":"-21.22496000","longitude":"-68.25352000"},{"name":"San Pedro de Atacama","latitude":"-22.91110000","longitude":"-68.20113000"},{"name":"Taltal","latitude":"-25.40713000","longitude":"-70.48554000"},{"name":"Tocopilla","latitude":"-22.09198000","longitude":"-70.19792000"},{"name":"María Elena","latitude":"-22.35000000","longitude":"-69.66666667"}]