[{"name":"Bulolo","latitude":"-7.41667000","longitude":"146.75000000"},{"name":"Finschhafen","latitude":"-6.41667000","longitude":"147.50000000"},{"name":"Huon Gulf","latitude":"-7.18333000","longitude":"146.95000000"},{"name":"Kabwum","latitude":"-6.08333000","longitude":"147.00000000"},{"name":"Lae","latitude":"-6.50000000","longitude":"146.83333000"},{"name":"Markham","latitude":"-6.64153000","longitude":"146.86043000"},{"name":"Menyamya","latitude":"-7.25000000","longitude":"146.16667000"},{"name":"Nawae","latitude":"-6.46667000","longitude":"146.96667000"},{"name":"Tewai Siassi","latitude":"-6.15000000","longitude":"147.53333000"},{"name":"Wau","latitude":"-7.33778000","longitude":"146.71649000"}]