[{"name":"Bukonyo","latitude":"-1.95000000","longitude":"32.93333000"},{"name":"Butiama","latitude":"-1.76667000","longitude":"33.96667000"},{"name":"Issenye","latitude":"-2.00000000","longitude":"34.33333000"},{"name":"Kibara","latitude":"-2.15000000","longitude":"33.45000000"},{"name":"Mugango","latitude":"-1.68333000","longitude":"33.70000000"},{"name":"Mugumu","latitude":"-1.85000000","longitude":"34.70000000"},{"name":"Muriti","latitude":"-1.98333000","longitude":"32.91667000"},{"name":"Musoma","latitude":"-1.50000000","longitude":"33.80000000"},{"name":"Nakatunguru","latitude":"-2.11667000","longitude":"33.06667000"},{"name":"Nansio","latitude":"-2.13333000","longitude":"33.05000000"},{"name":"Nyamuswa","latitude":"-1.90000000","longitude":"34.01667000"},{"name":"Sirari","latitude":"-1.25367000","longitude":"34.47596000"}]