[{"name":"Amphoe Fao Rai","latitude":"18.00275000","longitude":"103.29640000"},{"name":"Amphoe Mueang Nong Khai","latitude":"17.84661000","longitude":"102.78911000"},{"name":"Amphoe Pho Tak","latitude":"17.88819000","longitude":"102.43023000"},{"name":"Amphoe Phonphisai","latitude":"17.95443000","longitude":"103.12279000"},{"name":"Amphoe Rattanawapi","latitude":"18.19255000","longitude":"103.23760000"},{"name":"Amphoe Sa Khrai","latitude":"17.65985000","longitude":"102.70847000"},{"name":"Amphoe Sangkhom","latitude":"18.05392000","longitude":"102.22677000"},{"name":"Amphoe Si Chiang Mai","latitude":"17.93574000","longitude":"102.50306000"},{"name":"Amphoe Tha Bo","latitude":"17.79499000","longitude":"102.56608000"},{"name":"Nong Khai","latitude":"17.87847000","longitude":"102.74200000"},{"name":"Phon Charoen","latitude":"18.03333000","longitude":"103.16667000"},{"name":"Sangkhom","latitude":"18.06389000","longitude":"102.27364000"},{"name":"Si Chiang Mai","latitude":"17.95639000","longitude":"102.58667000"},{"name":"Tha Bo","latitude":"17.85003000","longitude":"102.58139000"}]