[{"name":"Arsi Zone","latitude":"7.50000000","longitude":"39.50000000"},{"name":"Bedelē","latitude":"8.45600000","longitude":"36.35302000"},{"name":"Bedēsa","latitude":"8.90000000","longitude":"40.78333000"},{"name":"Bishoftu","latitude":"8.75225000","longitude":"38.97846000"},{"name":"Deder","latitude":"9.31168000","longitude":"41.44301000"},{"name":"Dembī Dolo","latitude":"8.53333000","longitude":"34.80000000"},{"name":"Dodola","latitude":"6.98333000","longitude":"39.18333000"},{"name":"East Harerghe Zone","latitude":"8.70114000","longitude":"42.00241000"},{"name":"East Shewa Zone","latitude":"8.21353000","longitude":"38.84809000"},{"name":"East Wellega Zone","latitude":"9.51928000","longitude":"36.75762000"},{"name":"Fichē","latitude":"9.80000000","longitude":"38.73333000"},{"name":"Gebre Guracha","latitude":"9.80000000","longitude":"38.40000000"},{"name":"Gelemso","latitude":"8.81667000","longitude":"40.51667000"},{"name":"Genet","latitude":"9.06667000","longitude":"38.50000000"},{"name":"Gimbi","latitude":"9.17031000","longitude":"35.83491000"},{"name":"Ginir","latitude":"7.13952000","longitude":"40.71083000"},{"name":"Goba","latitude":"7.01667000","longitude":"39.98333000"},{"name":"Gorē","latitude":"8.15000000","longitude":"35.53333000"},{"name":"Guji Zone","latitude":"5.58800000","longitude":"39.06700000"},{"name":"Gēdo","latitude":"9.01667000","longitude":"37.45000000"},{"name":"Hagere Maryam","latitude":"5.63418000","longitude":"38.23603000"},{"name":"Huruta","latitude":"8.15000000","longitude":"39.35000000"},{"name":"Hāgere Hiywet","latitude":"8.98333000","longitude":"37.85000000"},{"name":"Hīrna","latitude":"9.21667000","longitude":"41.10000000"},{"name":"Illubabor Zone","latitude":"8.27526000","longitude":"35.75596000"},{"name":"Jimma","latitude":"7.67344000","longitude":"36.83441000"},{"name":"Jimma Zone","latitude":"7.66667000","longitude":"37.00000000"},{"name":"Kibre Mengist","latitude":"5.88333000","longitude":"38.98333000"},{"name":"Kofelē","latitude":"7.06667000","longitude":"38.78333000"},{"name":"Mendī","latitude":"9.80000000","longitude":"35.10000000"},{"name":"Metahāra","latitude":"8.90000000","longitude":"39.91667000"},{"name":"Metu","latitude":"8.30000000","longitude":"35.58333000"},{"name":"Mojo","latitude":"8.58679000","longitude":"39.12111000"},{"name":"Mēga","latitude":"4.05000000","longitude":"38.30000000"},{"name":"Nazrēt","latitude":"8.55000000","longitude":"39.26667000"},{"name":"Nejo","latitude":"9.50000000","longitude":"35.50000000"},{"name":"North Shewa Zone","latitude":"9.66915000","longitude":"38.81240000"},{"name":"Sebeta","latitude":"8.91667000","longitude":"38.61667000"},{"name":"Sendafa","latitude":"9.15203000","longitude":"39.02335000"},{"name":"Shakiso","latitude":"5.76494000","longitude":"38.91006000"},{"name":"Shambu","latitude":"9.56667000","longitude":"37.10000000"},{"name":"Shashemenē","latitude":"7.20000000","longitude":"38.60000000"},{"name":"Sirre","latitude":"8.31667000","longitude":"39.48333000"},{"name":"Tulu Bolo","latitude":"8.66667000","longitude":"38.21667000"},{"name":"Waliso","latitude":"8.53417000","longitude":"37.96515000"},{"name":"Wenjī","latitude":"8.45000000","longitude":"39.28333000"},{"name":"West Harerghe Zone","latitude":"8.67245000","longitude":"40.84885000"},{"name":"West Wellega Zone","latitude":"9.17283000","longitude":"35.05279000"},{"name":"Yabēlo","latitude":"4.88333000","longitude":"38.08333000"},{"name":"Ziway","latitude":"7.93333000","longitude":"38.71667000"},{"name":"Ādīs ‘Alem","latitude":"9.03333000","longitude":"38.40000000"},{"name":"Āgaro","latitude":"7.85000000","longitude":"36.65000000"},{"name":"Āsasa","latitude":"7.10000000","longitude":"39.20000000"},{"name":"Āsbe Teferī","latitude":"9.08569000","longitude":"40.86708000"}]