[{"name":"Balsfjord","latitude":"69.24024000","longitude":"19.22653000"},{"name":"Bardu","latitude":"68.86058000","longitude":"18.35052000"},{"name":"Berg","latitude":"69.44444000","longitude":"17.29950000"},{"name":"Borkenes","latitude":"68.77261000","longitude":"16.17115000"},{"name":"Dyrøy","latitude":"69.09154000","longitude":"17.69094000"},{"name":"Evenskjer","latitude":"68.58283000","longitude":"16.57203000"},{"name":"Finnsnes","latitude":"69.22959000","longitude":"17.98114000"},{"name":"Gratangen","latitude":"68.69273000","longitude":"17.53186000"},{"name":"Gryllefjord","latitude":"69.36304000","longitude":"17.05284000"},{"name":"Hansnes","latitude":"69.96701000","longitude":"19.62752000"},{"name":"Harstad","latitude":"68.79896000","longitude":"16.52930000"},{"name":"Ibestad","latitude":"68.77866000","longitude":"17.17661000"},{"name":"Karlsøy","latitude":"69.96185000","longitude":"19.61811000"},{"name":"Kvæfjord","latitude":"68.77201000","longitude":"16.17294000"},{"name":"Kvænangen","latitude":"69.93890000","longitude":"22.04935000"},{"name":"Kåfjord","latitude":"69.60400000","longitude":"20.53456000"},{"name":"Lavangen","latitude":"68.74722000","longitude":"17.80558000"},{"name":"Lenvik","latitude":"69.23111000","longitude":"17.98739000"},{"name":"Lyngen","latitude":"69.57621000","longitude":"20.21702000"},{"name":"Lyngseidet","latitude":"69.57629000","longitude":"20.21887000"},{"name":"Moen","latitude":"69.13043000","longitude":"18.61226000"},{"name":"Målselv","latitude":"69.12389000","longitude":"18.61498000"},{"name":"Nordreisa","latitude":"69.76825000","longitude":"21.02569000"},{"name":"Olderdalen","latitude":"69.60407000","longitude":"20.53272000"},{"name":"Salangen","latitude":"68.87669000","longitude":"17.83375000"},{"name":"Setermoen","latitude":"68.86099000","longitude":"18.34857000"},{"name":"Sjøvegan","latitude":"68.87363000","longitude":"17.84706000"},{"name":"Skjervøy","latitude":"70.03379000","longitude":"20.97365000"},{"name":"Skånland","latitude":"68.58378000","longitude":"16.57305000"},{"name":"Storfjord","latitude":"69.26860000","longitude":"19.96089000"},{"name":"Storslett","latitude":"69.76783000","longitude":"21.02466000"},{"name":"Storsteinnes","latitude":"69.24081000","longitude":"19.23437000"},{"name":"Sørreisa","latitude":"69.14697000","longitude":"18.15629000"},{"name":"Torsken","latitude":"69.36184000","longitude":"17.05384000"},{"name":"Tranøy","latitude":"69.17022000","longitude":"17.73480000"},{"name":"Tromsø","latitude":"69.64961000","longitude":"18.95702000"}]