[{"name":"Ablon","latitude":"49.39214000","longitude":"0.29584000"},{"name":"Acquigny","latitude":"49.17350000","longitude":"1.17650000"},{"name":"Agneaux","latitude":"49.11905000","longitude":"-1.10610000"},{"name":"Agon-Coutainville","latitude":"49.04167000","longitude":"-1.57500000"},{"name":"Alençon","latitude":"48.43476000","longitude":"0.09311000"},{"name":"Alizay","latitude":"49.32158000","longitude":"1.17854000"},{"name":"Amfreville","latitude":"49.25000000","longitude":"-0.23333000"},{"name":"Amfreville-la-Mi-Voie","latitude":"49.40755000","longitude":"1.13871000"},{"name":"Andé","latitude":"49.23163000","longitude":"1.24088000"},{"name":"Angerville-l’Orcher","latitude":"49.58833000","longitude":"0.28191000"},{"name":"Argences","latitude":"49.12635000","longitude":"-0.16644000"},{"name":"Argentan","latitude":"48.74441000","longitude":"-0.02023000"},{"name":"Arnières-sur-Iton","latitude":"48.99678000","longitude":"1.10384000"},{"name":"Arques-la-Bataille","latitude":"49.88122000","longitude":"1.12875000"},{"name":"Athis-de-l'Orne","latitude":"48.81667000","longitude":"-0.50000000"},{"name":"Aube-sur-Rîle","latitude":"48.73920000","longitude":"0.55161000"},{"name":"Aubevoye","latitude":"49.17097000","longitude":"1.33537000"},{"name":"Auffay","latitude":"49.71881000","longitude":"1.09911000"},{"name":"Aumale","latitude":"49.76985000","longitude":"1.75587000"},{"name":"Aunay-sur-Odon","latitude":"49.02012000","longitude":"-0.63238000"},{"name":"Authie","latitude":"49.20615000","longitude":"-0.43191000"},{"name":"Auzebosc","latitude":"49.59565000","longitude":"0.72850000"},{"name":"Aviron","latitude":"49.05000000","longitude":"1.11667000"},{"name":"Avranches","latitude":"48.68436000","longitude":"-1.35686000"},{"name":"Bacqueville-en-Caux","latitude":"49.78761000","longitude":"0.99927000"},{"name":"Bagnoles-de-l'Orne","latitude":"48.55720000","longitude":"-0.41383000"},{"name":"Barentin","latitude":"49.54533000","longitude":"0.95515000"},{"name":"Barenton","latitude":"48.60027000","longitude":"-0.83258000"},{"name":"Barneville-Carteret","latitude":"49.38333000","longitude":"-1.75000000"},{"name":"Barneville-Plage","latitude":"49.36786000","longitude":"-1.76512000"},{"name":"Bavent","latitude":"49.22996000","longitude":"-0.18675000"},{"name":"Bayeux","latitude":"49.27732000","longitude":"-0.70390000"},{"name":"Beaumont-Hague","latitude":"49.66387000","longitude":"-1.83822000"},{"name":"Beaumont-le-Roger","latitude":"49.07839000","longitude":"0.78081000"},{"name":"Belbeuf","latitude":"49.38766000","longitude":"1.14245000"},{"name":"Bellengreville","latitude":"49.12425000","longitude":"-0.20961000"},{"name":"Bellême","latitude":"48.37329000","longitude":"0.57005000"},{"name":"Bernay","latitude":"49.08888000","longitude":"0.59858000"},{"name":"Berneval-le-Grand","latitude":"49.95328000","longitude":"1.18755000"},{"name":"Bernières-sur-Mer","latitude":"49.33057000","longitude":"-0.42299000"},{"name":"Beuville","latitude":"49.24364000","longitude":"-0.32585000"},{"name":"Beuvillers","latitude":"49.12961000","longitude":"0.25492000"},{"name":"Beuzeville","latitude":"49.34483000","longitude":"0.34254000"},{"name":"Beuzeville-la-Grenier","latitude":"49.59157000","longitude":"0.42684000"},{"name":"Bihorel","latitude":"49.45468000","longitude":"1.12230000"},{"name":"Biéville-Beuville","latitude":"49.24293000","longitude":"-0.32762000"},{"name":"Blainville-Crevon","latitude":"49.50395000","longitude":"1.29952000"},{"name":"Blainville-sur-Mer","latitude":"49.06599000","longitude":"-1.58340000"},{"name":"Blainville-sur-Orne","latitude":"49.22913000","longitude":"-0.30061000"},{"name":"Blangy-sur-Bresle","latitude":"49.93211000","longitude":"1.62514000"},{"name":"Blonville-sur-Mer","latitude":"49.33709000","longitude":"0.02709000"},{"name":"Bois-Guillaume","latitude":"49.46020000","longitude":"1.12219000"},{"name":"Bolbec","latitude":"49.57321000","longitude":"0.47339000"},{"name":"Boos","latitude":"49.38849000","longitude":"1.20348000"},{"name":"Bosc-le-Hard","latitude":"49.62734000","longitude":"1.17483000"},{"name":"Bourg-Achard","latitude":"49.35322000","longitude":"0.81623000"},{"name":"Bourgtheroulde-Infreville","latitude":"49.30000000","longitude":"0.88333000"},{"name":"Bourguébus","latitude":"49.12187000","longitude":"-0.29786000"},{"name":"Bourth","latitude":"48.76846000","longitude":"0.80911000"},{"name":"Bouville","latitude":"49.56193000","longitude":"0.89514000"},{"name":"Breteuil","latitude":"48.83333000","longitude":"0.91667000"},{"name":"Bretoncelles","latitude":"48.43122000","longitude":"0.88775000"},{"name":"Bretteville","latitude":"49.65440000","longitude":"-1.52884000"},{"name":"Bretteville-du-Grand-Caux","latitude":"49.66667000","longitude":"0.40000000"},{"name":"Bretteville-l’Orgueilleuse","latitude":"49.21189000","longitude":"-0.51428000"},{"name":"Bretteville-sur-Laize","latitude":"49.04466000","longitude":"-0.32639000"},{"name":"Bretteville-sur-Odon","latitude":"49.16627000","longitude":"-0.41662000"},{"name":"Breuilpont","latitude":"48.96398000","longitude":"1.42919000"},{"name":"Bricquebec","latitude":"49.47008000","longitude":"-1.63254000"},{"name":"Brionne","latitude":"49.19553000","longitude":"0.71510000"},{"name":"Briouze","latitude":"48.69848000","longitude":"-0.36806000"},{"name":"Brix","latitude":"49.54512000","longitude":"-1.58012000"},{"name":"Broglie","latitude":"49.00911000","longitude":"0.52915000"},{"name":"Bréauté","latitude":"49.62805000","longitude":"0.40005000"},{"name":"Brécey","latitude":"48.72413000","longitude":"-1.16647000"},{"name":"Bréhal","latitude":"48.89915000","longitude":"-1.51225000"},{"name":"Buchy","latitude":"49.58513000","longitude":"1.35852000"},{"name":"Bueil","latitude":"48.93189000","longitude":"1.44257000"},{"name":"Bully","latitude":"49.10155000","longitude":"-0.40825000"},{"name":"Bénouville","latitude":"49.24151000","longitude":"-0.28246000"},{"name":"Bézu-Saint-Éloi","latitude":"49.29524000","longitude":"1.70404000"},{"name":"Cabourg","latitude":"49.29110000","longitude":"-0.11330000"},{"name":"Caen","latitude":"49.18585000","longitude":"-0.35912000"},{"name":"Cagny","latitude":"49.14580000","longitude":"-0.25630000"},{"name":"Cahagnes","latitude":"49.06631000","longitude":"-0.76869000"},{"name":"Cairon","latitude":"49.24017000","longitude":"-0.45046000"},{"name":"Calvados","latitude":"49.09011000","longitude":"-0.30608000"},{"name":"Cambes-en-Plaine","latitude":"49.23161000","longitude":"-0.38540000"},{"name":"Cambremer","latitude":"49.15192000","longitude":"0.04760000"},{"name":"Canon","latitude":"49.07380000","longitude":"-0.09219000"},{"name":"Canteleu","latitude":"49.44065000","longitude":"1.02459000"},{"name":"Cany-Barville","latitude":"49.78885000","longitude":"0.63704000"},{"name":"Carentan","latitude":"49.30312000","longitude":"-1.24806000"},{"name":"Carpiquet","latitude":"49.18522000","longitude":"-0.44623000"},{"name":"Caudebec-en-Caux","latitude":"49.52577000","longitude":"0.72561000"},{"name":"Caudebec-lès-Elbeuf","latitude":"49.28082000","longitude":"1.02195000"},{"name":"Caumont","latitude":"49.36642000","longitude":"0.89591000"},{"name":"Caumont-l'Éventé","latitude":"49.09017000","longitude":"-0.80501000"},{"name":"Cauville-sur-Mer","latitude":"49.60000000","longitude":"0.13333000"},{"name":"Ceaucé","latitude":"48.49436000","longitude":"-0.62526000"},{"name":"Cerisy-la-Salle","latitude":"49.02622000","longitude":"-1.28283000"},{"name":"Ceton","latitude":"48.22631000","longitude":"0.74968000"},{"name":"Champsecret","latitude":"48.60925000","longitude":"-0.55058000"},{"name":"Chanu","latitude":"48.72914000","longitude":"-0.67603000"},{"name":"Charleval","latitude":"49.37290000","longitude":"1.38369000"},{"name":"Cherbourg-Octeville","latitude":"49.63984000","longitude":"-1.61636000"},{"name":"Cheux","latitude":"49.16611000","longitude":"-0.52544000"},{"name":"Claville","latitude":"49.04844000","longitude":"1.01954000"},{"name":"Clinchamps-sur-Orne","latitude":"49.07857000","longitude":"-0.40156000"},{"name":"Clères","latitude":"49.60000000","longitude":"1.11667000"},{"name":"Clécy","latitude":"48.91718000","longitude":"-0.48041000"},{"name":"Cléon","latitude":"49.31235000","longitude":"1.02950000"},{"name":"Colleville-Montgomery","latitude":"49.27528000","longitude":"-0.30052000"},{"name":"Colombelles","latitude":"49.20490000","longitude":"-0.29571000"},{"name":"Conches-en-Ouche","latitude":"48.95768000","longitude":"0.94052000"},{"name":"Condé-sur-Huisne","latitude":"48.38103000","longitude":"0.85093000"},{"name":"Condé-sur-Noireau","latitude":"48.84881000","longitude":"-0.55214000"},{"name":"Condé-sur-Sarthe","latitude":"48.43197000","longitude":"0.03398000"},{"name":"Condé-sur-Vire","latitude":"49.05000000","longitude":"-1.03333000"},{"name":"Cormeilles","latitude":"49.24803000","longitude":"0.37654000"},{"name":"Cormelles-le-Royal","latitude":"49.15398000","longitude":"-0.33062000"},{"name":"Corneville-sur-Risle","latitude":"49.34128000","longitude":"0.58628000"},{"name":"Courcelles-sur-Seine","latitude":"49.18285000","longitude":"1.36008000"},{"name":"Courseulles-sur-Mer","latitude":"49.33027000","longitude":"-0.45612000"},{"name":"Courteilles","latitude":"48.77495000","longitude":"-0.19942000"},{"name":"Coutances","latitude":"49.04541000","longitude":"-1.44518000"},{"name":"Couterne","latitude":"48.51318000","longitude":"-0.41538000"},{"name":"Cresserons","latitude":"49.28701000","longitude":"-0.35569000"},{"name":"Creully","latitude":"49.28478000","longitude":"-0.53976000"},{"name":"Criel-sur-Mer","latitude":"50.01508000","longitude":"1.31459000"},{"name":"Criquebeuf-sur-Seine","latitude":"49.30563000","longitude":"1.09964000"},{"name":"Criquetot-l’Esneval","latitude":"49.64555000","longitude":"0.26571000"},{"name":"Croth","latitude":"48.84557000","longitude":"1.37861000"},{"name":"Créances","latitude":"49.19873000","longitude":"-1.56938000"},{"name":"Cuverville","latitude":"49.18998000","longitude":"-0.26474000"},{"name":"Cérences","latitude":"48.91667000","longitude":"-1.43470000"},{"name":"Damigny","latitude":"48.45000000","longitude":"0.06667000"},{"name":"Damville","latitude":"48.86930000","longitude":"1.07458000"},{"name":"Darnétal","latitude":"49.44533000","longitude":"1.15144000"},{"name":"Deauville","latitude":"49.35700000","longitude":"0.06995000"},{"name":"Dieppe","latitude":"49.92160000","longitude":"1.07772000"},{"name":"Digosville","latitude":"49.63104000","longitude":"-1.52627000"},{"name":"Dives-sur-Mer","latitude":"49.28176000","longitude":"-0.10125000"},{"name":"Domfront","latitude":"48.59208000","longitude":"-0.64588000"},{"name":"Donville-les-Bains","latitude":"48.84608000","longitude":"-1.58315000"},{"name":"Doudeville","latitude":"49.72268000","longitude":"0.78479000"},{"name":"Douvres-la-Délivrande","latitude":"49.29472000","longitude":"-0.38039000"},{"name":"Dozulé","latitude":"49.23132000","longitude":"-0.04454000"},{"name":"Ducey","latitude":"48.61843000","longitude":"-1.29052000"},{"name":"Duclair","latitude":"49.48385000","longitude":"0.87617000"},{"name":"Démouville","latitude":"49.18001000","longitude":"-0.26947000"},{"name":"Département de l'Eure","latitude":"49.16667000","longitude":"1.00000000"},{"name":"Département de l'Orne","latitude":"48.66667000","longitude":"0.08333000"},{"name":"Déville-lès-Rouen","latitude":"49.46942000","longitude":"1.05214000"},{"name":"Elbeuf","latitude":"49.28669000","longitude":"1.00288000"},{"name":"Envermeu","latitude":"49.89560000","longitude":"1.26493000"},{"name":"Eslettes","latitude":"49.54820000","longitude":"1.05515000"},{"name":"Eu","latitude":"50.04606000","longitude":"1.42079000"},{"name":"Falaise","latitude":"48.89217000","longitude":"-0.19527000"},{"name":"Fauville-en-Caux","latitude":"49.65257000","longitude":"0.59197000"},{"name":"Fermanville","latitude":"49.68673000","longitude":"-1.46284000"},{"name":"Flamanville","latitude":"49.53274000","longitude":"-1.86560000"},{"name":"Flers","latitude":"48.73722000","longitude":"-0.57466000"},{"name":"Fleury-sur-Andelle","latitude":"49.36176000","longitude":"1.35599000"},{"name":"Fleury-sur-Orne","latitude":"49.14851000","longitude":"-0.37508000"},{"name":"Fontaine-la-Mallet","latitude":"49.53600000","longitude":"0.14625000"},{"name":"Fontaine-le-Bourg","latitude":"49.56451000","longitude":"1.16391000"},{"name":"Fontaine-le-Dun","latitude":"49.81182000","longitude":"0.85095000"},{"name":"Fontaine-Étoupefour","latitude":"49.14600000","longitude":"-0.45522000"},{"name":"Fontenay","latitude":"49.55993000","longitude":"0.18391000"},{"name":"Fontenay-le-Marmion","latitude":"49.09346000","longitude":"-0.35294000"},{"name":"Forges-les-Eaux","latitude":"49.61391000","longitude":"1.54449000"},{"name":"Foucarmont","latitude":"49.84682000","longitude":"1.56899000"},{"name":"Francheville","latitude":"48.78647000","longitude":"0.84962000"},{"name":"Fécamp","latitude":"49.75787000","longitude":"0.37457000"},{"name":"Gacé","latitude":"48.79344000","longitude":"0.29624000"},{"name":"Gaillefontaine","latitude":"49.65371000","longitude":"1.61547000"},{"name":"Gaillon","latitude":"49.16104000","longitude":"1.34016000"},{"name":"Gainneville","latitude":"49.51845000","longitude":"0.26164000"},{"name":"Garennes-sur-Eure","latitude":"48.91116000","longitude":"1.43836000"},{"name":"Gasny","latitude":"49.09184000","longitude":"1.60336000"},{"name":"Gavray","latitude":"48.91108000","longitude":"-1.35059000"},{"name":"Giberville","latitude":"49.18158000","longitude":"-0.28386000"},{"name":"Gisors","latitude":"49.28178000","longitude":"1.78010000"},{"name":"Goderville","latitude":"49.64566000","longitude":"0.36593000"},{"name":"Gonneville-la-Mallet","latitude":"49.63950000","longitude":"0.22245000"},{"name":"Gournay-en-Bray","latitude":"49.48285000","longitude":"1.72471000"},{"name":"Gouville-sur-Mer","latitude":"49.09611000","longitude":"-1.57908000"},{"name":"Grainville-la-Teinturière","latitude":"49.74773000","longitude":"0.64048000"},{"name":"Grainville-sur-Odon","latitude":"49.13936000","longitude":"-0.53046000"},{"name":"Grand-Couronne","latitude":"49.35563000","longitude":"1.00647000"},{"name":"Grandcamp-Maisy","latitude":"49.38333000","longitude":"-1.03333000"},{"name":"Granville","latitude":"48.83792000","longitude":"-1.59714000"},{"name":"Gravigny","latitude":"49.05310000","longitude":"1.16962000"},{"name":"Gruchet-le-Valasse","latitude":"49.55466000","longitude":"0.48684000"},{"name":"Guichainville","latitude":"49.00139000","longitude":"1.19305000"},{"name":"Hambye","latitude":"48.94798000","longitude":"-1.26417000"},{"name":"Harfleur","latitude":"49.50660000","longitude":"0.19827000"},{"name":"Hautot-sur-Mer","latitude":"49.89789000","longitude":"1.02884000"},{"name":"Hauville","latitude":"49.39645000","longitude":"0.77232000"},{"name":"Hermanville-sur-Mer","latitude":"49.28464000","longitude":"-0.31544000"},{"name":"Heudreville-sur-Eure","latitude":"49.14089000","longitude":"1.18813000"},{"name":"Honfleur","latitude":"49.41985000","longitude":"0.23294000"},{"name":"Houlbec-Cocherel","latitude":"49.07350000","longitude":"1.36563000"},{"name":"Houlgate","latitude":"49.29900000","longitude":"-0.08153000"},{"name":"Houppeville","latitude":"49.51259000","longitude":"1.07962000"},{"name":"Hénouville","latitude":"49.47890000","longitude":"0.96367000"},{"name":"Hérouville-Saint-Clair","latitude":"49.21088000","longitude":"-0.30653000"},{"name":"Hérouvillette","latitude":"49.22130000","longitude":"-0.24348000"},{"name":"Ifs","latitude":"49.14000000","longitude":"-0.34899000"},{"name":"Igoville","latitude":"49.31990000","longitude":"1.14832000"},{"name":"Incheville","latitude":"50.01239000","longitude":"1.49438000"},{"name":"Isigny-le-Buat","latitude":"48.61705000","longitude":"-1.16993000"},{"name":"Isigny-sur-Mer","latitude":"49.31604000","longitude":"-1.10384000"},{"name":"Isneauville","latitude":"49.49832000","longitude":"1.15431000"},{"name":"Ivry-la-Bataille","latitude":"48.88333000","longitude":"1.45948000"},{"name":"Jullouville","latitude":"48.77576000","longitude":"-1.56366000"},{"name":"Jumièges","latitude":"49.43324000","longitude":"0.81918000"},{"name":"Juvigny-sous-Andaine","latitude":"48.55194000","longitude":"-0.50878000"},{"name":"La Bonneville-sur-Iton","latitude":"49.00000000","longitude":"1.03333000"},{"name":"La Cerlangue","latitude":"49.50592000","longitude":"0.41332000"},{"name":"La Chapelle-Réanville","latitude":"49.09752000","longitude":"1.38209000"},{"name":"La Couture-Boussey","latitude":"48.89581000","longitude":"1.40491000"},{"name":"La Ferrière-aux-Étangs","latitude":"48.66227000","longitude":"-0.51955000"},{"name":"La Ferté-Macé","latitude":"48.58999000","longitude":"-0.35800000"},{"name":"La Feuillie","latitude":"49.46415000","longitude":"1.51463000"},{"name":"La Glacerie","latitude":"49.60517000","longitude":"-1.58185000"},{"name":"La Haye-Malherbe","latitude":"49.22553000","longitude":"1.06774000"},{"name":"La Haye-Pesnel","latitude":"48.79561000","longitude":"-1.39655000"},{"name":"La Haye-du-Puits","latitude":"49.28973000","longitude":"-1.54324000"},{"name":"La Lande-Patry","latitude":"48.76202000","longitude":"-0.59876000"},{"name":"La Madeleine-de-Nonancourt","latitude":"48.77298000","longitude":"1.20253000"},{"name":"La Mailleraye-sur-Seine","latitude":"49.48308000","longitude":"0.77030000"},{"name":"La Meauffe","latitude":"49.17643000","longitude":"-1.11119000"},{"name":"La Remuée","latitude":"49.52773000","longitude":"0.40283000"},{"name":"La Rivière-Saint-Sauveur","latitude":"49.40821000","longitude":"0.27030000"},{"name":"La Saussaye","latitude":"49.25936000","longitude":"0.98094000"},{"name":"La Selle-la-Forge","latitude":"48.73295000","longitude":"-0.54103000"},{"name":"La Vaupalière","latitude":"49.48789000","longitude":"0.99630000"},{"name":"La Vespière","latitude":"49.01975000","longitude":"0.41250000"},{"name":"Langrune-sur-Mer","latitude":"49.32346000","longitude":"-0.37346000"},{"name":"Lanquetot","latitude":"49.58527000","longitude":"0.52637000"},{"name":"Le Bosc-Roger-en-Roumois","latitude":"49.28333000","longitude":"0.93333000"},{"name":"Le Grand-Quevilly","latitude":"49.40076000","longitude":"1.04582000"},{"name":"Le Havre","latitude":"49.49380000","longitude":"0.10767000"},{"name":"Le Houlme","latitude":"49.50972000","longitude":"1.03537000"},{"name":"Le Manoir","latitude":"49.31355000","longitude":"1.20455000"},{"name":"Le Mesnil-Esnard","latitude":"49.41319000","longitude":"1.14521000"},{"name":"Le Molay-Littry","latitude":"49.24265000","longitude":"-0.87238000"},{"name":"Le Neubourg","latitude":"49.15048000","longitude":"0.91020000"},{"name":"Le Petit-Quevilly","latitude":"49.41338000","longitude":"1.06155000"},{"name":"Le Teilleul","latitude":"48.53758000","longitude":"-0.87304000"},{"name":"Le Theil-Bocage","latitude":"48.88333000","longitude":"-0.71667000"},{"name":"Le Thuit-Signol","latitude":"49.26487000","longitude":"0.93910000"},{"name":"Le Trait","latitude":"49.46895000","longitude":"0.81634000"},{"name":"Le Tréport","latitude":"50.05979000","longitude":"1.37583000"},{"name":"Le Val-Saint-Père","latitude":"48.66177000","longitude":"-1.37653000"},{"name":"Le Vaudreuil","latitude":"49.25407000","longitude":"1.20960000"},{"name":"Les Andelys","latitude":"49.24557000","longitude":"1.41168000"},{"name":"Les Authieux-sur-le-Port-Saint-Ouen","latitude":"49.34100000","longitude":"1.13465000"},{"name":"Les Grandes-Ventes","latitude":"49.78544000","longitude":"1.22921000"},{"name":"Les Loges","latitude":"49.69860000","longitude":"0.28403000"},{"name":"Les Loges-Marchis","latitude":"48.54132000","longitude":"-1.08754000"},{"name":"Les Pieux","latitude":"49.51286000","longitude":"-1.80714000"},{"name":"Lessay","latitude":"49.21703000","longitude":"-1.53089000"},{"name":"Lieurey","latitude":"49.23019000","longitude":"0.49879000"},{"name":"Lillebonne","latitude":"49.52030000","longitude":"0.53617000"},{"name":"Limésy","latitude":"49.61271000","longitude":"0.92483000"},{"name":"Lion-sur-Mer","latitude":"49.30018000","longitude":"-0.32157000"},{"name":"Lisieux","latitude":"49.14660000","longitude":"0.22925000"},{"name":"Livarot","latitude":"49.00500000","longitude":"0.15020000"},{"name":"Londinières","latitude":"49.83187000","longitude":"1.40232000"},{"name":"Longny-au-Perche","latitude":"48.52984000","longitude":"0.75239000"},{"name":"Louviers","latitude":"49.21667000","longitude":"1.16667000"},{"name":"Louvigny","latitude":"49.15715000","longitude":"-0.39376000"},{"name":"Luc-sur-Mer","latitude":"49.31452000","longitude":"-0.35499000"},{"name":"Luneray","latitude":"49.82795000","longitude":"0.91581000"},{"name":"Léry","latitude":"49.28585000","longitude":"1.20768000"},{"name":"Magny-le-Désert","latitude":"48.57015000","longitude":"-0.32732000"},{"name":"Malaunay","latitude":"49.52710000","longitude":"1.04292000"},{"name":"Manche","latitude":"49.03822000","longitude":"-1.31865000"},{"name":"Manneville-sur-Risle","latitude":"49.35173000","longitude":"0.54526000"},{"name":"Manéglise","latitude":"49.56578000","longitude":"0.25572000"},{"name":"Marcey-les-Grèves","latitude":"48.69673000","longitude":"-1.39156000"},{"name":"Marcilly-sur-Eure","latitude":"48.82568000","longitude":"1.34741000"},{"name":"Marigny","latitude":"49.09952000","longitude":"-1.24179000"},{"name":"Maromme","latitude":"49.47925000","longitude":"1.02375000"},{"name":"Martin-Église","latitude":"49.90174000","longitude":"1.14120000"},{"name":"Martinvast","latitude":"49.59608000","longitude":"-1.66434000"},{"name":"Mathieu","latitude":"49.25448000","longitude":"-0.37188000"},{"name":"May-sur-Orne","latitude":"49.10107000","longitude":"-0.37471000"},{"name":"Menneval","latitude":"49.10000000","longitude":"0.61667000"},{"name":"Merville-Franceville-Plage","latitude":"49.27218000","longitude":"-0.19616000"},{"name":"Mesnières-en-Bray","latitude":"49.76172000","longitude":"1.38187000"},{"name":"Messei","latitude":"48.71157000","longitude":"-0.53739000"},{"name":"Mondeville","latitude":"49.17497000","longitude":"-0.32238000"},{"name":"Mont-Saint-Aignan","latitude":"49.46307000","longitude":"1.09364000"},{"name":"Montaure","latitude":"49.23417000","longitude":"1.08837000"},{"name":"Montebourg","latitude":"49.48774000","longitude":"-1.38036000"},{"name":"Montigny","latitude":"49.45960000","longitude":"1.00168000"},{"name":"Montivilliers","latitude":"49.54518000","longitude":"0.18769000"},{"name":"Montmain","latitude":"49.40996000","longitude":"1.23742000"},{"name":"Montmartin-sur-Mer","latitude":"48.98861000","longitude":"-1.52530000"},{"name":"Mortagne-au-Perche","latitude":"48.52018000","longitude":"0.54734000"},{"name":"Mortain","latitude":"48.64782000","longitude":"-0.94055000"},{"name":"Mortrée","latitude":"48.63899000","longitude":"0.07909000"},{"name":"Mouen","latitude":"49.14696000","longitude":"-0.48366000"},{"name":"Moult","latitude":"49.11494000","longitude":"-0.16472000"},{"name":"Moyaux","latitude":"49.19511000","longitude":"0.35603000"},{"name":"Ménilles","latitude":"49.03333000","longitude":"1.36667000"},{"name":"Nassandres","latitude":"49.12632000","longitude":"0.73597000"},{"name":"Neaufles-Saint-Martin","latitude":"49.27650000","longitude":"1.72794000"},{"name":"Neufchâtel-en-Bray","latitude":"49.73315000","longitude":"1.43956000"},{"name":"Nointot","latitude":"49.59822000","longitude":"0.47674000"},{"name":"Nonancourt","latitude":"48.77086000","longitude":"1.19799000"},{"name":"Normanville","latitude":"49.07868000","longitude":"1.15915000"},{"name":"Notre-Dame-de-Bondeville","latitude":"49.48333000","longitude":"1.05000000"},{"name":"Notre-Dame-de-Gravenchon","latitude":"49.48940000","longitude":"0.57188000"},{"name":"Néville","latitude":"49.82472000","longitude":"0.70862000"},{"name":"Octeville","latitude":"49.62612000","longitude":"-1.64349000"},{"name":"Octeville-sur-Mer","latitude":"49.55496000","longitude":"0.11660000"},{"name":"Offranville","latitude":"49.87208000","longitude":"1.04817000"},{"name":"Oissel","latitude":"49.33309000","longitude":"1.09413000"},{"name":"Orbec","latitude":"49.01667000","longitude":"0.41667000"},{"name":"Orival","latitude":"49.72429000","longitude":"1.20512000"},{"name":"Ouistreham","latitude":"49.27566000","longitude":"-0.25910000"},{"name":"Ourville-en-Caux","latitude":"49.72854000","longitude":"0.60460000"},{"name":"Pacy-sur-Eure","latitude":"49.01667000","longitude":"1.38333000"},{"name":"Parigny","latitude":"48.59450000","longitude":"-1.07925000"},{"name":"Pavilly","latitude":"49.56703000","longitude":"0.95445000"},{"name":"Percy","latitude":"48.91714000","longitude":"-1.18916000"},{"name":"Perriers-sur-Andelle","latitude":"49.41487000","longitude":"1.37098000"},{"name":"Petit-Couronne","latitude":"49.38333000","longitude":"1.01667000"},{"name":"Petiville","latitude":"49.46078000","longitude":"0.58740000"},{"name":"Picauville","latitude":"49.37810000","longitude":"-1.40048000"},{"name":"Pirou","latitude":"49.18089000","longitude":"-1.57384000"},{"name":"Pissy-Pôville","latitude":"49.52986000","longitude":"0.99281000"},{"name":"Pont-Audemer","latitude":"49.35000000","longitude":"0.51667000"},{"name":"Pont-Hébert","latitude":"49.16714000","longitude":"-1.13428000"},{"name":"Pont-Saint-Pierre","latitude":"49.33561000","longitude":"1.27601000"},{"name":"Pont-d'Ouilly","latitude":"48.87590000","longitude":"-0.40221000"},{"name":"Pont-l’Évêque","latitude":"49.28912000","longitude":"0.19161000"},{"name":"Pont-Écrepin","latitude":"48.76425000","longitude":"-0.24455000"},{"name":"Pontorson","latitude":"48.55316000","longitude":"-1.50754000"},{"name":"Port-en-Bessin-Huppain","latitude":"49.34460000","longitude":"-0.75557000"},{"name":"Portbail","latitude":"49.33571000","longitude":"-1.69560000"},{"name":"Poses","latitude":"49.30539000","longitude":"1.24353000"},{"name":"Potigny","latitude":"48.96925000","longitude":"-0.24166000"},{"name":"Préaux","latitude":"49.49136000","longitude":"1.21583000"},{"name":"Putanges-Pont-Écrepin","latitude":"48.76667000","longitude":"-0.25000000"},{"name":"Périers","latitude":"49.18667000","longitude":"-1.40762000"},{"name":"Pîtres","latitude":"49.31667000","longitude":"1.23333000"},{"name":"Querqueville","latitude":"49.66251000","longitude":"-1.69119000"},{"name":"Quettehou","latitude":"49.59308000","longitude":"-1.30352000"},{"name":"Quettreville-sur-Sienne","latitude":"48.96802000","longitude":"-1.46782000"},{"name":"Quillebeuf-sur-Seine","latitude":"49.46934000","longitude":"0.52793000"},{"name":"Quincampoix","latitude":"49.52710000","longitude":"1.18849000"},{"name":"Radon","latitude":"48.50246000","longitude":"0.10278000"},{"name":"Rai","latitude":"48.75000000","longitude":"0.58333000"},{"name":"Ranville","latitude":"49.23071000","longitude":"-0.25560000"},{"name":"Rogerville","latitude":"49.50296000","longitude":"0.26516000"},{"name":"Rolleville","latitude":"49.58232000","longitude":"0.21177000"},{"name":"Romagny","latitude":"48.63931000","longitude":"-0.96605000"},{"name":"Romilly-sur-Andelle","latitude":"49.33190000","longitude":"1.26127000"},{"name":"Roncherolles-sur-le-Vivier","latitude":"49.46667000","longitude":"1.18333000"},{"name":"Rots","latitude":"49.21235000","longitude":"-0.47319000"},{"name":"Rouen","latitude":"49.44313000","longitude":"1.09932000"},{"name":"Roumare","latitude":"49.51008000","longitude":"0.97422000"},{"name":"Routot","latitude":"49.37800000","longitude":"0.73346000"},{"name":"Rouxmesnil-Bouteilles","latitude":"49.90633000","longitude":"1.07976000"},{"name":"Rugles","latitude":"48.82212000","longitude":"0.70979000"},{"name":"Rémalard","latitude":"48.42867000","longitude":"0.77185000"},{"name":"Réville","latitude":"49.61906000","longitude":"-1.25868000"},{"name":"Sahurs","latitude":"49.35863000","longitude":"0.94256000"},{"name":"Saint-Amand","latitude":"49.04338000","longitude":"-0.96491000"},{"name":"Saint-André-sur-Orne","latitude":"49.11741000","longitude":"-0.38227000"},{"name":"Saint-Arnoult","latitude":"49.52676000","longitude":"0.67117000"},{"name":"Saint-Aubin-Routot","latitude":"49.52341000","longitude":"0.32602000"},{"name":"Saint-Aubin-lès-Elbeuf","latitude":"49.30360000","longitude":"1.01056000"},{"name":"Saint-Aubin-sur-Gaillon","latitude":"49.14701000","longitude":"1.32914000"},{"name":"Saint-Aubin-sur-Mer","latitude":"49.32787000","longitude":"-0.38696000"},{"name":"Saint-Aubin-sur-Scie","latitude":"49.87162000","longitude":"1.06823000"},{"name":"Saint-Contest","latitude":"49.21401000","longitude":"-0.40221000"},{"name":"Saint-Denis-sur-Sarthon","latitude":"48.45320000","longitude":"-0.04720000"},{"name":"Saint-Désir","latitude":"49.14056000","longitude":"0.21398000"},{"name":"Saint-Eustache-la-Forêt","latitude":"49.55137000","longitude":"0.45599000"},{"name":"Saint-Gatien-des-Bois","latitude":"49.35000000","longitude":"0.18333000"},{"name":"Saint-Georges-des-Groseillers","latitude":"48.76993000","longitude":"-0.56768000"},{"name":"Saint-Germain-Village","latitude":"49.34908000","longitude":"0.50331000"},{"name":"Saint-Germain-du-Corbéis","latitude":"48.42215000","longitude":"0.06193000"},{"name":"Saint-Germain-la-Blanche-Herbe","latitude":"49.18327000","longitude":"-0.40426000"},{"name":"Saint-Germain-sur-Avre","latitude":"48.76466000","longitude":"1.26776000"},{"name":"Saint-Hilaire-Petitville","latitude":"49.30250000","longitude":"-1.21995000"},{"name":"Saint-Hilaire-du-Harcouët","latitude":"48.57700000","longitude":"-1.09004000"},{"name":"Saint-Jacques-sur-Darnétal","latitude":"49.43980000","longitude":"1.20359000"},{"name":"Saint-James","latitude":"48.52180000","longitude":"-1.32629000"},{"name":"Saint-Jean-des-Baisants","latitude":"49.09371000","longitude":"-0.97289000"},{"name":"Saint-Jean-des-Champs","latitude":"48.82800000","longitude":"-1.46487000"},{"name":"Saint-Jean-du-Cardonnay","latitude":"49.50455000","longitude":"1.01140000"},{"name":"Saint-Jouin-Bruneval","latitude":"49.64275000","longitude":"0.16400000"},{"name":"Saint-Just","latitude":"49.10852000","longitude":"1.44101000"},{"name":"Saint-Laurent-de-Brévedent","latitude":"49.52564000","longitude":"0.25458000"},{"name":"Saint-Léger-du-Bourg-Denis","latitude":"49.43345000","longitude":"1.15803000"},{"name":"Saint-Léonard","latitude":"49.74252000","longitude":"0.35907000"},{"name":"Saint-Lô","latitude":"49.11624000","longitude":"-1.09031000"},{"name":"Saint-Manvieu","latitude":"49.18067000","longitude":"-0.50211000"},{"name":"Saint-Manvieu-Norrey","latitude":"49.18139000","longitude":"-0.50000000"},{"name":"Saint-Marcel","latitude":"49.10000000","longitude":"1.45000000"},{"name":"Saint-Martin-Osmonville","latitude":"49.63873000","longitude":"1.29952000"},{"name":"Saint-Martin-de-Boscherville","latitude":"49.44377000","longitude":"0.96271000"},{"name":"Saint-Martin-de-Fontenay","latitude":"49.11523000","longitude":"-0.37391000"},{"name":"Saint-Martin-de-Landelles","latitude":"48.54530000","longitude":"-1.17240000"},{"name":"Saint-Martin-des-Besaces","latitude":"49.01091000","longitude":"-0.84500000"},{"name":"Saint-Martin-des-Champs","latitude":"48.66841000","longitude":"-1.33393000"},{"name":"Saint-Martin-du-Manoir","latitude":"49.53213000","longitude":"0.23759000"},{"name":"Saint-Martin-du-Vivier","latitude":"49.46667000","longitude":"1.16667000"},{"name":"Saint-Martin-en-Campagne","latitude":"49.95648000","longitude":"1.22233000"},{"name":"Saint-Nicolas-de-la-Taille","latitude":"49.51085000","longitude":"0.47405000"},{"name":"Saint-Nicolas-d’Aliermont","latitude":"49.87857000","longitude":"1.22486000"},{"name":"Saint-Ouen-de-Thouberville","latitude":"49.35726000","longitude":"0.88848000"},{"name":"Saint-Ouen-du-Tilleul","latitude":"49.29723000","longitude":"0.94760000"},{"name":"Saint-Pair-sur-Mer","latitude":"48.81455000","longitude":"-1.56761000"},{"name":"Saint-Paër","latitude":"49.51452000","longitude":"0.87935000"},{"name":"Saint-Pierre-de-Varengeville","latitude":"49.50240000","longitude":"0.93118000"},{"name":"Saint-Pierre-des-Fleurs","latitude":"49.25000000","longitude":"0.96667000"},{"name":"Saint-Pierre-du-Regard","latitude":"48.84286000","longitude":"-0.54631000"},{"name":"Saint-Pierre-du-Vauvray","latitude":"49.23208000","longitude":"1.22125000"},{"name":"Saint-Pierre-en-Val","latitude":"50.02168000","longitude":"1.44707000"},{"name":"Saint-Pierre-lès-Elbeuf","latitude":"49.27901000","longitude":"1.04305000"},{"name":"Saint-Pierre-sur-Dives","latitude":"49.01667000","longitude":"-0.03333000"},{"name":"Saint-Pierre-Église","latitude":"49.66848000","longitude":"-1.40358000"},{"name":"Saint-Planchers","latitude":"48.82269000","longitude":"-1.52598000"},{"name":"Saint-Quentin-sur-le-Homme","latitude":"48.64751000","longitude":"-1.31806000"},{"name":"Saint-Romain-de-Colbosc","latitude":"49.53093000","longitude":"0.35719000"},{"name":"Saint-Rémy","latitude":"48.94007000","longitude":"-0.50344000"},{"name":"Saint-Sauveur-Lendelin","latitude":"49.12988000","longitude":"-1.41405000"},{"name":"Saint-Sauveur-le-Vicomte","latitude":"49.38547000","longitude":"-1.53310000"},{"name":"Saint-Saëns","latitude":"49.67302000","longitude":"1.28525000"},{"name":"Saint-Senier-sous-Avranches","latitude":"48.68399000","longitude":"-1.33126000"},{"name":"Saint-Sever-Calvados","latitude":"48.84035000","longitude":"-1.04773000"},{"name":"Saint-Sulpice-sur-Risle","latitude":"48.78063000","longitude":"0.65739000"},{"name":"Saint-Sylvain","latitude":"49.05624000","longitude":"-0.21758000"},{"name":"Saint-Sébastien-de-Morsent","latitude":"49.01096000","longitude":"1.08730000"},{"name":"Saint-Vaast-la-Hougue","latitude":"49.58843000","longitude":"-1.26931000"},{"name":"Saint-Valery-en-Caux","latitude":"49.86667000","longitude":"0.73333000"},{"name":"Saint-Vigor-le-Grand","latitude":"49.28242000","longitude":"-0.68579000"},{"name":"Saint-Wandrille-Rançon","latitude":"49.52658000","longitude":"0.76497000"},{"name":"Saint-Étienne-du-Rouvray","latitude":"49.37794000","longitude":"1.10467000"},{"name":"Sainte-Adresse","latitude":"49.50890000","longitude":"0.08446000"},{"name":"Sainte-Gauburge-Sainte-Colombe","latitude":"48.71722000","longitude":"0.43126000"},{"name":"Sainte-Honorine-du-Fay","latitude":"49.07775000","longitude":"-0.49295000"},{"name":"Sainte-Marguerite-sur-Duclair","latitude":"49.50852000","longitude":"0.84362000"},{"name":"Sainte-Marie-des-Champs","latitude":"49.62120000","longitude":"0.77904000"},{"name":"Sainte-Mère-Église","latitude":"49.41000000","longitude":"-1.31726000"},{"name":"Sannerville","latitude":"49.18018000","longitude":"-0.22434000"},{"name":"Sartilly","latitude":"48.75239000","longitude":"-1.45678000"},{"name":"Seine-Maritime","latitude":"49.67278000","longitude":"1.12519000"},{"name":"Serqueux","latitude":"49.63202000","longitude":"1.54005000"},{"name":"Serquigny","latitude":"49.10943000","longitude":"0.71016000"},{"name":"Soliers","latitude":"49.13440000","longitude":"-0.29613000"},{"name":"Sottevast","latitude":"49.52374000","longitude":"-1.59169000"},{"name":"Sotteville-lès-Rouen","latitude":"49.40972000","longitude":"1.09005000"},{"name":"Sourdeval","latitude":"48.72312000","longitude":"-0.92223000"},{"name":"Surtainville","latitude":"49.45977000","longitude":"-1.81298000"},{"name":"Sées","latitude":"48.60403000","longitude":"0.17244000"},{"name":"Tancarville","latitude":"49.48550000","longitude":"0.45765000"},{"name":"Tessy-sur-Vire","latitude":"48.97381000","longitude":"-1.06087000"},{"name":"Tessé-la-Madeleine","latitude":"48.54963000","longitude":"-0.42521000"},{"name":"Thaon","latitude":"49.25796000","longitude":"-0.45605000"},{"name":"Thiberville","latitude":"49.13768000","longitude":"0.45502000"},{"name":"Thury-Harcourt","latitude":"48.98434000","longitude":"-0.47519000"},{"name":"Tillières-sur-Avre","latitude":"48.75585000","longitude":"1.05388000"},{"name":"Tilly-sur-Seulles","latitude":"49.17598000","longitude":"-0.62605000"},{"name":"Tinchebray","latitude":"48.76437000","longitude":"-0.73333000"},{"name":"Tollevast","latitude":"49.57437000","longitude":"-1.62746000"},{"name":"Torigni-sur-Vire","latitude":"49.03702000","longitude":"-0.98214000"},{"name":"Touques","latitude":"49.34443000","longitude":"0.10218000"},{"name":"Tourlaville","latitude":"49.63829000","longitude":"-1.56639000"},{"name":"Tourouvre","latitude":"48.58951000","longitude":"0.65253000"},{"name":"Tourville-la-Rivière","latitude":"49.32782000","longitude":"1.10551000"},{"name":"Tourville-sur-Arques","latitude":"49.85926000","longitude":"1.10238000"},{"name":"Tourville-sur-Odon","latitude":"49.14154000","longitude":"-0.50128000"},{"name":"Toutainville","latitude":"49.36474000","longitude":"0.46538000"},{"name":"Troarn","latitude":"49.17835000","longitude":"-0.18169000"},{"name":"Trouville-sur-Mer","latitude":"49.36570000","longitude":"0.08041000"},{"name":"Trun","latitude":"48.84268000","longitude":"0.03268000"},{"name":"Turretot","latitude":"49.60923000","longitude":"0.23422000"},{"name":"Tôtes","latitude":"49.68091000","longitude":"1.04649000"},{"name":"Urville-Nacqueville","latitude":"49.67444000","longitude":"-1.73664000"},{"name":"Val-de-Reuil","latitude":"49.27385000","longitude":"1.21021000"},{"name":"Valframbert","latitude":"48.46465000","longitude":"0.10828000"},{"name":"Valliquerville","latitude":"49.61385000","longitude":"0.68703000"},{"name":"Valognes","latitude":"49.50881000","longitude":"-1.47047000"},{"name":"Varengeville-sur-Mer","latitude":"49.90475000","longitude":"0.99479000"},{"name":"Vassy","latitude":"48.85381000","longitude":"-0.67485000"},{"name":"Vaudry","latitude":"48.84130000","longitude":"-0.85309000"},{"name":"Ver-sur-Mer","latitude":"49.32987000","longitude":"-0.53118000"},{"name":"Verneuil-sur-Avre","latitude":"48.73949000","longitude":"0.92731000"},{"name":"Vernon","latitude":"49.09292000","longitude":"1.46332000"},{"name":"Verson","latitude":"49.15432000","longitude":"-0.45628000"},{"name":"Villedieu-les-Poêles","latitude":"48.83333000","longitude":"-1.21667000"},{"name":"Villers-Bocage","latitude":"49.07960000","longitude":"-0.65412000"},{"name":"Villers-sur-Mer","latitude":"49.32264000","longitude":"0.00027000"},{"name":"Villers-Écalles","latitude":"49.54136000","longitude":"0.91942000"},{"name":"Vimoutiers","latitude":"48.92772000","longitude":"0.19835000"},{"name":"Vire","latitude":"48.83849000","longitude":"-0.88929000"},{"name":"Yainville","latitude":"49.45371000","longitude":"0.82920000"},{"name":"Yerville","latitude":"49.66720000","longitude":"0.89594000"},{"name":"Ymare","latitude":"49.35060000","longitude":"1.17938000"},{"name":"Yport","latitude":"49.73716000","longitude":"0.31537000"},{"name":"Yvetot","latitude":"49.61744000","longitude":"0.75814000"},{"name":"Yébleron","latitude":"49.63333000","longitude":"0.53746000"},{"name":"Écouché","latitude":"48.71751000","longitude":"-0.12409000"},{"name":"Écrainville","latitude":"49.64943000","longitude":"0.32488000"},{"name":"Épaignes","latitude":"49.27945000","longitude":"0.43980000"},{"name":"Épouville","latitude":"49.56349000","longitude":"0.22373000"},{"name":"Épron","latitude":"49.22174000","longitude":"-0.37085000"},{"name":"Équemauville","latitude":"49.39406000","longitude":"0.20760000"},{"name":"Équeurdreville-Hainneville","latitude":"49.64868000","longitude":"-1.65306000"},{"name":"Étainhus","latitude":"49.56648000","longitude":"0.31285000"},{"name":"Éterville","latitude":"49.14423000","longitude":"-0.42512000"},{"name":"Étretat","latitude":"49.70669000","longitude":"0.20523000"},{"name":"Étrépagny","latitude":"49.30623000","longitude":"1.61139000"},{"name":"Évrecy","latitude":"49.09904000","longitude":"-0.50421000"},{"name":"Évreux","latitude":"49.02414000","longitude":"1.15082000"},{"name":"Ézy-sur-Eure","latitude":"48.86667000","longitude":"1.41667000"}]