[{"name":"Acauã","latitude":"-8.31552000","longitude":"-40.91283000"},{"name":"Agricolândia","latitude":"-5.74819000","longitude":"-42.67458000"},{"name":"Alagoinha do Piauí","latitude":"-6.98016000","longitude":"-40.91814000"},{"name":"Alegrete do Piauí","latitude":"-7.16226000","longitude":"-40.82488000"},{"name":"Alto Longá","latitude":"-5.40788000","longitude":"-42.06612000"},{"name":"Altos","latitude":"-5.03806000","longitude":"-42.46000000"},{"name":"Alvorada do Gurguéia","latitude":"-8.38553000","longitude":"-43.83237000"},{"name":"Amarante","latitude":"-6.37020000","longitude":"-42.78806000"},{"name":"Angical do Piauí","latitude":"-6.09884000","longitude":"-42.72022000"},{"name":"Antônio Almeida","latitude":"-7.12211000","longitude":"-44.25307000"},{"name":"Anísio de Abreu","latitude":"-9.24779000","longitude":"-43.05238000"},{"name":"Aroazes","latitude":"-6.20348000","longitude":"-41.86926000"},{"name":"Aroeiras do Itaim","latitude":"-7.27000000","longitude":"-41.56000000"},{"name":"Arraial","latitude":"-6.62721000","longitude":"-42.49393000"},{"name":"Assunção do Piauí","latitude":"-5.85575000","longitude":"-40.94796000"},{"name":"Avelino Lopes","latitude":"-10.11463000","longitude":"-43.89286000"},{"name":"Baixa Grande do Ribeiro","latitude":"-8.69171000","longitude":"-45.12583000"},{"name":"Barra d'Alcântara","latitude":"-6.54095000","longitude":"-42.11504000"},{"name":"Barras","latitude":"-4.24444000","longitude":"-42.29444000"},{"name":"Barreiras do Piauí","latitude":"-9.99042000","longitude":"-45.69329000"},{"name":"Barro Duro","latitude":"-5.85063000","longitude":"-42.45878000"},{"name":"Batalha","latitude":"-3.99736000","longitude":"-42.10645000"},{"name":"Bela Vista do Piauí","latitude":"-7.91606000","longitude":"-41.90091000"},{"name":"Belém do Piauí","latitude":"-7.40657000","longitude":"-40.98873000"},{"name":"Beneditinos","latitude":"-5.45000000","longitude":"-42.36667000"},{"name":"Bertolínia","latitude":"-7.75477000","longitude":"-43.79588000"},{"name":"Betânia do Piauí","latitude":"-8.06430000","longitude":"-40.85924000"},{"name":"Boa Hora","latitude":"-4.35576000","longitude":"-42.14109000"},{"name":"Bocaina","latitude":"-6.89508000","longitude":"-41.32746000"},{"name":"Bom Jesus","latitude":"-9.07444000","longitude":"-44.35861000"},{"name":"Bom Princípio do Piauí","latitude":"-3.23751000","longitude":"-41.64572000"},{"name":"Bonfim do Piauí","latitude":"-9.16462000","longitude":"-42.88253000"},{"name":"Boqueirão do Piauí","latitude":"-4.56650000","longitude":"-42.13601000"},{"name":"Brasileira","latitude":"-4.13325000","longitude":"-41.58774000"},{"name":"Brejo do Piauí","latitude":"-8.26858000","longitude":"-42.78801000"},{"name":"Buriti dos Lopes","latitude":"-3.17500000","longitude":"-41.86694000"},{"name":"Buriti dos Montes","latitude":"-5.20888000","longitude":"-41.25078000"},{"name":"Cabeceiras do Piauí","latitude":"-4.43347000","longitude":"-42.23060000"},{"name":"Cajazeiras do Piauí","latitude":"-6.78182000","longitude":"-42.39243000"},{"name":"Cajueiro da Praia","latitude":"-2.98747000","longitude":"-41.35439000"},{"name":"Caldeirão Grande do Piauí","latitude":"-7.34361000","longitude":"-40.58774000"},{"name":"Campinas do Piauí","latitude":"-7.67905000","longitude":"-41.87938000"},{"name":"Campo Alegre do Fidalgo","latitude":"-8.31452000","longitude":"-41.79184000"},{"name":"Campo Grande do Piauí","latitude":"-7.22070000","longitude":"-41.04511000"},{"name":"Campo Largo do Piauí","latitude":"-3.85518000","longitude":"-42.60317000"},{"name":"Campo Maior","latitude":"-4.82778000","longitude":"-42.16861000"},{"name":"Canavieira","latitude":"-7.50756000","longitude":"-43.68630000"},{"name":"Canto do Buriti","latitude":"-8.11000000","longitude":"-42.94444000"},{"name":"Capitão Gervásio Oliveira","latitude":"-8.52938000","longitude":"-41.90126000"},{"name":"Capitão de Campos","latitude":"-4.47203000","longitude":"-41.88512000"},{"name":"Caracol","latitude":"-9.34943000","longitude":"-43.27078000"},{"name":"Caraúbas do Piauí","latitude":"-3.53699000","longitude":"-41.84588000"},{"name":"Caridade do Piauí","latitude":"-7.70139000","longitude":"-40.89597000"},{"name":"Castelo do Piauí","latitude":"-5.21580000","longitude":"-41.55735000"},{"name":"Caxingó","latitude":"-3.40863000","longitude":"-41.88771000"},{"name":"Cocal","latitude":"-3.43751000","longitude":"-41.54594000"},{"name":"Cocal de Telha","latitude":"-4.64857000","longitude":"-41.99568000"},{"name":"Cocal dos Alves","latitude":"-3.57383000","longitude":"-41.45183000"},{"name":"Coivaras","latitude":"-5.11661000","longitude":"-42.26583000"},{"name":"Colônia do Gurguéia","latitude":"-8.14465000","longitude":"-43.77459000"},{"name":"Colônia do Piauí","latitude":"-7.22638000","longitude":"-42.21262000"},{"name":"Conceição do Canindé","latitude":"-7.98695000","longitude":"-41.57544000"},{"name":"Coronel José Dias","latitude":"-9.07216000","longitude":"-42.27241000"},{"name":"Corrente","latitude":"-10.47219000","longitude":"-45.04691000"},{"name":"Cristalândia do Piauí","latitude":"-10.82007000","longitude":"-45.11052000"},{"name":"Cristino Castro","latitude":"-8.69043000","longitude":"-44.04806000"},{"name":"Curimatá","latitude":"-9.86209000","longitude":"-44.38994000"},{"name":"Currais","latitude":"-8.73985000","longitude":"-44.86466000"},{"name":"Curral Novo do Piauí","latitude":"-7.88978000","longitude":"-40.76427000"},{"name":"Curralinhos","latitude":"-5.58488000","longitude":"-42.86082000"},{"name":"Demerval Lobão","latitude":"-5.35833000","longitude":"-42.67639000"},{"name":"Dirceu Arcoverde","latitude":"-9.33230000","longitude":"-42.43422000"},{"name":"Dom Expedito Lopes","latitude":"-6.95806000","longitude":"-41.71629000"},{"name":"Dom Inocêncio","latitude":"-8.88480000","longitude":"-41.72000000"},{"name":"Domingos Mourão","latitude":"-4.19141000","longitude":"-41.34833000"},{"name":"Elesbão Veloso","latitude":"-6.19359000","longitude":"-42.16607000"},{"name":"Eliseu Martins","latitude":"-7.90155000","longitude":"-43.77769000"},{"name":"Esperantina","latitude":"-3.84898000","longitude":"-42.17102000"},{"name":"Fartura do Piauí","latitude":"-9.52033000","longitude":"-42.78927000"},{"name":"Flores do Piauí","latitude":"-7.64121000","longitude":"-42.84551000"},{"name":"Floresta do Piauí","latitude":"-7.47628000","longitude":"-41.84428000"},{"name":"Floriano","latitude":"-6.76694000","longitude":"-43.02250000"},{"name":"Francinópolis","latitude":"-6.41032000","longitude":"-42.24638000"},{"name":"Francisco Ayres","latitude":"-6.69130000","longitude":"-42.69202000"},{"name":"Francisco Macedo","latitude":"-7.35845000","longitude":"-40.77056000"},{"name":"Francisco Santos","latitude":"-7.10293000","longitude":"-41.14500000"},{"name":"Fronteiras","latitude":"-7.01250000","longitude":"-40.56213000"},{"name":"Geminiano","latitude":"-7.16595000","longitude":"-41.38802000"},{"name":"Gilbués","latitude":"-9.72737000","longitude":"-45.52017000"},{"name":"Guadalupe","latitude":"-6.82297000","longitude":"-43.77762000"},{"name":"Guaribas","latitude":"-9.28870000","longitude":"-43.58188000"},{"name":"Hugo Napoleão","latitude":"-6.03293000","longitude":"-42.46773000"},{"name":"Ilha Grande","latitude":"-2.84022000","longitude":"-41.82881000"},{"name":"Inhuma","latitude":"-6.66187000","longitude":"-41.68135000"},{"name":"Ipiranga do Piauí","latitude":"-6.84634000","longitude":"-41.74687000"},{"name":"Ipueiras","latitude":"-7.03333000","longitude":"-40.45000000"},{"name":"Isaías Coelho","latitude":"-7.54521000","longitude":"-41.64289000"},{"name":"Itainópolis","latitude":"-7.45524000","longitude":"-41.54165000"},{"name":"Itaueira","latitude":"-7.60333000","longitude":"-43.02556000"},{"name":"Jacobina do Piauí","latitude":"-7.96488000","longitude":"-41.17396000"},{"name":"Jaicós","latitude":"-7.45645000","longitude":"-41.22016000"},{"name":"Jardim do Mulato","latitude":"-6.15734000","longitude":"-42.47763000"},{"name":"Jatobá do Piauí","latitude":"-4.80296000","longitude":"-41.89545000"},{"name":"Jerumenha","latitude":"-7.09885000","longitude":"-43.54675000"},{"name":"Joaquim Pires","latitude":"-3.53692000","longitude":"-42.07750000"},{"name":"Joca Marques","latitude":"-3.54211000","longitude":"-42.43579000"},{"name":"José de Freitas","latitude":"-4.72992000","longitude":"-42.61373000"},{"name":"João Costa","latitude":"-8.54315000","longitude":"-42.41513000"},{"name":"Juazeiro do Piauí","latitude":"-5.02486000","longitude":"-41.52841000"},{"name":"Jurema","latitude":"-9.29862000","longitude":"-43.15301000"},{"name":"Júlio Borges","latitude":"-10.51580000","longitude":"-44.19178000"},{"name":"Lagoa Alegre","latitude":"-4.49510000","longitude":"-42.56555000"},{"name":"Lagoa de São Francisco","latitude":"-4.35468000","longitude":"-41.59168000"},{"name":"Lagoa do Barro do Piauí","latitude":"-8.73535000","longitude":"-41.54813000"},{"name":"Lagoa do Piauí","latitude":"-5.47513000","longitude":"-42.54814000"},{"name":"Lagoa do Sítio","latitude":"-6.51918000","longitude":"-41.42058000"},{"name":"Lagoinha do Piauí","latitude":"-5.80702000","longitude":"-42.62796000"},{"name":"Landri Sales","latitude":"-7.23268000","longitude":"-43.86456000"},{"name":"Luzilândia","latitude":"-3.60743000","longitude":"-42.36456000"},{"name":"Luís Correia","latitude":"-3.03117000","longitude":"-41.51665000"},{"name":"Madeiro","latitude":"-3.54658000","longitude":"-42.51114000"},{"name":"Manoel Emídio","latitude":"-8.16469000","longitude":"-43.83360000"},{"name":"Marcolândia","latitude":"-7.40891000","longitude":"-40.74945000"},{"name":"Marcos Parente","latitude":"-7.05412000","longitude":"-43.91664000"},{"name":"Massapê do Piauí","latitude":"-7.53879000","longitude":"-41.01755000"},{"name":"Matias Olímpio","latitude":"-3.68774000","longitude":"-42.60695000"},{"name":"Miguel Alves","latitude":"-4.15790000","longitude":"-42.77263000"},{"name":"Miguel Leão","latitude":"-5.72867000","longitude":"-42.68942000"},{"name":"Milton Brandão","latitude":"-4.74021000","longitude":"-41.59457000"},{"name":"Monsenhor Gil","latitude":"-5.64162000","longitude":"-42.54879000"},{"name":"Monsenhor Hipólito","latitude":"-6.94982000","longitude":"-41.03155000"},{"name":"Monte Alegre do Piauí","latitude":"-9.74213000","longitude":"-44.98266000"},{"name":"Morro Cabeça no Tempo","latitude":"-9.87713000","longitude":"-43.90657000"},{"name":"Morro do Chapéu do Piauí","latitude":"-3.68694000","longitude":"-42.22185000"},{"name":"Murici dos Portelas","latitude":"-3.36504000","longitude":"-42.00218000"},{"name":"Nazaré do Piauí","latitude":"-7.03279000","longitude":"-42.73216000"},{"name":"Nazária","latitude":"-5.44546000","longitude":"-42.86840000"},{"name":"Nossa Senhora de Nazaré","latitude":"-4.63841000","longitude":"-42.19017000"},{"name":"Nossa Senhora dos Remédios","latitude":"-4.05765000","longitude":"-42.60651000"},{"name":"Nova Santa Rita","latitude":"-8.11204000","longitude":"-42.01361000"},{"name":"Novo Oriente do Piauí","latitude":"-6.55034000","longitude":"-41.98555000"},{"name":"Novo Santo Antônio","latitude":"-5.32848000","longitude":"-41.96256000"},{"name":"Oeiras","latitude":"-6.90686000","longitude":"-42.17529000"},{"name":"Olho d'Água do Piauí","latitude":"-5.84854000","longitude":"-42.53937000"},{"name":"Padre Marcos","latitude":"-7.36533000","longitude":"-40.93416000"},{"name":"Paes Landim","latitude":"-7.77461000","longitude":"-42.35087000"},{"name":"Pajeú do Piauí","latitude":"-8.05364000","longitude":"-42.86625000"},{"name":"Palmeira do Piauí","latitude":"-8.51549000","longitude":"-44.43642000"},{"name":"Palmeirais","latitude":"-5.78548000","longitude":"-43.02434000"},{"name":"Paquetá","latitude":"-7.10746000","longitude":"-41.64719000"},{"name":"Parnaguá","latitude":"-10.12155000","longitude":"-44.56012000"},{"name":"Parnaíba","latitude":"-2.92278000","longitude":"-41.73536000"},{"name":"Passagem Franca do Piauí","latitude":"-5.82734000","longitude":"-42.40584000"},{"name":"Patos do Piauí","latitude":"-7.60918000","longitude":"-41.29464000"},{"name":"Pau D'arco do Piauí","latitude":"-5.24511000","longitude":"-42.45473000"},{"name":"Paulistana","latitude":"-8.22526000","longitude":"-41.22746000"},{"name":"Pavussu","latitude":"-7.88646000","longitude":"-43.19694000"},{"name":"Pedro II","latitude":"-4.49028000","longitude":"-41.39962000"},{"name":"Pedro Laurentino","latitude":"-8.11766000","longitude":"-42.23542000"},{"name":"Picos","latitude":"-7.10697000","longitude":"-41.51271000"},{"name":"Pimenteiras","latitude":"-6.24528000","longitude":"-41.41917000"},{"name":"Pio IX","latitude":"-6.86982000","longitude":"-40.59717000"},{"name":"Piracuruca","latitude":"-3.86656000","longitude":"-41.74153000"},{"name":"Piripiri","latitude":"-4.39488000","longitude":"-41.78819000"},{"name":"Porto","latitude":"-3.94558000","longitude":"-42.68879000"},{"name":"Porto Alegre do Piauí","latitude":"-6.95931000","longitude":"-44.07411000"},{"name":"Prata do Piauí","latitude":"-5.71099000","longitude":"-42.15331000"},{"name":"Queimada Nova","latitude":"-8.53997000","longitude":"-41.24753000"},{"name":"Redenção do Gurguéia","latitude":"-9.58205000","longitude":"-44.53802000"},{"name":"Regeneração","latitude":"-6.27844000","longitude":"-42.48165000"},{"name":"Riacho Frio","latitude":"-9.83660000","longitude":"-44.67899000"},{"name":"Ribeira do Piauí","latitude":"-8.09706000","longitude":"-42.57609000"},{"name":"Ribeiro Gonçalves","latitude":"-8.08721000","longitude":"-45.47197000"},{"name":"Rio Grande do Piauí","latitude":"-7.86062000","longitude":"-43.14551000"},{"name":"Santa Cruz do Piauí","latitude":"-7.26490000","longitude":"-41.76380000"},{"name":"Santa Cruz dos Milagres","latitude":"-5.83227000","longitude":"-41.95795000"},{"name":"Santa Filomena","latitude":"-8.89582000","longitude":"-45.66715000"},{"name":"Santa Luz","latitude":"-8.97437000","longitude":"-44.27778000"},{"name":"Santa Rosa do Piauí","latitude":"-6.82877000","longitude":"-42.24627000"},{"name":"Santana do Piauí","latitude":"-6.95247000","longitude":"-41.46185000"},{"name":"Santo Antônio de Lisboa","latitude":"-6.87642000","longitude":"-41.18103000"},{"name":"Santo Antônio dos Milagres","latitude":"-6.05399000","longitude":"-42.70083000"},{"name":"Santo Inácio do Piauí","latitude":"-7.46906000","longitude":"-41.91794000"},{"name":"Sebastião Barros","latitude":"-10.59755000","longitude":"-44.83609000"},{"name":"Sebastião Leal","latitude":"-7.51324000","longitude":"-44.02545000"},{"name":"Sigefredo Pacheco","latitude":"-4.79886000","longitude":"-41.78459000"},{"name":"Simplício Mendes","latitude":"-7.85389000","longitude":"-41.91028000"},{"name":"Simões","latitude":"-7.59889000","longitude":"-40.81778000"},{"name":"Socorro do Piauí","latitude":"-7.89820000","longitude":"-42.50745000"},{"name":"Sussuapara","latitude":"-7.00335000","longitude":"-41.39182000"},{"name":"São Braz do Piauí","latitude":"-8.97380000","longitude":"-42.97568000"},{"name":"São Francisco de Assis do Piauí","latitude":"-8.12334000","longitude":"-41.48056000"},{"name":"São Francisco do Piauí","latitude":"-7.16899000","longitude":"-42.55086000"},{"name":"São Félix do Piauí","latitude":"-5.88422000","longitude":"-42.10830000"},{"name":"São Gonçalo do Gurguéia","latitude":"-10.07630000","longitude":"-45.42387000"},{"name":"São Gonçalo do Piauí","latitude":"-6.02033000","longitude":"-42.67020000"},{"name":"São José do Divino","latitude":"-3.74297000","longitude":"-41.90119000"},{"name":"São José do Peixe","latitude":"-7.49544000","longitude":"-42.49355000"},{"name":"São José do Piauí","latitude":"-6.84096000","longitude":"-41.51702000"},{"name":"São João da Canabrava","latitude":"-6.72756000","longitude":"-41.38226000"},{"name":"São João da Fronteira","latitude":"-4.09363000","longitude":"-41.21552000"},{"name":"São João da Serra","latitude":"-5.44173000","longitude":"-41.85793000"},{"name":"São João da Varjota","latitude":"-6.94733000","longitude":"-41.92917000"},{"name":"São João do Arraial","latitude":"-3.80325000","longitude":"-42.46973000"},{"name":"São João do Piauí","latitude":"-8.27575000","longitude":"-42.34005000"},{"name":"São Julião","latitude":"-7.05987000","longitude":"-40.79725000"},{"name":"São Lourenço do Piauí","latitude":"-9.13336000","longitude":"-42.40297000"},{"name":"São Luis do Piauí","latitude":"-6.77801000","longitude":"-41.27650000"},{"name":"São Miguel da Baixa Grande","latitude":"-5.81791000","longitude":"-42.27077000"},{"name":"São Miguel do Fidalgo","latitude":"-7.59935000","longitude":"-42.38796000"},{"name":"São Miguel do Tapuio","latitude":"-5.70486000","longitude":"-41.61634000"},{"name":"São Pedro do Piauí","latitude":"-5.82135000","longitude":"-42.77168000"},{"name":"São Raimundo Nonato","latitude":"-9.05220000","longitude":"-42.60836000"},{"name":"Tamboril do Piauí","latitude":"-8.40278000","longitude":"-43.09084000"},{"name":"Tanque do Piauí","latitude":"-6.69614000","longitude":"-42.18310000"},{"name":"Teresina","latitude":"-5.10252000","longitude":"-42.74070000"},{"name":"União","latitude":"-4.59646000","longitude":"-42.86468000"},{"name":"Uruçuí","latitude":"-7.34206000","longitude":"-44.58334000"},{"name":"Valença do Piauí","latitude":"-6.27870000","longitude":"-41.81385000"},{"name":"Vera Mendes","latitude":"-7.55480000","longitude":"-41.50596000"},{"name":"Vila Nova do Piauí","latitude":"-7.18671000","longitude":"-40.93621000"},{"name":"Várzea Branca","latitude":"-9.34411000","longitude":"-42.95158000"},{"name":"Várzea Grande","latitude":"-6.56374000","longitude":"-42.17729000"},{"name":"Wall Ferraz","latitude":"-7.29532000","longitude":"-41.83730000"},{"name":"Água Branca","latitude":"-5.89222000","longitude":"-42.63611000"}]