[{"name":"Contramaestre","latitude":"20.29879000","longitude":"-76.24511000"},{"name":"El Cobre","latitude":"20.04850000","longitude":"-75.94579000"},{"name":"Municipio de Palma Soriano","latitude":"20.20897000","longitude":"-76.05776000"},{"name":"Municipio de Santiago de Cuba","latitude":"20.00617000","longitude":"-75.70816000"},{"name":"Palma Soriano","latitude":"20.21130000","longitude":"-75.99362000"},{"name":"San Luis","latitude":"20.18809000","longitude":"-75.85031000"},{"name":"Santiago de Cuba","latitude":"20.02083000","longitude":"-75.82667000"}]