[{"name":"Abbeville","latitude":"34.17817000","longitude":"-82.37901000"},{"name":"Abbeville County","latitude":"34.22257000","longitude":"-82.45871000"},{"name":"Aiken","latitude":"33.56042000","longitude":"-81.71955000"},{"name":"Aiken County","latitude":"33.54437000","longitude":"-81.63474000"},{"name":"Allendale","latitude":"33.00793000","longitude":"-81.30844000"},{"name":"Allendale County","latitude":"32.98811000","longitude":"-81.35820000"},{"name":"Anderson","latitude":"34.50344000","longitude":"-82.65013000"},{"name":"Anderson County","latitude":"34.51909000","longitude":"-82.63788000"},{"name":"Andrews","latitude":"33.45128000","longitude":"-79.56090000"},{"name":"Arcadia","latitude":"34.95818000","longitude":"-81.99066000"},{"name":"Arial","latitude":"34.84595000","longitude":"-82.64152000"},{"name":"Awendaw","latitude":"33.03767000","longitude":"-79.61313000"},{"name":"Bamberg","latitude":"33.29710000","longitude":"-81.03482000"},{"name":"Bamberg County","latitude":"33.21477000","longitude":"-81.05423000"},{"name":"Barnwell","latitude":"33.24487000","longitude":"-81.35872000"},{"name":"Barnwell County","latitude":"33.26606000","longitude":"-81.43502000"},{"name":"Batesburg","latitude":"33.90792000","longitude":"-81.54733000"},{"name":"Batesburg-Leesville","latitude":"33.91014000","longitude":"-81.53733000"},{"name":"Beaufort","latitude":"32.43158000","longitude":"-80.66983000"},{"name":"Beaufort County","latitude":"32.35706000","longitude":"-80.69217000"},{"name":"Belton","latitude":"34.52289000","longitude":"-82.49429000"},{"name":"Belvedere","latitude":"33.53097000","longitude":"-81.94484000"},{"name":"Bennettsville","latitude":"34.61738000","longitude":"-79.68478000"},{"name":"Berea","latitude":"34.88540000","longitude":"-82.45596000"},{"name":"Berkeley County","latitude":"33.19768000","longitude":"-79.95099000"},{"name":"Bishopville","latitude":"34.21821000","longitude":"-80.24841000"},{"name":"Blacksburg","latitude":"35.12124000","longitude":"-81.51592000"},{"name":"Blackville","latitude":"33.35793000","longitude":"-81.27066000"},{"name":"Bluffton","latitude":"32.23715000","longitude":"-80.86039000"},{"name":"Blythewood","latitude":"34.21432000","longitude":"-80.97398000"},{"name":"Boiling Springs","latitude":"35.04651000","longitude":"-81.98177000"},{"name":"Bonneau Beach","latitude":"33.31989000","longitude":"-80.00036000"},{"name":"Brookdale","latitude":"33.50682000","longitude":"-80.82342000"},{"name":"Buffalo","latitude":"34.72569000","longitude":"-81.68343000"},{"name":"Burnettown","latitude":"33.51541000","longitude":"-81.84900000"},{"name":"Burton","latitude":"32.43575000","longitude":"-80.72400000"},{"name":"Calhoun County","latitude":"33.67486000","longitude":"-80.78028000"},{"name":"Calhoun Falls","latitude":"34.09234000","longitude":"-82.59569000"},{"name":"Camden","latitude":"34.24654000","longitude":"-80.60702000"},{"name":"Cane Savannah","latitude":"33.90182000","longitude":"-80.45036000"},{"name":"Catawba","latitude":"34.85292000","longitude":"-80.91119000"},{"name":"Cayce","latitude":"33.96571000","longitude":"-81.07398000"},{"name":"Centerville","latitude":"34.53205000","longitude":"-82.70402000"},{"name":"Central","latitude":"34.72427000","longitude":"-82.78125000"},{"name":"Chapin","latitude":"34.16598000","longitude":"-81.34982000"},{"name":"Charleston","latitude":"32.77657000","longitude":"-79.93092000"},{"name":"Charleston County","latitude":"32.74917000","longitude":"-79.94202000"},{"name":"Cheraw","latitude":"34.69766000","longitude":"-79.88340000"},{"name":"Cherokee County","latitude":"35.04820000","longitude":"-81.62039000"},{"name":"Cherryvale","latitude":"33.95571000","longitude":"-80.45814000"},{"name":"Chester","latitude":"34.70486000","longitude":"-81.21426000"},{"name":"Chester County","latitude":"34.69206000","longitude":"-81.15953000"},{"name":"Chesterfield","latitude":"34.73599000","longitude":"-80.08812000"},{"name":"Chesterfield County","latitude":"34.63978000","longitude":"-80.15872000"},{"name":"City View","latitude":"34.86151000","longitude":"-82.43151000"},{"name":"Clarendon County","latitude":"33.66581000","longitude":"-80.21640000"},{"name":"Clearwater","latitude":"33.49680000","longitude":"-81.89206000"},{"name":"Clemson","latitude":"34.68344000","longitude":"-82.83737000"},{"name":"Clinton","latitude":"34.47263000","longitude":"-81.88066000"},{"name":"Clover","latitude":"35.11125000","longitude":"-81.22646000"},{"name":"Colleton County","latitude":"32.84343000","longitude":"-80.64968000"},{"name":"Columbia","latitude":"34.00071000","longitude":"-81.03481000"},{"name":"Conway","latitude":"33.83600000","longitude":"-79.04781000"},{"name":"Cowpens","latitude":"35.01679000","longitude":"-81.80399000"},{"name":"Dalzell","latitude":"34.01682000","longitude":"-80.43008000"},{"name":"Darlington","latitude":"34.29988000","longitude":"-79.87617000"},{"name":"Darlington County","latitude":"34.33235000","longitude":"-79.95769000"},{"name":"Denmark","latitude":"33.32265000","longitude":"-81.14232000"},{"name":"Dentsville","latitude":"34.06404000","longitude":"-80.95815000"},{"name":"Dillon","latitude":"34.41655000","longitude":"-79.37116000"},{"name":"Dillon County","latitude":"34.39152000","longitude":"-79.37893000"},{"name":"Dorchester County","latitude":"33.07949000","longitude":"-80.40556000"},{"name":"Due West","latitude":"34.33345000","longitude":"-82.38790000"},{"name":"Duncan","latitude":"34.93790000","longitude":"-82.14511000"},{"name":"Dunean","latitude":"34.82484000","longitude":"-82.41929000"},{"name":"Easley","latitude":"34.82984000","longitude":"-82.60152000"},{"name":"East Gaffney","latitude":"35.08013000","longitude":"-81.63287000"},{"name":"East Sumter","latitude":"33.92544000","longitude":"-80.29619000"},{"name":"Edgefield","latitude":"33.78958000","longitude":"-81.92956000"},{"name":"Edgefield County","latitude":"33.77229000","longitude":"-81.96658000"},{"name":"Edisto","latitude":"33.47654000","longitude":"-80.89870000"},{"name":"Elgin","latitude":"34.67293000","longitude":"-80.71896000"},{"name":"Estill","latitude":"32.75489000","longitude":"-81.24205000"},{"name":"Eureka Mill","latitude":"34.71764000","longitude":"-81.19370000"},{"name":"Fairfax","latitude":"32.95905000","longitude":"-81.23650000"},{"name":"Fairfield County","latitude":"34.39511000","longitude":"-81.12123000"},{"name":"Fairforest","latitude":"34.95651000","longitude":"-82.01011000"},{"name":"Five Forks","latitude":"34.80484000","longitude":"-82.22956000"},{"name":"Florence","latitude":"34.19543000","longitude":"-79.76256000"},{"name":"Florence County","latitude":"34.02439000","longitude":"-79.70282000"},{"name":"Folly Beach","latitude":"32.65518000","longitude":"-79.94037000"},{"name":"Forest Acres","latitude":"34.01932000","longitude":"-80.98981000"},{"name":"Forestbrook","latitude":"33.72239000","longitude":"-78.95809000"},{"name":"Fort Mill","latitude":"35.00737000","longitude":"-80.94508000"},{"name":"Fountain Inn","latitude":"34.68901000","longitude":"-82.19567000"},{"name":"Gadsden","latitude":"33.84571000","longitude":"-80.76592000"},{"name":"Gaffney","latitude":"35.07179000","longitude":"-81.64982000"},{"name":"Gantt","latitude":"34.80012000","longitude":"-82.42429000"},{"name":"Garden City","latitude":"33.59295000","longitude":"-79.00865000"},{"name":"Gaston","latitude":"33.81710000","longitude":"-81.10093000"},{"name":"Georgetown","latitude":"33.37683000","longitude":"-79.29450000"},{"name":"Georgetown County","latitude":"33.41275000","longitude":"-79.29934000"},{"name":"Gloverville","latitude":"33.52597000","longitude":"-81.83011000"},{"name":"Golden Grove","latitude":"34.73401000","longitude":"-82.44374000"},{"name":"Goose Creek","latitude":"32.98101000","longitude":"-80.03259000"},{"name":"Graniteville","latitude":"33.56375000","longitude":"-81.80789000"},{"name":"Great Falls","latitude":"34.57514000","longitude":"-80.90202000"},{"name":"Greenville","latitude":"34.85262000","longitude":"-82.39401000"},{"name":"Greenville County","latitude":"34.89431000","longitude":"-82.37072000"},{"name":"Greenwood","latitude":"34.19540000","longitude":"-82.16179000"},{"name":"Greenwood County","latitude":"34.15383000","longitude":"-82.12593000"},{"name":"Greer","latitude":"34.93873000","longitude":"-82.22706000"},{"name":"Hampton","latitude":"32.87794000","longitude":"-81.12761000"},{"name":"Hampton County","latitude":"32.77628000","longitude":"-81.14070000"},{"name":"Hanahan","latitude":"32.91851000","longitude":"-80.02203000"},{"name":"Hardeeville","latitude":"32.28714000","longitude":"-81.08067000"},{"name":"Hartsville","latitude":"34.37404000","longitude":"-80.07340000"},{"name":"Hilton Head","latitude":"32.21632000","longitude":"-80.75261000"},{"name":"Hilton Head Island","latitude":"32.19382000","longitude":"-80.73816000"},{"name":"Holly Hill","latitude":"33.32266000","longitude":"-80.41370000"},{"name":"Hollywood","latitude":"32.73434000","longitude":"-80.24177000"},{"name":"Homeland Park","latitude":"34.47066000","longitude":"-82.67069000"},{"name":"Honea Path","latitude":"34.44650000","longitude":"-82.39151000"},{"name":"Hopkins","latitude":"33.90432000","longitude":"-80.87703000"},{"name":"Horry County","latitude":"33.90448000","longitude":"-78.97615000"},{"name":"India Hook","latitude":"35.00737000","longitude":"-81.02174000"},{"name":"Inman","latitude":"35.04706000","longitude":"-82.09011000"},{"name":"Inman Mills","latitude":"35.04151000","longitude":"-82.10428000"},{"name":"Irmo","latitude":"34.08598000","longitude":"-81.18315000"},{"name":"Irwin","latitude":"34.69376000","longitude":"-80.82229000"},{"name":"Isle of Palms","latitude":"32.78684000","longitude":"-79.79480000"},{"name":"Iva","latitude":"34.30650000","longitude":"-82.66374000"},{"name":"Jackson","latitude":"33.32542000","longitude":"-81.78789000"},{"name":"James Island","latitude":"32.72374000","longitude":"-79.96284000"},{"name":"Jasper County","latitude":"32.42195000","longitude":"-81.02327000"},{"name":"Joanna","latitude":"34.41491000","longitude":"-81.81240000"},{"name":"Johnsonville","latitude":"33.81794000","longitude":"-79.44922000"},{"name":"Johnston","latitude":"33.83208000","longitude":"-81.80094000"},{"name":"Judson","latitude":"34.83317000","longitude":"-82.42762000"},{"name":"Kershaw","latitude":"34.55182000","longitude":"-80.58368000"},{"name":"Kershaw County","latitude":"34.33876000","longitude":"-80.59026000"},{"name":"Kiawah Island","latitude":"32.60824000","longitude":"-80.08482000"},{"name":"Kingstree","latitude":"33.66766000","longitude":"-79.83063000"},{"name":"Ladson","latitude":"32.98573000","longitude":"-80.10981000"},{"name":"Lake City","latitude":"33.87100000","longitude":"-79.75535000"},{"name":"Lake Murray of Richland","latitude":"34.12048000","longitude":"-81.26450000"},{"name":"Lake Secession","latitude":"34.28455000","longitude":"-82.59457000"},{"name":"Lake Wylie","latitude":"35.10848000","longitude":"-81.04285000"},{"name":"Lakewood","latitude":"33.84683000","longitude":"-80.35008000"},{"name":"Lancaster","latitude":"34.72043000","longitude":"-80.77090000"},{"name":"Lancaster County","latitude":"34.68670000","longitude":"-80.70543000"},{"name":"Lancaster Mill","latitude":"34.70931000","longitude":"-80.79479000"},{"name":"Landrum","latitude":"35.17511000","longitude":"-82.18928000"},{"name":"Langley","latitude":"33.51791000","longitude":"-81.84400000"},{"name":"Latta","latitude":"34.33710000","longitude":"-79.43116000"},{"name":"Laurel Bay","latitude":"32.45019000","longitude":"-80.78483000"},{"name":"Laurens","latitude":"34.49901000","longitude":"-82.01426000"},{"name":"Laurens County","latitude":"34.48357000","longitude":"-82.00593000"},{"name":"Lee County","latitude":"34.16329000","longitude":"-80.25452000"},{"name":"Leesville","latitude":"33.91653000","longitude":"-81.51344000"},{"name":"Lesslie","latitude":"34.89070000","longitude":"-80.95647000"},{"name":"Lexington","latitude":"33.98154000","longitude":"-81.23621000"},{"name":"Lexington County","latitude":"33.90233000","longitude":"-81.27219000"},{"name":"Liberty","latitude":"34.78789000","longitude":"-82.69236000"},{"name":"Lincolnville","latitude":"33.00684000","longitude":"-80.15537000"},{"name":"Little River","latitude":"33.87323000","longitude":"-78.61418000"},{"name":"Loris","latitude":"34.05628000","longitude":"-78.89030000"},{"name":"Lugoff","latitude":"34.22737000","longitude":"-80.68925000"},{"name":"Lyman","latitude":"34.94817000","longitude":"-82.12733000"},{"name":"Manning","latitude":"33.69516000","longitude":"-80.21091000"},{"name":"Marion","latitude":"34.17822000","longitude":"-79.40061000"},{"name":"Marion County","latitude":"34.08006000","longitude":"-79.36251000"},{"name":"Marlboro County","latitude":"34.60199000","longitude":"-79.67863000"},{"name":"Mauldin","latitude":"34.77873000","longitude":"-82.31012000"},{"name":"Mayo","latitude":"35.08401000","longitude":"-81.85983000"},{"name":"McColl","latitude":"34.66877000","longitude":"-79.54533000"},{"name":"McCormick","latitude":"33.91346000","longitude":"-82.29346000"},{"name":"McCormick County","latitude":"33.89955000","longitude":"-82.30988000"},{"name":"Meggett","latitude":"32.71796000","longitude":"-80.23899000"},{"name":"Monarch Mill","latitude":"34.71610000","longitude":"-81.58500000"},{"name":"Moncks Corner","latitude":"33.19632000","longitude":"-80.01429000"},{"name":"Mount Pleasant","latitude":"32.79407000","longitude":"-79.86259000"},{"name":"Mullins","latitude":"34.20572000","longitude":"-79.25449000"},{"name":"Murphys Estates","latitude":"33.60125000","longitude":"-81.94428000"},{"name":"Murrells Inlet","latitude":"33.55100000","longitude":"-79.04143000"},{"name":"Myrtle Beach","latitude":"33.68906000","longitude":"-78.88669000"},{"name":"New Ellenton","latitude":"33.42153000","longitude":"-81.68567000"},{"name":"Newberry","latitude":"34.27458000","longitude":"-81.61872000"},{"name":"Newberry County","latitude":"34.28981000","longitude":"-81.60012000"},{"name":"Newport","latitude":"34.98986000","longitude":"-81.10091000"},{"name":"Ninety Six","latitude":"34.17513000","longitude":"-82.02401000"},{"name":"North Augusta","latitude":"33.50180000","longitude":"-81.96512000"},{"name":"North Charleston","latitude":"32.85462000","longitude":"-79.97481000"},{"name":"North Hartsville","latitude":"34.39377000","longitude":"-80.06951000"},{"name":"North Myrtle Beach","latitude":"33.81601000","longitude":"-78.68002000"},{"name":"Northlake","latitude":"34.56622000","longitude":"-82.68402000"},{"name":"Oak Grove","latitude":"33.98090000","longitude":"-81.14286000"},{"name":"Oakland","latitude":"33.98293000","longitude":"-80.48842000"},{"name":"Oconee County","latitude":"34.75351000","longitude":"-83.06588000"},{"name":"Orangeburg","latitude":"33.49182000","longitude":"-80.85565000"},{"name":"Orangeburg County","latitude":"33.43899000","longitude":"-80.80030000"},{"name":"Pacolet","latitude":"34.89902000","longitude":"-81.76177000"},{"name":"Pageland","latitude":"34.77321000","longitude":"-80.39173000"},{"name":"Pamplico","latitude":"33.99600000","longitude":"-79.57006000"},{"name":"Parker","latitude":"34.85067000","longitude":"-82.45346000"},{"name":"Pendleton","latitude":"34.65177000","longitude":"-82.78375000"},{"name":"Pickens","latitude":"34.88345000","longitude":"-82.70736000"},{"name":"Pickens County","latitude":"34.88752000","longitude":"-82.72532000"},{"name":"Piedmont","latitude":"34.70234000","longitude":"-82.46457000"},{"name":"Pineridge","latitude":"33.91043000","longitude":"-81.10454000"},{"name":"Port Royal","latitude":"32.37908000","longitude":"-80.69261000"},{"name":"Powdersville","latitude":"34.79178000","longitude":"-82.49291000"},{"name":"Privateer","latitude":"33.83321000","longitude":"-80.41425000"},{"name":"Prosperity","latitude":"34.20931000","longitude":"-81.53316000"},{"name":"Ravenel","latitude":"32.76323000","longitude":"-80.25010000"},{"name":"Red Bank","latitude":"33.93209000","longitude":"-81.23843000"},{"name":"Red Hill","latitude":"33.82073000","longitude":"-79.01892000"},{"name":"Richland County","latitude":"34.02180000","longitude":"-80.90304000"},{"name":"Ridgeland","latitude":"32.48074000","longitude":"-80.98039000"},{"name":"Ridgeville","latitude":"33.09572000","longitude":"-80.31537000"},{"name":"Rock Hill","latitude":"34.92487000","longitude":"-81.02508000"},{"name":"Roebuck","latitude":"34.87957000","longitude":"-81.96621000"},{"name":"Saint Andrews","latitude":"34.04543000","longitude":"-81.12926000"},{"name":"Saint George","latitude":"33.18600000","longitude":"-80.57565000"},{"name":"Saint Matthews","latitude":"33.66488000","longitude":"-80.77787000"},{"name":"Saint Stephen","latitude":"33.40433000","longitude":"-79.92174000"},{"name":"Saluda","latitude":"34.00152000","longitude":"-81.77205000"},{"name":"Saluda County","latitude":"34.00614000","longitude":"-81.72692000"},{"name":"Sangaree","latitude":"33.03545000","longitude":"-80.12787000"},{"name":"Sans Souci","latitude":"34.87790000","longitude":"-82.42401000"},{"name":"Saxon","latitude":"34.96123000","longitude":"-81.96733000"},{"name":"Seabrook Island","latitude":"32.57713000","longitude":"-80.17065000"},{"name":"Seneca","latitude":"34.68566000","longitude":"-82.95320000"},{"name":"Seven Oaks","latitude":"34.04876000","longitude":"-81.14648000"},{"name":"Shell Point","latitude":"32.38353000","longitude":"-80.73594000"},{"name":"Simpsonville","latitude":"34.73706000","longitude":"-82.25428000"},{"name":"Slater-Marietta","latitude":"35.03472000","longitude":"-82.49265000"},{"name":"Socastee","latitude":"33.68350000","longitude":"-78.99837000"},{"name":"South Congaree","latitude":"33.91099000","longitude":"-81.13565000"},{"name":"South Sumter","latitude":"33.90571000","longitude":"-80.34619000"},{"name":"Southern Shops","latitude":"34.98595000","longitude":"-81.99455000"},{"name":"Spartanburg","latitude":"34.94957000","longitude":"-81.93205000"},{"name":"Spartanburg County","latitude":"34.93126000","longitude":"-81.99068000"},{"name":"Springdale","latitude":"33.95932000","longitude":"-81.10898000"},{"name":"Stateburg","latitude":"33.95765000","longitude":"-80.53481000"},{"name":"Sullivans Island","latitude":"32.76323000","longitude":"-79.83675000"},{"name":"Summerville","latitude":"33.01850000","longitude":"-80.17565000"},{"name":"Sumter","latitude":"33.92044000","longitude":"-80.34147000"},{"name":"Sumter County","latitude":"33.91617000","longitude":"-80.38232000"},{"name":"Surfside Beach","latitude":"33.60600000","longitude":"-78.97309000"},{"name":"Taylors","latitude":"34.92039000","longitude":"-82.29623000"},{"name":"Tega Cay","latitude":"35.02431000","longitude":"-81.02785000"},{"name":"Tigerville","latitude":"35.06845000","longitude":"-82.36845000"},{"name":"Timmonsville","latitude":"34.13488000","longitude":"-79.93979000"},{"name":"Travelers Rest","latitude":"34.96762000","longitude":"-82.44345000"},{"name":"Union","latitude":"34.71541000","longitude":"-81.62371000"},{"name":"Union County","latitude":"34.68928000","longitude":"-81.61942000"},{"name":"Utica","latitude":"34.67816000","longitude":"-82.93154000"},{"name":"Valley Falls","latitude":"35.01595000","longitude":"-81.97483000"},{"name":"Varnville","latitude":"32.85044000","longitude":"-81.07927000"},{"name":"Wade Hampton","latitude":"34.90373000","longitude":"-82.33317000"},{"name":"Walhalla","latitude":"34.76482000","longitude":"-83.06404000"},{"name":"Walterboro","latitude":"32.90517000","longitude":"-80.66677000"},{"name":"Ware Shoals","latitude":"34.39845000","longitude":"-82.24679000"},{"name":"Warrenville","latitude":"33.55097000","longitude":"-81.80400000"},{"name":"Watts Mills","latitude":"34.51641000","longitude":"-81.98580000"},{"name":"Wedgefield","latitude":"33.89266000","longitude":"-80.51814000"},{"name":"Wedgewood","latitude":"33.88377000","longitude":"-80.51258000"},{"name":"Welcome","latitude":"34.82651000","longitude":"-82.43901000"},{"name":"Wellford","latitude":"34.95095000","longitude":"-82.10594000"},{"name":"West Columbia","latitude":"33.99349000","longitude":"-81.07398000"},{"name":"Westminster","latitude":"34.66482000","longitude":"-83.09654000"},{"name":"Whitmire","latitude":"34.50291000","longitude":"-81.61149000"},{"name":"Wilkinson Heights","latitude":"33.50210000","longitude":"-80.83315000"},{"name":"Williamsburg County","latitude":"33.61993000","longitude":"-79.72771000"},{"name":"Williamston","latitude":"34.61845000","longitude":"-82.47791000"},{"name":"Williston","latitude":"33.40265000","longitude":"-81.42011000"},{"name":"Winnsboro","latitude":"34.38070000","longitude":"-81.08648000"},{"name":"Winnsboro Mills","latitude":"34.36181000","longitude":"-81.08537000"},{"name":"Woodfield","latitude":"34.05932000","longitude":"-80.93092000"},{"name":"Woodruff","latitude":"34.73957000","longitude":"-82.03705000"},{"name":"York","latitude":"34.99430000","longitude":"-81.24202000"},{"name":"York County","latitude":"34.97475000","longitude":"-81.18442000"}]