[{"name":"Antunovac","latitude":"45.49083000","longitude":"18.67500000"},{"name":"Beli Manastir","latitude":"45.77000000","longitude":"18.60361000"},{"name":"Belišće","latitude":"45.68028000","longitude":"18.40583000"},{"name":"Bijelo Brdo","latitude":"45.51722000","longitude":"18.87083000"},{"name":"Bilje","latitude":"45.60694000","longitude":"18.74389000"},{"name":"Bistrinci","latitude":"45.69167000","longitude":"18.39861000"},{"name":"Bizovac","latitude":"45.59278000","longitude":"18.45889000"},{"name":"Brijest","latitude":"45.52056000","longitude":"18.67194000"},{"name":"Budrovci","latitude":"45.27111000","longitude":"18.44861000"},{"name":"Dalj","latitude":"45.48438000","longitude":"18.98610000"},{"name":"Darda","latitude":"45.62806000","longitude":"18.69972000"},{"name":"Donji Miholjac","latitude":"45.76083000","longitude":"18.16722000"},{"name":"Draž","latitude":"45.84222000","longitude":"18.78861000"},{"name":"Erdut","latitude":"45.52639000","longitude":"19.06028000"},{"name":"Ernestinovo","latitude":"45.45194000","longitude":"18.65917000"},{"name":"Feričanci","latitude":"45.52889000","longitude":"17.97583000"},{"name":"Gorjani","latitude":"45.39889000","longitude":"18.37222000"},{"name":"Grad Beli Manastir","latitude":"45.77219000","longitude":"18.61084000"},{"name":"Grad Donji Miholjac","latitude":"45.75000000","longitude":"18.16667000"},{"name":"Grad Našice","latitude":"45.50000000","longitude":"18.10000000"},{"name":"Grad Osijek","latitude":"45.58333000","longitude":"18.66667000"},{"name":"Grad Valpovo","latitude":"45.66667000","longitude":"18.41667000"},{"name":"Jagodnjak","latitude":"45.69917000","longitude":"18.57694000"},{"name":"Jelisavac","latitude":"45.52889000","longitude":"18.15611000"},{"name":"Josipovac","latitude":"45.58278000","longitude":"18.58139000"},{"name":"Karanac","latitude":"45.76056000","longitude":"18.68444000"},{"name":"Kneževi Vinogradi","latitude":"45.75028000","longitude":"18.73306000"},{"name":"Koška","latitude":"45.54528000","longitude":"18.28583000"},{"name":"Kuševac","latitude":"45.34778000","longitude":"18.42889000"},{"name":"Ladimirevci","latitude":"45.62556000","longitude":"18.44861000"},{"name":"Laslovo","latitude":"45.41500000","longitude":"18.69611000"},{"name":"Magadenovac","latitude":"45.66159000","longitude":"18.18679000"},{"name":"Marijanci","latitude":"45.66645000","longitude":"18.29284000"},{"name":"Marjanci","latitude":"45.66694000","longitude":"18.29222000"},{"name":"Markovac Našički","latitude":"45.49389000","longitude":"18.12556000"},{"name":"Martin","latitude":"45.49222000","longitude":"18.06667000"},{"name":"Našice","latitude":"45.48861000","longitude":"18.08778000"},{"name":"Osijek","latitude":"45.55111000","longitude":"18.69389000"},{"name":"Petlovac","latitude":"45.75833000","longitude":"18.52806000"},{"name":"Petrijevci","latitude":"45.61278000","longitude":"18.53528000"},{"name":"Piškorevci","latitude":"45.25528000","longitude":"18.40417000"},{"name":"Podgorač","latitude":"45.45861000","longitude":"18.22278000"},{"name":"Podravska Moslavina","latitude":"45.78456000","longitude":"17.98410000"},{"name":"Sarvaš","latitude":"45.52722000","longitude":"18.83750000"},{"name":"Satnica Đakovačka","latitude":"45.35367000","longitude":"18.37729000"},{"name":"Semeljci","latitude":"45.36056000","longitude":"18.54361000"},{"name":"Strizivojna","latitude":"45.22611000","longitude":"18.42389000"},{"name":"Tenja","latitude":"45.49806000","longitude":"18.74722000"},{"name":"Valpovo","latitude":"45.66083000","longitude":"18.41861000"},{"name":"Velimirovac","latitude":"45.52361000","longitude":"18.10944000"},{"name":"Viljevo","latitude":"45.75139000","longitude":"18.06306000"},{"name":"Viškovci","latitude":"45.34500000","longitude":"18.46222000"},{"name":"Višnjevac","latitude":"45.56861000","longitude":"18.61389000"},{"name":"Vladislavci","latitude":"45.45944000","longitude":"18.57417000"},{"name":"Vuka","latitude":"45.43389000","longitude":"18.50500000"},{"name":"Đurđenovac","latitude":"45.54333000","longitude":"18.04583000"},{"name":"Čeminac","latitude":"45.68639000","longitude":"18.66750000"},{"name":"Čepin","latitude":"45.52361000","longitude":"18.56333000"},{"name":"Đakovo","latitude":"45.30833000","longitude":"18.41056000"},{"name":"Široko Polje","latitude":"45.40528000","longitude":"18.47250000"},{"name":"Šodolovci","latitude":"45.40000000","longitude":"18.62028000"}]