[{"name":"Almirante","latitude":"9.30091000","longitude":"-82.40180000"},{"name":"Barranco","latitude":"9.51984000","longitude":"-82.70424000"},{"name":"Barranco Adentro","latitude":"9.52757000","longitude":"-82.73344000"},{"name":"Bastimentos","latitude":"9.34707000","longitude":"-82.20880000"},{"name":"Bocas del Toro","latitude":"9.34031000","longitude":"-82.24204000"},{"name":"Cauchero","latitude":"9.15226000","longitude":"-82.26450000"},{"name":"Changuinola","latitude":"9.43000000","longitude":"-82.52000000"},{"name":"Chiriquí Grande","latitude":"8.94557000","longitude":"-82.11769000"},{"name":"Distrito Chiriquí Grande","latitude":"8.94748000","longitude":"-82.12418000"},{"name":"Distrito de Bocas del Toro","latitude":"9.36235000","longitude":"-82.26288000"},{"name":"Distrito de Changuinola","latitude":"9.25000000","longitude":"-82.63333000"},{"name":"El Empalme","latitude":"9.41667000","longitude":"-82.51667000"},{"name":"El Silencio","latitude":"9.37222000","longitude":"-82.52877000"},{"name":"Guabito","latitude":"9.48968000","longitude":"-82.61279000"},{"name":"Isla Bastimentos","latitude":"9.30000000","longitude":"-82.13333000"},{"name":"La Mesa","latitude":"9.49587000","longitude":"-82.67534000"},{"name":"Miramar","latitude":"8.99482000","longitude":"-82.24147000"},{"name":"Punta Laurel","latitude":"9.14100000","longitude":"-82.12717000"},{"name":"Punta Peña","latitude":"8.91659000","longitude":"-82.18488000"},{"name":"Punta Róbalo","latitude":"9.03631000","longitude":"-82.24952000"},{"name":"Valle del Risco","latitude":"9.23064000","longitude":"-82.42748000"}]