[{"name":"Alto Río Senguer","latitude":"-45.04105000","longitude":"-70.81982000"},{"name":"Camarones","latitude":"-44.79709000","longitude":"-65.70994000"},{"name":"Comodoro Rivadavia","latitude":"-45.86413000","longitude":"-67.49656000"},{"name":"Departamento de Biedma","latitude":"-42.41667000","longitude":"-65.00000000"},{"name":"Departamento de Cushamen","latitude":"-42.50000000","longitude":"-70.83333000"},{"name":"Departamento de Escalante","latitude":"-45.33333000","longitude":"-67.33333000"},{"name":"Departamento de Florentino Ameghino","latitude":"-44.41667000","longitude":"-66.16667000"},{"name":"Departamento de Futaleufú","latitude":"-43.08333000","longitude":"-71.41667000"},{"name":"Departamento de Gaimán","latitude":"-43.33333000","longitude":"-66.33333000"},{"name":"Departamento de Gastre","latitude":"-42.83333000","longitude":"-68.66667000"},{"name":"Departamento de Languiñeo","latitude":"-43.33333000","longitude":"-70.66667000"},{"name":"Departamento de Mártires","latitude":"-43.83333000","longitude":"-67.16667000"},{"name":"Departamento de Paso de Indios","latitude":"-44.00000000","longitude":"-68.83333000"},{"name":"Departamento de Rawson","latitude":"-43.12342000","longitude":"-65.10179000"},{"name":"Departamento de Río Senguerr","latitude":"-45.33333000","longitude":"-70.83333000"},{"name":"Departamento de Sarmiento","latitude":"-45.33333000","longitude":"-69.00000000"},{"name":"Departamento de Tehuelches","latitude":"-44.22132000","longitude":"-70.25260000"},{"name":"Departamento de Telsen","latitude":"-42.41667000","longitude":"-67.16667000"},{"name":"Dolavón","latitude":"-43.30684000","longitude":"-65.70651000"},{"name":"El Maitén","latitude":"-42.04924000","longitude":"-71.16693000"},{"name":"Esquel","latitude":"-42.91147000","longitude":"-71.31947000"},{"name":"Gaimán","latitude":"-43.28970000","longitude":"-65.49290000"},{"name":"Gastre","latitude":"-42.26186000","longitude":"-69.22112000"},{"name":"Gobernador Costa","latitude":"-44.04992000","longitude":"-70.59798000"},{"name":"Hoyo de Epuyén","latitude":"-42.07189000","longitude":"-71.50811000"},{"name":"José de San Martín","latitude":"-44.05032000","longitude":"-70.46967000"},{"name":"Lago Puelo","latitude":"-42.06684000","longitude":"-71.60384000"},{"name":"Las Plumas","latitude":"-43.72058000","longitude":"-67.28319000"},{"name":"Puerto Madryn","latitude":"-42.76920000","longitude":"-65.03851000"},{"name":"Rada Tilly","latitude":"-45.92462000","longitude":"-67.55424000"},{"name":"Rawson","latitude":"-43.30016000","longitude":"-65.10228000"},{"name":"Río Mayo","latitude":"-45.68573000","longitude":"-70.25797000"},{"name":"Río Pico","latitude":"-44.17905000","longitude":"-71.36847000"},{"name":"Sarmiento","latitude":"-45.58815000","longitude":"-69.06996000"},{"name":"Tecka","latitude":"-43.49489000","longitude":"-70.81020000"},{"name":"Trelew","latitude":"-43.24895000","longitude":"-65.30505000"},{"name":"Trevelin","latitude":"-43.08580000","longitude":"-71.46386000"}]