[{"name":"Absheron District","countryCode":"AZ","fipsCode":"01","iso":"ABS","latitude":"40.36296930","longitude":"49.27368150"},{"name":"Agdam District","countryCode":"AZ","fipsCode":"03","iso":"AGM","latitude":"39.99318530","longitude":"46.99495620"},{"name":"Agdash District","countryCode":"AZ","fipsCode":"04","iso":"AGS","latitude":"40.63354270","longitude":"47.46743100"},{"name":"Aghjabadi District","countryCode":"AZ","fipsCode":"02","iso":"AGC","latitude":"28.78918410","longitude":"77.51607880"},{"name":"Agstafa District","countryCode":"AZ","fipsCode":"05","iso":"AGA","latitude":"41.26559330","longitude":"45.51342910"},{"name":"Agsu District","countryCode":"AZ","fipsCode":"06","iso":"AGU","latitude":"40.52833390","longitude":"48.36508350"},{"name":"Astara District","countryCode":"AZ","fipsCode":"08","iso":"AST","latitude":"38.49378450","longitude":"48.69443650"},{"name":"Babek District","countryCode":"AZ","fipsCode":"62","iso":"BAB","latitude":"39.15076130","longitude":"45.44853680"},{"name":"Baku","countryCode":"AZ","fipsCode":"09","iso":"BA","latitude":"40.40926170","longitude":"49.86709240"},{"name":"Balakan District","countryCode":"AZ","fipsCode":"10","iso":"BAL","latitude":"41.70375090","longitude":"46.40442130"},{"name":"Barda District","countryCode":"AZ","fipsCode":"11","iso":"BAR","latitude":"40.37065550","longitude":"47.13789090"},{"name":"Beylagan District","countryCode":"AZ","fipsCode":"12","iso":"BEY","latitude":"39.77230730","longitude":"47.61541660"},{"name":"Bilasuvar District","countryCode":"AZ","fipsCode":"13","iso":"BIL","latitude":"39.45988330","longitude":"48.55098130"},{"name":"Dashkasan District","countryCode":"AZ","fipsCode":"16","iso":"DAS","latitude":"40.52022570","longitude":"46.07793040"},{"name":"Fizuli District","countryCode":"AZ","fipsCode":"18","iso":"FUZ","latitude":"39.53786050","longitude":"47.30338770"},{"name":"Ganja","countryCode":"AZ","fipsCode":"20","iso":"GA","latitude":"36.36873380","longitude":"-95.99857670"},{"name":"Gobustan District","countryCode":"AZ","fipsCode":"41","iso":"QOB","latitude":"40.53261040","longitude":"48.92737500"},{"name":"Goranboy District","countryCode":"AZ","fipsCode":"21","iso":"GOR","latitude":"40.53805060","longitude":"46.59908910"},{"name":"Goychay","countryCode":"AZ","fipsCode":"22","iso":"GOY","latitude":"40.62361680","longitude":"47.74030340"},{"name":"Goygol District","countryCode":"AZ","fipsCode":"62","iso":"GYG","latitude":"40.55953780","longitude":"46.33149530"},{"name":"Gədəbəy","countryCode":"AZ","fipsCode":"19","iso":"GAD","latitude":"40.56996390","longitude":"45.81068830"},{"name":"Hajigabul District","countryCode":"AZ","fipsCode":"23","iso":"HAC","latitude":"40.03937700","longitude":"48.92025330"},{"name":"Imishli District","countryCode":"AZ","fipsCode":"24","iso":"IMI","latitude":"39.86946860","longitude":"48.06652180"},{"name":"Ismailli District","countryCode":"AZ","fipsCode":"25","iso":"ISM","latitude":"40.74299360","longitude":"48.21255560"},{"name":"Jabrayil District","countryCode":"AZ","fipsCode":"14","iso":"CAB","latitude":"39.26455440","longitude":"46.96215620"},{"name":"Jalilabad District","countryCode":"AZ","fipsCode":"15","iso":"CAL","latitude":"39.20516320","longitude":"48.51006040"},{"name":"Julfa District","countryCode":"AZ","fipsCode":"23","iso":"CUL","latitude":"38.96049830","longitude":"45.62929390"},{"name":"Kalbajar District","countryCode":"AZ","fipsCode":"26","iso":"KAL","latitude":"40.10243290","longitude":"46.03648720"},{"name":"Kangarli District","countryCode":"AZ","fipsCode":"70","iso":"KAN","latitude":"39.38719400","longitude":"45.16398520"},{"name":"Khachmaz District","countryCode":"AZ","fipsCode":"60","iso":"XAC","latitude":"41.45911680","longitude":"48.80206260"},{"name":"Khizi District","countryCode":"AZ","fipsCode":"63","iso":"XIZ","latitude":"40.91094890","longitude":"49.07292640"},{"name":"Khojali District","countryCode":"AZ","fipsCode":"64","iso":"XCI","latitude":"39.91325530","longitude":"46.79430500"},{"name":"Kurdamir District","countryCode":"AZ","fipsCode":"27","iso":"KUR","latitude":"40.36986510","longitude":"48.16446260"},{"name":"Lachin District","countryCode":"AZ","fipsCode":"28","iso":"LAC","latitude":"39.63834140","longitude":"46.54608530"},{"name":"Lankaran","countryCode":"AZ","fipsCode":"30","iso":"LAN","latitude":"38.75286690","longitude":"48.84750150"},{"name":"Lankaran District","countryCode":"AZ","fipsCode":"29","iso":"LA","latitude":"38.75286690","longitude":"48.84750150"},{"name":"Lerik District","countryCode":"AZ","fipsCode":"31","iso":"LER","latitude":"38.77361920","longitude":"48.41514830"},{"name":"Martuni","countryCode":"AZ","fipsCode":"65","iso":"XVD","latitude":"39.79146930","longitude":"47.11008140"},{"name":"Masally District","countryCode":"AZ","fipsCode":"32","iso":"MAS","latitude":"39.03407220","longitude":"48.65893540"},{"name":"Mingachevir","countryCode":"AZ","fipsCode":"33","iso":"MI","latitude":"40.77025630","longitude":"47.04960150"},{"name":"Nakhchivan Autonomous Republic","countryCode":"AZ","fipsCode":"35","iso":"NX","latitude":"39.32568140","longitude":"45.49126480"},{"name":"Neftchala District","countryCode":"AZ","fipsCode":"36","iso":"NEF","latitude":"39.38810520","longitude":"49.24137430"},{"name":"Oghuz District","countryCode":"AZ","fipsCode":"37","iso":"OGU","latitude":"41.07279240","longitude":"47.46506720"},{"name":"Ordubad District","countryCode":"AZ","fipsCode":"58","iso":"ORD","latitude":"38.90216220","longitude":"46.02376250"},{"name":"Qabala District","countryCode":"AZ","fipsCode":"38","iso":"QAB","latitude":"40.92539250","longitude":"47.80161060"},{"name":"Qakh District","countryCode":"AZ","fipsCode":"39","iso":"QAX","latitude":"41.42068270","longitude":"46.93201840"},{"name":"Qazakh District","countryCode":"AZ","fipsCode":"40","iso":"QAZ","latitude":"41.09710740","longitude":"45.35163310"},{"name":"Quba District","countryCode":"AZ","fipsCode":"42","iso":"QBA","latitude":"41.15642420","longitude":"48.41350210"},{"name":"Qubadli District","countryCode":"AZ","fipsCode":"43","iso":"QBI","latitude":"39.27139960","longitude":"46.63543120"},{"name":"Qusar District","countryCode":"AZ","fipsCode":"44","iso":"QUS","latitude":"41.42668860","longitude":"48.43455770"},{"name":"Saatly District","countryCode":"AZ","fipsCode":"45","iso":"SAT","latitude":"39.90955030","longitude":"48.35951220"},{"name":"Sabirabad District","countryCode":"AZ","fipsCode":"46","iso":"SAB","latitude":"39.98706630","longitude":"48.46925450"},{"name":"Sadarak District","countryCode":"AZ","fipsCode":"40","iso":"SAD","latitude":"39.71051140","longitude":"44.88642770"},{"name":"Salyan District","countryCode":"AZ","fipsCode":"49","iso":"SAL","latitude":"28.35248110","longitude":"82.12784000"},{"name":"Samukh District","countryCode":"AZ","fipsCode":"52","iso":"SMX","latitude":"40.76046310","longitude":"46.40631810"},{"name":"Shabran District","countryCode":"AZ","fipsCode":"17","iso":"SBN","latitude":"41.22283760","longitude":"48.84573040"},{"name":"Shahbuz District","countryCode":"AZ","fipsCode":"15","iso":"SAH","latitude":"39.44521030","longitude":"45.65680090"},{"name":"Shaki","countryCode":"AZ","fipsCode":"48","iso":"SA","latitude":"41.19747530","longitude":"47.15712410"},{"name":"Shaki District","countryCode":"AZ","fipsCode":"47","iso":"SAK","latitude":"41.11346620","longitude":"47.13169270"},{"name":"Shamakhi District","countryCode":"AZ","fipsCode":"50","iso":"SMI","latitude":"40.63187310","longitude":"48.63638010"},{"name":"Shamkir District","countryCode":"AZ","fipsCode":"51","iso":"SKR","latitude":"40.82881440","longitude":"46.01668790"},{"name":"Sharur District","countryCode":"AZ","fipsCode":"58","iso":"SAR","latitude":"39.55363320","longitude":"44.98456800"},{"name":"Shirvan","countryCode":"AZ","fipsCode":"07","iso":"SR","latitude":"39.94697070","longitude":"48.92239190"},{"name":"Shusha District","countryCode":"AZ","fipsCode":"55","iso":"SUS","latitude":"39.75374380","longitude":"46.74647550"},{"name":"Siazan District","countryCode":"AZ","fipsCode":"53","iso":"SIY","latitude":"41.07838330","longitude":"49.11184770"},{"name":"Sumqayit","countryCode":"AZ","fipsCode":"54","iso":"SM","latitude":"40.58547650","longitude":"49.63174110"},{"name":"Tartar District","countryCode":"AZ","fipsCode":"57","iso":"TAR","latitude":"40.34438750","longitude":"46.93765190"},{"name":"Tovuz District","countryCode":"AZ","fipsCode":"58","iso":"TOV","latitude":"40.99545230","longitude":"45.61659070"},{"name":"Ujar District","countryCode":"AZ","fipsCode":"59","iso":"UCA","latitude":"40.50675250","longitude":"47.64896410"},{"name":"Yardymli District","countryCode":"AZ","fipsCode":"66","iso":"YAR","latitude":"38.90589170","longitude":"48.24961270"},{"name":"Yevlakh","countryCode":"AZ","fipsCode":"68","iso":"YE","latitude":"40.61966380","longitude":"47.15003240"},{"name":"Yevlakh District","countryCode":"AZ","fipsCode":"67","iso":"YEV","latitude":"40.61966380","longitude":"47.15003240"},{"name":"Zangilan District","countryCode":"AZ","fipsCode":"69","iso":"ZAN","latitude":"39.08568990","longitude":"46.65247280"},{"name":"Zaqatala District","countryCode":"AZ","fipsCode":"70","iso":"ZAQ","latitude":"41.59068890","longitude":"46.72403730"},{"name":"Zardab District","countryCode":"AZ","fipsCode":"71","iso":"ZAR","latitude":"40.21481140","longitude":"47.71494400"}]