[{"name":"Fukumitsu","latitude":"36.55751000","longitude":"136.86945000"},{"name":"Himi Shi","latitude":"36.87218000","longitude":"136.94066000"},{"name":"Himimachi","latitude":"36.85609000","longitude":"136.98850000"},{"name":"Imizu Shi","latitude":"36.72939000","longitude":"137.08784000"},{"name":"Kamiichi","latitude":"36.70000000","longitude":"137.36667000"},{"name":"Kurobe-shi","latitude":"36.90123000","longitude":"137.44955000"},{"name":"Namerikawa","latitude":"36.75965000","longitude":"137.36215000"},{"name":"Namerikawa-shi","latitude":"36.74934000","longitude":"137.38129000"},{"name":"Nanto Shi","latitude":"36.45260000","longitude":"136.91430000"},{"name":"Nanto-shi","latitude":"36.56922000","longitude":"136.91162000"},{"name":"Nishishinminato","latitude":"36.77957000","longitude":"137.07576000"},{"name":"NyÅ«zen","latitude":"36.93744000","longitude":"137.50059000"},{"name":"Oyabe","latitude":"36.66667000","longitude":"136.85000000"},{"name":"Oyabe Shi","latitude":"36.66349000","longitude":"136.85499000"},{"name":"Takaoka","latitude":"36.75000000","longitude":"137.01667000"},{"name":"Takaoka Shi","latitude":"36.74257000","longitude":"136.96263000"},{"name":"Tonami Shi","latitude":"36.62395000","longitude":"136.98899000"},{"name":"Toyama Shi","latitude":"36.55146000","longitude":"137.29872000"},{"name":"Uozu","latitude":"36.80000000","longitude":"137.40000000"},{"name":"Uozu Shi","latitude":"36.76234000","longitude":"137.48984000"},{"name":"Yatsuomachi-higashikumisaka","latitude":"36.56667000","longitude":"137.13333000"}]