[{"name":"Bandar-e Anzalī","latitude":"37.47318000","longitude":"49.45785000"},{"name":"Fūman","latitude":"37.22400000","longitude":"49.31250000"},{"name":"Hashtpar","latitude":"37.79658000","longitude":"48.90521000"},{"name":"Langarūd","latitude":"37.19548000","longitude":"50.15263000"},{"name":"Pādegān-e Manjīl","latitude":"36.74150000","longitude":"49.41610000"},{"name":"Rasht","latitude":"37.27611000","longitude":"49.58862000"},{"name":"Reẕvānshahr","latitude":"37.54976000","longitude":"49.13703000"},{"name":"Rūdsar","latitude":"37.13696000","longitude":"50.29174000"},{"name":"Shahrestān-e Bandar-e Anzalī","latitude":"37.45000000","longitude":"49.36667000"},{"name":"Shahrestān-e Fūman","latitude":"37.16667000","longitude":"49.18333000"},{"name":"Shahrestān-e Langarūd","latitude":"37.15000000","longitude":"50.11667000"},{"name":"Shahrestān-e Lāhījān","latitude":"37.21667000","longitude":"50.01667000"},{"name":"Shahrestān-e Māsāl","latitude":"37.35000000","longitude":"48.98333000"},{"name":"Shahrestān-e Reẕvānshahr","latitude":"37.53333000","longitude":"48.95000000"},{"name":"Shahrestān-e Rūdbār","latitude":"36.80000000","longitude":"49.60000000"},{"name":"Shahrestān-e Rūdsar","latitude":"36.86667000","longitude":"50.30000000"},{"name":"Shahrestān-e Sīāhkal","latitude":"36.93333000","longitude":"49.90000000"},{"name":"Shahrestān-e Tālesh","latitude":"37.90000000","longitude":"48.78333000"},{"name":"Shahrestān-e Āstāneh-ye Ashrafīyeh","latitude":"37.31667000","longitude":"49.96667000"},{"name":"Shahrestān-e Āstārā","latitude":"38.33333000","longitude":"48.76667000"},{"name":"Shahrestān-e Şowme‘eh Sarā","latitude":"37.33333000","longitude":"49.30000000"},{"name":"Ziabar (Gaskar)","latitude":"37.42610000","longitude":"49.24590000"},{"name":"Āstāneh-ye Ashrafīyeh","latitude":"37.26318000","longitude":"49.94325000"},{"name":"Āstārā","latitude":"38.42910000","longitude":"48.87200000"}]