[{"name":"Adeje","latitude":"28.12271000","longitude":"-16.72600000"},{"name":"Agaete","latitude":"28.10023000","longitude":"-15.69998000"},{"name":"Agulo","latitude":"28.18778000","longitude":"-17.19678000"},{"name":"Agüimes","latitude":"27.90539000","longitude":"-15.44609000"},{"name":"Alajeró","latitude":"28.06205000","longitude":"-17.24073000"},{"name":"Antigua","latitude":"28.42307000","longitude":"-14.01379000"},{"name":"Arafo","latitude":"28.33971000","longitude":"-16.42244000"},{"name":"Arona","latitude":"28.09962000","longitude":"-16.68102000"},{"name":"Arrecife","latitude":"28.96302000","longitude":"-13.54769000"},{"name":"Artenara","latitude":"28.02055000","longitude":"-15.64693000"},{"name":"Arucas","latitude":"28.11983000","longitude":"-15.52325000"},{"name":"Barlovento","latitude":"28.82708000","longitude":"-17.80377000"},{"name":"Breña Alta","latitude":"28.65000000","longitude":"-17.78333000"},{"name":"Breña Baja","latitude":"28.63011000","longitude":"-17.78953000"},{"name":"Buenavista del Norte","latitude":"28.37458000","longitude":"-16.86098000"},{"name":"Candelaria","latitude":"28.35480000","longitude":"-16.37268000"},{"name":"Carrizal","latitude":"27.91161000","longitude":"-15.40558000"},{"name":"Corralejo","latitude":"28.73079000","longitude":"-13.86749000"},{"name":"Costa Calma","latitude":"28.16155000","longitude":"-14.22691000"},{"name":"Costa Teguise","latitude":"28.99838000","longitude":"-13.49911000"},{"name":"Cruce de Arinaga","latitude":"27.87656000","longitude":"-15.42798000"},{"name":"El Cotillo","latitude":"28.68264000","longitude":"-14.00637000"},{"name":"El Paso","latitude":"28.65007000","longitude":"-17.88274000"},{"name":"Fasnia","latitude":"28.23638000","longitude":"-16.43886000"},{"name":"Firgas","latitude":"28.10711000","longitude":"-15.56299000"},{"name":"Frontera","latitude":"27.75404000","longitude":"-18.00367000"},{"name":"Fuencaliente de la Palma","latitude":"28.49236000","longitude":"-17.84529000"},{"name":"Garachico","latitude":"28.37365000","longitude":"-16.76342000"},{"name":"Garafía","latitude":"28.81667000","longitude":"-17.93333000"},{"name":"Granadilla de Abona","latitude":"28.11882000","longitude":"-16.57599000"},{"name":"Guia","latitude":"28.13974000","longitude":"-15.63294000"},{"name":"Guía de Isora","latitude":"28.21154000","longitude":"-16.77947000"},{"name":"Gáldar","latitude":"28.14701000","longitude":"-15.65020000"},{"name":"Güimar","latitude":"28.31122000","longitude":"-16.41276000"},{"name":"Haría","latitude":"29.14553000","longitude":"-13.49986000"},{"name":"Hermigua","latitude":"28.16766000","longitude":"-17.19051000"},{"name":"Icod de los Vinos","latitude":"28.37241000","longitude":"-16.71188000"},{"name":"Ingenio","latitude":"27.91855000","longitude":"-15.43433000"},{"name":"La Guancha","latitude":"28.37320000","longitude":"-16.65158000"},{"name":"La Laguna","latitude":"28.48530000","longitude":"-16.32014000"},{"name":"La Matanza de Acentejo","latitude":"28.45242000","longitude":"-16.44720000"},{"name":"La Oliva","latitude":"28.61052000","longitude":"-13.92912000"},{"name":"La Orotava","latitude":"28.39076000","longitude":"-16.52309000"},{"name":"La Victoria de Acentejo","latitude":"28.43231000","longitude":"-16.46232000"},{"name":"Las Palmas de Gran Canaria","latitude":"28.09973000","longitude":"-15.41343000"},{"name":"Las Rosas","latitude":"28.01539000","longitude":"-16.65373000"},{"name":"Lomo de Arico","latitude":"28.16667000","longitude":"-16.48333000"},{"name":"Los Gigantes","latitude":"28.24361000","longitude":"-16.84153000"},{"name":"Los Llanos de Aridane","latitude":"28.65851000","longitude":"-17.91821000"},{"name":"Los Realejos","latitude":"28.38487000","longitude":"-16.58275000"},{"name":"Los Silos","latitude":"28.36610000","longitude":"-16.81552000"},{"name":"Maspalomas","latitude":"27.76056000","longitude":"-15.58602000"},{"name":"Mazo","latitude":"28.60906000","longitude":"-17.77801000"},{"name":"Mogán","latitude":"27.88385000","longitude":"-15.72538000"},{"name":"Moya","latitude":"28.11106000","longitude":"-15.58285000"},{"name":"Mácher","latitude":"28.94840000","longitude":"-13.69117000"},{"name":"Nazaret","latitude":"29.03818000","longitude":"-13.56386000"},{"name":"Playa Blanca","latitude":"28.86426000","longitude":"-13.82814000"},{"name":"Playa de las Américas","latitude":"28.06403000","longitude":"-16.73012000"},{"name":"Playa del Ingles","latitude":"27.75670000","longitude":"-15.57870000"},{"name":"Provincia de Las Palmas","latitude":"28.42039000","longitude":"-14.01306000"},{"name":"Provincia de Santa Cruz de Tenerife","latitude":"28.16667000","longitude":"-17.33333000"},{"name":"Puerto Rico","latitude":"27.78943000","longitude":"-15.71045000"},{"name":"Puerto de la Cruz","latitude":"28.41397000","longitude":"-16.54867000"},{"name":"Puerto del Carmen","latitude":"28.92313000","longitude":"-13.66579000"},{"name":"Puerto del Rosario","latitude":"28.50038000","longitude":"-13.86272000"},{"name":"Punta de Mujeres","latitude":"29.14660000","longitude":"-13.44761000"},{"name":"Puntagorda","latitude":"28.77490000","longitude":"-17.97741000"},{"name":"Puntallana","latitude":"28.73333000","longitude":"-17.73333000"},{"name":"Pájara","latitude":"28.35039000","longitude":"-14.10760000"},{"name":"Realejo Alto","latitude":"28.37645000","longitude":"-16.58575000"},{"name":"San Bartolomé","latitude":"29.00093000","longitude":"-13.61300000"},{"name":"San Bartolomé de Tirajana","latitude":"27.92481000","longitude":"-15.57329000"},{"name":"San Isidro","latitude":"28.07617000","longitude":"-16.55800000"},{"name":"San Juan de la Rambla","latitude":"28.39276000","longitude":"-16.65015000"},{"name":"San Miguel De Abona","latitude":"28.09826000","longitude":"-16.61708000"},{"name":"San Nicolás","latitude":"27.98910000","longitude":"-15.78126000"},{"name":"San Sebastián de la Gomera","latitude":"28.09163000","longitude":"-17.11331000"},{"name":"Santa Brígida","latitude":"28.03197000","longitude":"-15.50425000"},{"name":"Santa Cruz de Tenerife","latitude":"28.46824000","longitude":"-16.25462000"},{"name":"Santa Cruz de la Palma","latitude":"28.68351000","longitude":"-17.76421000"},{"name":"Santa Lucía","latitude":"27.91174000","longitude":"-15.54071000"},{"name":"Santa Úrsula","latitude":"28.42613000","longitude":"-16.48876000"},{"name":"Santiago del Teide","latitude":"28.29400000","longitude":"-16.81618000"},{"name":"Sauzal","latitude":"28.46667000","longitude":"-16.41667000"},{"name":"Tacoronte","latitude":"28.47688000","longitude":"-16.41016000"},{"name":"Tanque","latitude":"28.36667000","longitude":"-16.83333000"},{"name":"Tazacorte","latitude":"28.64186000","longitude":"-17.93394000"},{"name":"Tegueste","latitude":"28.51667000","longitude":"-16.31667000"},{"name":"Teguise","latitude":"29.06049000","longitude":"-13.56397000"},{"name":"Tejeda","latitude":"27.99508000","longitude":"-15.61543000"},{"name":"Telde","latitude":"27.99243000","longitude":"-15.41915000"},{"name":"Teror","latitude":"28.06062000","longitude":"-15.54909000"},{"name":"Tijarafe","latitude":"28.70000000","longitude":"-17.95000000"},{"name":"Tinajo","latitude":"29.06326000","longitude":"-13.67647000"},{"name":"Tuineje","latitude":"28.32372000","longitude":"-14.04722000"},{"name":"Tías","latitude":"28.96108000","longitude":"-13.64502000"},{"name":"Vallehermosa","latitude":"28.17944000","longitude":"-17.26664000"},{"name":"Valleseco","latitude":"28.04330000","longitude":"-15.57623000"},{"name":"Valsequillo de Gran Canaria","latitude":"27.98562000","longitude":"-15.49725000"},{"name":"Valverde","latitude":"27.80628000","longitude":"-17.91578000"},{"name":"Vecindario","latitude":"27.84636000","longitude":"-15.44455000"},{"name":"Vega de San Mateo","latitude":"28.00892000","longitude":"-15.53330000"},{"name":"Vilaflor","latitude":"28.15623000","longitude":"-16.63592000"},{"name":"Yaiza","latitude":"28.95678000","longitude":"-13.76535000"}]