[{"name":"Choma","latitude":"-16.80889000","longitude":"26.98750000"},{"name":"Gwembe","latitude":"-16.49755000","longitude":"27.60691000"},{"name":"Itezhi-Tezhi District","latitude":"-15.74092000","longitude":"26.04146000"},{"name":"Livingstone","latitude":"-17.84194000","longitude":"25.85425000"},{"name":"Maamba","latitude":"-17.36667000","longitude":"27.15000000"},{"name":"Mazabuka","latitude":"-15.85601000","longitude":"27.74800000"},{"name":"Monze","latitude":"-16.28333000","longitude":"27.48333000"},{"name":"Nakambala","latitude":"-15.83244000","longitude":"27.77994000"},{"name":"Namwala","latitude":"-15.75042000","longitude":"26.43839000"},{"name":"Siavonga","latitude":"-16.53818000","longitude":"28.70876000"},{"name":"Siavonga District","latitude":"-16.26742000","longitude":"28.55036000"},{"name":"Sinazongwe","latitude":"-17.26140000","longitude":"27.46179000"}]