[{"name":"Altınözü","latitude":"36.11244000","longitude":"36.24488000"},{"name":"Anayazı","latitude":"36.32107000","longitude":"36.19061000"},{"name":"Antakya","latitude":"36.20655000","longitude":"36.15722000"},{"name":"Arsuz","latitude":"36.41305000","longitude":"35.89033000"},{"name":"Açıkdere","latitude":"36.21909000","longitude":"36.25992000"},{"name":"Aşağı Karafakılı","latitude":"36.77885000","longitude":"36.55776000"},{"name":"Aşağıokçular","latitude":"36.17802000","longitude":"36.14033000"},{"name":"Balıklıdere","latitude":"36.12096000","longitude":"36.10481000"},{"name":"Belen","latitude":"36.48866000","longitude":"36.19489000"},{"name":"Boynuyoğun","latitude":"36.16935000","longitude":"36.34249000"},{"name":"Büyük Dalyan","latitude":"36.28824000","longitude":"36.20903000"},{"name":"Büyükçat","latitude":"36.11500000","longitude":"36.07740000"},{"name":"Defne","latitude":"36.23739000","longitude":"36.16364000"},{"name":"Denizciler","latitude":"36.64110000","longitude":"36.21418000"},{"name":"Dursunlu","latitude":"36.16736000","longitude":"36.15788000"},{"name":"Dörtyol","latitude":"36.83917000","longitude":"36.23025000"},{"name":"Erzin","latitude":"36.95348000","longitude":"36.19839000"},{"name":"Gümüşgöze","latitude":"36.14785000","longitude":"36.13284000"},{"name":"Günyazı","latitude":"36.23307000","longitude":"36.11702000"},{"name":"Hacıpaşa","latitude":"36.06907000","longitude":"36.37076000"},{"name":"Hassa","latitude":"36.79944000","longitude":"36.51778000"},{"name":"Karasüleymanlı","latitude":"36.34191000","longitude":"36.41431000"},{"name":"Kastal","latitude":"36.24760000","longitude":"36.24090000"},{"name":"Kumlu İlçesi","latitude":"36.36508000","longitude":"36.45526000"},{"name":"Kuzeytepe","latitude":"36.26505000","longitude":"36.15350000"},{"name":"Kırıkhan","latitude":"36.49939000","longitude":"36.35755000"},{"name":"Kızkalesi","latitude":"36.46192000","longitude":"34.14199000"},{"name":"Kışlak","latitude":"35.96750000","longitude":"36.15749000"},{"name":"Mahmutlar","latitude":"36.94900000","longitude":"36.19231000"},{"name":"Payas","latitude":"36.75600000","longitude":"36.21432000"},{"name":"Reyhanlı","latitude":"36.26791000","longitude":"36.56747000"},{"name":"Samankaya","latitude":"36.15027000","longitude":"36.12829000"},{"name":"Serinyol","latitude":"36.36139000","longitude":"36.21361000"},{"name":"Tepehan","latitude":"36.15853000","longitude":"36.22860000"},{"name":"Toygarlı","latitude":"36.21261000","longitude":"36.07262000"},{"name":"Uzunbağ","latitude":"36.14023000","longitude":"36.03603000"},{"name":"Uzunkavak","latitude":"36.35240000","longitude":"36.41952000"},{"name":"Yayladağı","latitude":"35.90250000","longitude":"36.06272000"},{"name":"Çırtıman","latitude":"36.52531000","longitude":"36.18129000"},{"name":"İskenderun","latitude":"36.58718000","longitude":"36.17347000"}]