[{"name":"Alba","countryCode":"RO","fipsCode":"01","iso":"AB","latitude":"44.70091530","longitude":"8.03569110"},{"name":"Arad County","countryCode":"RO","fipsCode":"02","iso":"AR","latitude":"46.22836510","longitude":"21.65978190"},{"name":"Arges","countryCode":"RO","fipsCode":"03","iso":"AG","latitude":"45.07225270","longitude":"24.81427260"},{"name":"Bacău County","countryCode":"RO","fipsCode":"04","iso":"BC","latitude":"46.32581840","longitude":"26.66237800"},{"name":"Bihor County","countryCode":"RO","fipsCode":"05","iso":"BH","latitude":"47.01575160","longitude":"22.17226600"},{"name":"Bistrița-Năsăud County","countryCode":"RO","fipsCode":"06","iso":"BN","latitude":"47.24861070","longitude":"24.53228140"},{"name":"Botoșani County","countryCode":"RO","fipsCode":"07","iso":"BT","latitude":"47.89240420","longitude":"26.75917810"},{"name":"Braila","countryCode":"RO","fipsCode":"08","iso":"BR","latitude":"45.26524630","longitude":"27.95947140"},{"name":"Brașov County","countryCode":"RO","fipsCode":"09","iso":"BV","latitude":"45.77818440","longitude":"25.22258000"},{"name":"Bucharest","countryCode":"RO","fipsCode":"10","iso":"B","latitude":"44.42676740","longitude":"26.10253840"},{"name":"Buzău County","countryCode":"RO","fipsCode":"11","iso":"BZ","latitude":"45.33509120","longitude":"26.71075780"},{"name":"Caraș-Severin County","countryCode":"RO","fipsCode":"12","iso":"CS","latitude":"45.11396460","longitude":"22.07409930"},{"name":"Cluj County","countryCode":"RO","fipsCode":"13","iso":"CJ","latitude":"46.79417970","longitude":"23.61214920"},{"name":"Constanța County","countryCode":"RO","fipsCode":"14","iso":"CT","latitude":"44.21298700","longitude":"28.25500550"},{"name":"Covasna County","countryCode":"RO","fipsCode":"15","iso":"CV","latitude":"45.94263470","longitude":"25.89189840"},{"name":"Călărași County","countryCode":"RO","fipsCode":"41","iso":"CL","latitude":"44.36587150","longitude":"26.75486070"},{"name":"Dolj County","countryCode":"RO","fipsCode":"17","iso":"DJ","latitude":"44.16230220","longitude":"23.63250540"},{"name":"Dâmbovița County","countryCode":"RO","fipsCode":"16","iso":"DB","latitude":"44.92898930","longitude":"25.42538500"},{"name":"Galați County","countryCode":"RO","fipsCode":"18","iso":"GL","latitude":"45.78005690","longitude":"27.82515760"},{"name":"Giurgiu County","countryCode":"RO","fipsCode":"42","iso":"GR","latitude":"43.90370760","longitude":"25.96992650"},{"name":"Gorj County","countryCode":"RO","fipsCode":"19","iso":"GJ","latitude":"44.94855950","longitude":"23.24270790"},{"name":"Harghita County","countryCode":"RO","fipsCode":"20","iso":"HR","latitude":"46.49285070","longitude":"25.64566960"},{"name":"Hunedoara County","countryCode":"RO","fipsCode":"21","iso":"HD","latitude":"45.79363800","longitude":"22.99759930"},{"name":"Ialomița County","countryCode":"RO","fipsCode":"22","iso":"IL","latitude":"44.60313300","longitude":"27.37899140"},{"name":"Iași County","countryCode":"RO","fipsCode":"23","iso":"IS","latitude":"47.26796530","longitude":"27.21856620"},{"name":"Ilfov County","countryCode":"RO","fipsCode":"43","iso":"IF","latitude":"44.53554800","longitude":"26.23248860"},{"name":"Maramureș County","countryCode":"RO","fipsCode":"25","iso":"MM","latitude":"46.55699040","longitude":"24.67232150"},{"name":"Mehedinți County","countryCode":"RO","fipsCode":"26","iso":"MH","latitude":"44.55150530","longitude":"22.90441570"},{"name":"Mureș County","countryCode":"RO","fipsCode":"27","iso":"MS","latitude":"46.55699040","longitude":"24.67232150"},{"name":"Neamț County","countryCode":"RO","fipsCode":"28","iso":"NT","latitude":"46.97586850","longitude":"26.38187640"},{"name":"Olt County","countryCode":"RO","fipsCode":"29","iso":"OT","latitude":"44.20079700","longitude":"24.50229810"},{"name":"Prahova County","countryCode":"RO","fipsCode":"30","iso":"PH","latitude":"45.08919060","longitude":"26.08293130"},{"name":"Satu Mare County","countryCode":"RO","fipsCode":"32","iso":"SM","latitude":"47.76689050","longitude":"22.92413770"},{"name":"Sibiu County","countryCode":"RO","fipsCode":"33","iso":"SB","latitude":"45.92691060","longitude":"24.22548070"},{"name":"Suceava County","countryCode":"RO","fipsCode":"34","iso":"SV","latitude":"47.55055480","longitude":"25.74106200"},{"name":"Sălaj County","countryCode":"RO","fipsCode":"31","iso":"SJ","latitude":"47.20908130","longitude":"23.21219010"},{"name":"Teleorman County","countryCode":"RO","fipsCode":"35","iso":"TR","latitude":"44.01604910","longitude":"25.29866280"},{"name":"Timiș County","countryCode":"RO","fipsCode":"36","iso":"TM","latitude":"45.81389020","longitude":"21.33310550"},{"name":"Tulcea County","countryCode":"RO","fipsCode":"37","iso":"TL","latitude":"45.04505650","longitude":"29.03249120"},{"name":"Vaslui County","countryCode":"RO","fipsCode":"38","iso":"VS","latitude":"46.46310590","longitude":"27.73980310"},{"name":"Vrancea County","countryCode":"RO","fipsCode":"40","iso":"VN","latitude":"45.81348760","longitude":"27.06575310"},{"name":"Vâlcea County","countryCode":"RO","fipsCode":"39","iso":"VL","latitude":"45.07980510","longitude":"24.08352830"}]