[{"name":"Curug","latitude":"-6.26583000","longitude":"106.55639000"},{"name":"Kabupaten Lebak","latitude":"-6.65000000","longitude":"106.21667000"},{"name":"Kabupaten Pandeglang","latitude":"-6.63333000","longitude":"105.75000000"},{"name":"Kabupaten Serang","latitude":"-6.15000000","longitude":"106.00000000"},{"name":"Kabupaten Tangerang","latitude":"-6.20000000","longitude":"106.46667000"},{"name":"Kota Cilegon","latitude":"-6.01667000","longitude":"106.01667000"},{"name":"Kota Serang","latitude":"-6.12563000","longitude":"106.14999000"},{"name":"Kota Tangerang","latitude":"-6.17944000","longitude":"106.62991000"},{"name":"Kota Tangerang Selatan","latitude":"-6.29373000","longitude":"106.71244000"},{"name":"Labuan","latitude":"-6.37840000","longitude":"105.83000000"},{"name":"Pandeglang","latitude":"-6.30840000","longitude":"106.10670000"},{"name":"Rangkasbitung","latitude":"-6.35910000","longitude":"106.24940000"},{"name":"Serang","latitude":"-6.11528000","longitude":"106.15417000"},{"name":"South Tangerang","latitude":"-6.28862000","longitude":"106.71789000"},{"name":"Tangerang","latitude":"-6.17806000","longitude":"106.63000000"}]