[{"name":"1ra. Sección de Izapa","latitude":"14.92083000","longitude":"-92.17083000"},{"name":"2da. Sección de Medio Monte","latitude":"14.88194000","longitude":"-92.18444000"},{"name":"Abasolo","latitude":"16.82140000","longitude":"-92.21611000"},{"name":"Acacoyagua","latitude":"15.41414000","longitude":"-92.68169000"},{"name":"Acala","latitude":"16.55625000","longitude":"-92.80449000"},{"name":"Acapetahua","latitude":"15.28189000","longitude":"-92.68987000"},{"name":"Adolfo López Mateos","latitude":"17.21600000","longitude":"-93.47895000"},{"name":"Agrónomos Mexicanos","latitude":"16.35000000","longitude":"-93.53000000"},{"name":"Agua Azul","latitude":"16.81432000","longitude":"-91.52391000"},{"name":"Agua Blanca Serranía","latitude":"17.26781000","longitude":"-91.83564000"},{"name":"Agua Zarca","latitude":"15.63417000","longitude":"-92.14472000"},{"name":"Aguacatenango","latitude":"16.47388000","longitude":"-92.40875000"},{"name":"Agustín de Iturbide","latitude":"15.07523000","longitude":"-92.19858000"},{"name":"Ahuacatlán","latitude":"15.04030000","longitude":"-92.18036000"},{"name":"Ajilhó","latitude":"16.98376000","longitude":"-92.93804000"},{"name":"Aldama","latitude":"16.91667000","longitude":"-92.68333000"},{"name":"Alfonso Moguel","latitude":"16.66750000","longitude":"-93.50639000"},{"name":"Altamirano","latitude":"16.88333000","longitude":"-92.15000000"},{"name":"Amado Nervo","latitude":"17.23107000","longitude":"-92.24581000"},{"name":"Amatenango de la Frontera","latitude":"15.43333000","longitude":"-92.11667000"},{"name":"Amatenango del Valle","latitude":"16.52722000","longitude":"-92.43472000"},{"name":"Amatán","latitude":"17.36667000","longitude":"-92.81667000"},{"name":"América Libre","latitude":"16.61462000","longitude":"-92.99185000"},{"name":"Apas","latitude":"16.71066000","longitude":"-92.79335000"},{"name":"Aquiles Serdán","latitude":"14.93980000","longitude":"-92.51444000"},{"name":"Arimatea","latitude":"17.34139000","longitude":"-91.87639000"},{"name":"Arriaga","latitude":"16.23589000","longitude":"-93.89995000"},{"name":"Arroyo Grande","latitude":"17.19122000","longitude":"-92.87207000"},{"name":"Arroyo Granizo","latitude":"17.03716000","longitude":"-91.42563000"},{"name":"Arroyo Palenque","latitude":"17.39167000","longitude":"-92.10444000"},{"name":"Arvenza Uno","latitude":"16.77972000","longitude":"-92.72028000"},{"name":"Aurora Ermita","latitude":"17.23583000","longitude":"-92.87389000"},{"name":"Aurora Esquipulas","latitude":"17.11704000","longitude":"-92.47626000"},{"name":"Azteca","latitude":"16.21775000","longitude":"-93.94557000"},{"name":"Aztlán","latitude":"16.76919000","longitude":"-92.92316000"},{"name":"Bachajón","latitude":"17.03963000","longitude":"-92.18986000"},{"name":"Bajucu","latitude":"16.47520000","longitude":"-92.06471000"},{"name":"Bautista Chico","latitude":"16.79972000","longitude":"-92.71194000"},{"name":"Bejucal de Ocampo","latitude":"15.45535000","longitude":"-92.15835000"},{"name":"Belisario Domínguez","latitude":"15.29944000","longitude":"-92.38056000"},{"name":"Bella Vista","latitude":"15.58333000","longitude":"-92.21667000"},{"name":"Benemérito de las Américas","latitude":"16.51599000","longitude":"-90.65371000"},{"name":"Benito Juárez","latitude":"15.05500000","longitude":"-92.19111000"},{"name":"Berriozábal","latitude":"16.80000000","longitude":"-93.26667000"},{"name":"Betania","latitude":"16.60639000","longitude":"-92.52194000"},{"name":"Bochil","latitude":"16.99625000","longitude":"-92.89218000"},{"name":"Bochojbo Alto","latitude":"16.73583000","longitude":"-92.71694000"},{"name":"Brisas Barra de Suchiate","latitude":"14.53588000","longitude":"-92.22414000"},{"name":"Buenavista","latitude":"16.24278000","longitude":"-91.98778000"},{"name":"Buenavista (Matasanos)","latitude":"17.10778000","longitude":"-93.06694000"},{"name":"Buenos Aires","latitude":"14.88980000","longitude":"-92.48121000"},{"name":"Cabeza de Toro","latitude":"15.93698000","longitude":"-93.78256000"},{"name":"Cacahoatán","latitude":"14.99201000","longitude":"-92.16376000"},{"name":"Cacaté","latitude":"16.84534000","longitude":"-92.83485000"},{"name":"Calzada Larga","latitude":"16.35115000","longitude":"-93.31518000"},{"name":"Cancuc","latitude":"16.91667000","longitude":"-92.48333000"},{"name":"Cantioc","latitude":"17.26222000","longitude":"-92.40694000"},{"name":"Cantón Rancho Nuevo","latitude":"15.06742000","longitude":"-92.52565000"},{"name":"Cantón Villaflor","latitude":"15.11424000","longitude":"-92.35261000"},{"name":"Cantón las Delicias","latitude":"15.10245000","longitude":"-92.50002000"},{"name":"Carmen Yalchuch","latitude":"16.64482000","longitude":"-92.36245000"},{"name":"Carmen Zacatal","latitude":"17.08083000","longitude":"-92.80250000"},{"name":"Carrillo Puerto","latitude":"15.01120000","longitude":"-92.19552000"},{"name":"Cash","latitude":"16.26426000","longitude":"-92.09775000"},{"name":"Catazajá","latitude":"17.73333000","longitude":"-92.01667000"},{"name":"Catishtic","latitude":"16.78028000","longitude":"-92.73778000"},{"name":"Cebadilla 1ra. Sección","latitude":"14.86381000","longitude":"-92.27969000"},{"name":"Cenobio Aguilar (La Trinidad)","latitude":"17.40472000","longitude":"-92.31944000"},{"name":"Cereso 14 (El Amate)","latitude":"16.59472000","longitude":"-93.80278000"},{"name":"Chacaljocóm","latitude":"16.29919000","longitude":"-92.18345000"},{"name":"Chacoma","latitude":"16.87611000","longitude":"-92.49139000"},{"name":"Chalam","latitude":"16.88771000","longitude":"-92.55009000"},{"name":"Chalchihuitán","latitude":"16.96667000","longitude":"-92.65000000"},{"name":"Chamula","latitude":"16.78416000","longitude":"-92.68959000"},{"name":"Chamulapita","latitude":"15.06892000","longitude":"-92.36942000"},{"name":"Chanal","latitude":"16.65750000","longitude":"-92.25750000"},{"name":"Chapallal Grande","latitude":"17.29631000","longitude":"-92.94519000"},{"name":"Chapultenango","latitude":"17.33333000","longitude":"-93.13333000"},{"name":"Chiapa de Corzo","latitude":"16.70770000","longitude":"-93.01184000"},{"name":"Chiapilla","latitude":"16.55397000","longitude":"-92.72594000"},{"name":"Chicoasén","latitude":"16.96528000","longitude":"-93.10472000"},{"name":"Chicomuselo","latitude":"15.74420000","longitude":"-92.28330000"},{"name":"Chicumtantic","latitude":"16.86556000","longitude":"-92.60528000"},{"name":"Chihuahua","latitude":"16.02966000","longitude":"-91.97331000"},{"name":"Chiloljá","latitude":"16.88528000","longitude":"-92.42472000"},{"name":"Chilón","latitude":"17.11667000","longitude":"-92.28333000"},{"name":"Chimhucum","latitude":"16.89000000","longitude":"-92.53139000"},{"name":"Chiquinival","latitude":"16.99111000","longitude":"-91.96028000"},{"name":"Chiquinshulum","latitude":"17.07194000","longitude":"-92.59806000"},{"name":"Chixtontic","latitude":"16.89080000","longitude":"-92.45793000"},{"name":"Chulum Cárdenas","latitude":"17.38417000","longitude":"-92.57389000"},{"name":"Chulum Juárez","latitude":"17.33194000","longitude":"-92.53389000"},{"name":"Cintalapa","latitude":"16.68778000","longitude":"-93.71083000"},{"name":"Cintalapa de Figueroa","latitude":"16.68393000","longitude":"-93.71814000"},{"name":"Ciudad Cuauhtémoc","latitude":"15.66587000","longitude":"-92.00388000"},{"name":"Ciudad Hidalgo","latitude":"14.68148000","longitude":"-92.15217000"},{"name":"Coapilla","latitude":"17.13137000","longitude":"-93.15946000"},{"name":"Colonia Obrera","latitude":"15.09806000","longitude":"-92.49806000"},{"name":"Comalapa","latitude":"15.65924000","longitude":"-92.14237000"},{"name":"Comitán","latitude":"16.24710000","longitude":"-92.13515000"},{"name":"Concepción","latitude":"16.80908000","longitude":"-92.96526000"},{"name":"Congregación Reforma","latitude":"14.78208000","longitude":"-92.31424000"},{"name":"Constitución","latitude":"17.07556000","longitude":"-92.52417000"},{"name":"Copainalá","latitude":"17.09366000","longitude":"-93.21059000"},{"name":"Copoya","latitude":"16.71191000","longitude":"-93.12089000"},{"name":"Cristóbal Colón","latitude":"17.19194000","longitude":"-91.62917000"},{"name":"Cristóbal Obregón","latitude":"16.43246000","longitude":"-93.45689000"},{"name":"Cruztón","latitude":"16.76167000","longitude":"-92.57917000"},{"name":"Cuauhtémoc","latitude":"16.55000000","longitude":"-93.71611000"},{"name":"Cuchulumtic","latitude":"16.77722000","longitude":"-92.70417000"},{"name":"Cálido","latitude":"17.09889000","longitude":"-92.78750000"},{"name":"Damasco","latitude":"17.16161000","longitude":"-91.60058000"},{"name":"Diamante de Echeverría","latitude":"16.11181000","longitude":"-92.87931000"},{"name":"Dieciséis de Septiembre","latitude":"16.29715000","longitude":"-93.17490000"},{"name":"Doctor Belisario Domínguez (La Barra)","latitude":"15.88947000","longitude":"-93.70404000"},{"name":"Doctor Domingo Chanona","latitude":"16.34611000","longitude":"-93.41667000"},{"name":"Doctor Rodulfo Figueroa (Tierra Blanca)","latitude":"15.85083000","longitude":"-92.06222000"},{"name":"Doctor Samuel León Brindis","latitude":"17.43528000","longitude":"-91.93194000"},{"name":"Dolores Jaltenango","latitude":"15.89694000","longitude":"-92.77777000"},{"name":"Efraín A. Gutiérrez","latitude":"16.34442000","longitude":"-92.19927000"},{"name":"Egipto","latitude":"17.26207000","longitude":"-91.97150000"},{"name":"El Arenal","latitude":"15.17273000","longitude":"-92.69923000"},{"name":"El Bosque","latitude":"17.06273000","longitude":"-92.72147000"},{"name":"El Calvario","latitude":"17.21750000","longitude":"-92.55694000"},{"name":"El Carmen","latitude":"15.57549000","longitude":"-93.12865000"},{"name":"El Carmen (El Limón)","latitude":"17.89056000","longitude":"-93.16528000"},{"name":"El Censo","latitude":"16.86287000","longitude":"-91.55988000"},{"name":"El Consuelo Ulapa","latitude":"15.38662000","longitude":"-92.79228000"},{"name":"El Copal","latitude":"16.96729000","longitude":"-92.92625000"},{"name":"El Copalar","latitude":"16.87694000","longitude":"-93.21389000"},{"name":"El Edén","latitude":"16.29191000","longitude":"-91.63755000"},{"name":"El Encanto","latitude":"14.73083000","longitude":"-92.41028000"},{"name":"El Espinal","latitude":"16.36862000","longitude":"-94.10449000"},{"name":"El Jardín","latitude":"17.16657000","longitude":"-92.59933000"},{"name":"El Jobo","latitude":"16.70369000","longitude":"-93.10569000"},{"name":"El Limar","latitude":"17.41491000","longitude":"-92.40293000"},{"name":"El Limonar","latitude":"16.97026000","longitude":"-91.37820000"},{"name":"El Mango","latitude":"17.16236000","longitude":"-92.05985000"},{"name":"El Nopal","latitude":"16.91161000","longitude":"-92.84471000"},{"name":"El Pacayal","latitude":"15.59849000","longitude":"-92.04254000"},{"name":"El Palmar (San Gabriel)","latitude":"16.84556000","longitude":"-93.01639000"},{"name":"El Palmar Grande","latitude":"15.49858000","longitude":"-92.25518000"},{"name":"El Palmarcito","latitude":"15.49728000","longitude":"-93.21387000"},{"name":"El Paraíso","latitude":"17.24639000","longitude":"-92.55694000"},{"name":"El Parral","latitude":"16.37035000","longitude":"-93.00567000"},{"name":"El Portal","latitude":"15.67726000","longitude":"-92.09588000"},{"name":"El Porvenir","latitude":"15.43092000","longitude":"-92.26447000"},{"name":"El Porvenir Agrarista","latitude":"16.16465000","longitude":"-91.83575000"},{"name":"El Porvenir de Velasco Suárez","latitude":"15.45695000","longitude":"-92.27987000"},{"name":"El Pozo","latitude":"16.92034000","longitude":"-92.41166000"},{"name":"El Progreso","latitude":"16.87694000","longitude":"-93.22222000"},{"name":"El Puerto","latitude":"16.42575000","longitude":"-92.43059000"},{"name":"El Ramal (Porvenir)","latitude":"15.86583000","longitude":"-92.94556000"},{"name":"El Sacrificio","latitude":"14.87283000","longitude":"-92.22782000"},{"name":"El Sibal","latitude":"16.98000000","longitude":"-91.49111000"},{"name":"El Triunfo","latitude":"16.20200000","longitude":"-91.85916000"},{"name":"El Triunfo 1ra. Sección (Cardona)","latitude":"17.60778000","longitude":"-93.23306000"},{"name":"El Triunfo de las Tres Maravillas","latitude":"15.64694000","longitude":"-92.15639000"},{"name":"El Tumbo","latitude":"17.07779000","longitude":"-91.62595000"},{"name":"El Tzay","latitude":"16.86361000","longitude":"-92.31222000"},{"name":"El Vergel","latitude":"16.57951000","longitude":"-92.08148000"},{"name":"El Zapotal","latitude":"16.74991000","longitude":"-91.44192000"},{"name":"El Zapotillo","latitude":"16.83700000","longitude":"-92.95152000"},{"name":"El Águila","latitude":"15.09334000","longitude":"-92.18512000"},{"name":"El Ámbar","latitude":"17.02500000","longitude":"-92.83417000"},{"name":"El Ámbar (El Ámbar de Echeverría)","latitude":"16.09639000","longitude":"-92.83333000"},{"name":"Emiliano Zapata","latitude":"17.74058000","longitude":"-91.76635000"},{"name":"Escuintla","latitude":"15.33333000","longitude":"-92.63333000"},{"name":"Estación Huehuetán","latitude":"15.01091000","longitude":"-92.40662000"},{"name":"Estación San Manuel","latitude":"17.65256000","longitude":"-93.38427000"},{"name":"Estación Tuzantán","latitude":"15.10643000","longitude":"-92.45092000"},{"name":"Estrella de Belén","latitude":"17.38722000","longitude":"-91.95861000"},{"name":"Faja de Oro","latitude":"15.03244000","longitude":"-92.15634000"},{"name":"Flor de Cacao","latitude":"16.12889000","longitude":"-90.45111000"},{"name":"Francisco I. Madero","latitude":"16.87427000","longitude":"-93.21678000"},{"name":"Francisco León","latitude":"17.31667000","longitude":"-93.25000000"},{"name":"Francisco Sarabia","latitude":"16.94583000","longitude":"-93.01306000"},{"name":"Francisco Villa","latitude":"16.21426000","longitude":"-93.33697000"},{"name":"Frontera Corozal","latitude":"16.81473000","longitude":"-90.88351000"},{"name":"Frontera Hidalgo","latitude":"14.77744000","longitude":"-92.17741000"},{"name":"Gabriel Esquinca","latitude":"16.94056000","longitude":"-93.17555000"},{"name":"Galecio Narcia","latitude":"16.58820000","longitude":"-93.02052000"},{"name":"Guadalupe","latitude":"14.98033000","longitude":"-92.33938000"},{"name":"Guadalupe Grijalva","latitude":"15.69899000","longitude":"-92.16414000"},{"name":"Guadalupe Victoria","latitude":"16.40500000","longitude":"-92.55250000"},{"name":"Guaquitepec","latitude":"16.98017000","longitude":"-92.28795000"},{"name":"Hermenegildo Galeana","latitude":"16.57722000","longitude":"-93.35944000"},{"name":"Hidalgo","latitude":"15.16249000","longitude":"-92.63030000"},{"name":"Hidalgo Joshil","latitude":"17.22743000","longitude":"-92.34719000"},{"name":"Huehuetán","latitude":"15.01981000","longitude":"-92.38249000"},{"name":"Huitiupán","latitude":"17.17240000","longitude":"-92.68621000"},{"name":"Huixtla","latitude":"15.13915000","longitude":"-92.46410000"},{"name":"Huizachal","latitude":"16.05184000","longitude":"-93.80011000"},{"name":"Héroes de Chapultepec","latitude":"16.06920000","longitude":"-92.28621000"},{"name":"Ignacio Allende","latitude":"16.52556000","longitude":"-92.99222000"},{"name":"Ignacio López Rayón","latitude":"14.62164000","longitude":"-92.18678000"},{"name":"Ignacio Ramírez","latitude":"16.11091000","longitude":"-93.87323000"},{"name":"Ignacio Zaragoza","latitude":"17.29000000","longitude":"-92.93806000"},{"name":"Ignacio Zaragoza (El Morro)","latitude":"16.59944000","longitude":"-93.35083000"},{"name":"Independencia","latitude":"16.08611000","longitude":"-92.83824000"},{"name":"Ixhuatán","latitude":"17.29341000","longitude":"-93.00829000"},{"name":"Ixtacomitán","latitude":"17.43093000","longitude":"-93.09704000"},{"name":"Ixtapa","latitude":"16.80320000","longitude":"-92.90532000"},{"name":"Ixtapangajoya","latitude":"17.49849000","longitude":"-93.00155000"},{"name":"Jalisco","latitude":"16.43033000","longitude":"-91.97499000"},{"name":"Jaltenango de la Paz","latitude":"15.87314000","longitude":"-92.72437000"},{"name":"Jardínes del Grijalva","latitude":"16.72847000","longitude":"-93.03463000"},{"name":"Jericó","latitude":"16.28713000","longitude":"-92.96630000"},{"name":"Jerusalén","latitude":"17.36806000","longitude":"-92.06083000"},{"name":"Jesús María Garza","latitude":"16.39669000","longitude":"-93.29368000"},{"name":"Jiquilpan (Estación Bonanza)","latitude":"15.34194000","longitude":"-92.74750000"},{"name":"Jiquipilas","latitude":"16.66806000","longitude":"-93.64667000"},{"name":"Jitotol","latitude":"17.06723000","longitude":"-92.86111000"},{"name":"Joaquín Miguel Gutiérrez","latitude":"16.37000000","longitude":"-93.36556000"},{"name":"Joaquín Miguel Gutiérrez (Margaritas)","latitude":"15.55028000","longitude":"-93.09306000"},{"name":"Joljá","latitude":"17.20459000","longitude":"-92.49946000"},{"name":"Jolsibaquil","latitude":"17.25972000","longitude":"-92.48167000"},{"name":"Joltealal","latitude":"17.07683000","longitude":"-92.62163000"},{"name":"Jomanichim","latitude":"16.90056000","longitude":"-92.47222000"},{"name":"Joshil","latitude":"17.24667000","longitude":"-92.36278000"},{"name":"José María Morelos","latitude":"16.04189000","longitude":"-91.83201000"},{"name":"José María Morelos y Pavón","latitude":"17.24105000","longitude":"-92.70231000"},{"name":"José María Pino Suárez","latitude":"16.50571000","longitude":"-93.73910000"},{"name":"Juan Aldama","latitude":"17.60939000","longitude":"-93.02826000"},{"name":"Juan del Grijalva","latitude":"16.72806000","longitude":"-92.97750000"},{"name":"Julián Grajales","latitude":"16.42917000","longitude":"-93.71417000"},{"name":"Justo Sierra","latitude":"16.54248000","longitude":"-92.05737000"},{"name":"Juárez","latitude":"17.60572000","longitude":"-93.19433000"},{"name":"Kotolte","latitude":"16.86444000","longitude":"-92.46111000"},{"name":"La Candelaria","latitude":"16.74289000","longitude":"-92.52156000"},{"name":"La Ceiba","latitude":"17.13371000","longitude":"-92.51887000"},{"name":"La Competencia","latitude":"17.23588000","longitude":"-92.75718000"},{"name":"La Concordia","latitude":"16.11774000","longitude":"-92.69018000"},{"name":"La Esperanza","latitude":"16.15191000","longitude":"-91.86874000"},{"name":"La Esperanza (El Zapotal)","latitude":"15.44917000","longitude":"-93.16417000"},{"name":"La Floresta","latitude":"16.50915000","longitude":"-92.31251000"},{"name":"La Gloria","latitude":"15.96389000","longitude":"-91.96500000"},{"name":"La Grandeza","latitude":"15.51033000","longitude":"-92.22603000"},{"name":"La Independencia","latitude":"16.25263000","longitude":"-92.02371000"},{"name":"La Independencia (Las Pilas)","latitude":"16.67750000","longitude":"-93.24944000"},{"name":"La Laguna","latitude":"16.69357000","longitude":"-91.94929000"},{"name":"La Libertad","latitude":"14.59167000","longitude":"-92.19315000"},{"name":"La Línea","latitude":"16.13078000","longitude":"-94.03563000"},{"name":"La Patria","latitude":"16.22975000","longitude":"-91.91148000"},{"name":"La Pimienta","latitude":"17.14111000","longitude":"-92.76222000"},{"name":"La Rinconada","latitude":"15.59333000","longitude":"-92.26806000"},{"name":"La Tigrilla","latitude":"15.98769000","longitude":"-92.85220000"},{"name":"La Trinitaria","latitude":"16.11859000","longitude":"-92.05201000"},{"name":"Lacandón","latitude":"17.02141000","longitude":"-91.59523000"},{"name":"Laguna del Cofre","latitude":"15.62751000","longitude":"-92.64143000"},{"name":"Larráinzar","latitude":"16.88392000","longitude":"-92.71329000"},{"name":"Las Brisas","latitude":"15.51681000","longitude":"-93.11763000"},{"name":"Las Chicharras","latitude":"15.67089000","longitude":"-92.21070000"},{"name":"Las Delicias","latitude":"15.96932000","longitude":"-91.86315000"},{"name":"Las Flechas","latitude":"16.70028000","longitude":"-93.02639000"},{"name":"Las Maravillas","latitude":"16.95951000","longitude":"-93.32012000"},{"name":"Las Margaritas","latitude":"16.31265000","longitude":"-91.98107000"},{"name":"Las Ollas","latitude":"16.78146000","longitude":"-92.55278000"},{"name":"Las Rosas","latitude":"16.36574000","longitude":"-92.37040000"},{"name":"Las Tazas","latitude":"16.75722000","longitude":"-91.61500000"},{"name":"Libertad Melchor Ocampo","latitude":"16.37389000","longitude":"-93.47500000"},{"name":"Libertad Ventanas","latitude":"15.53954000","longitude":"-92.27576000"},{"name":"Llano de la Lima","latitude":"14.86596000","longitude":"-92.29714000"},{"name":"Loma Bonita","latitude":"17.78697000","longitude":"-92.07651000"},{"name":"Lomantán","latitude":"16.43999000","longitude":"-92.06445000"},{"name":"Los Cafetales","latitude":"14.86745000","longitude":"-92.30200000"},{"name":"Los Corazones","latitude":"16.21026000","longitude":"-94.07391000"},{"name":"Los Naranjos","latitude":"17.26446000","longitude":"-92.61972000"},{"name":"Los Palacios","latitude":"14.85718000","longitude":"-92.25821000"},{"name":"Los Pinos","latitude":"16.92083000","longitude":"-92.10861000"},{"name":"Los Plátanos","latitude":"17.00556000","longitude":"-92.74264000"},{"name":"Los Pozos","latitude":"16.64770000","longitude":"-92.40726000"},{"name":"Los Riegos","latitude":"16.30457000","longitude":"-92.12425000"},{"name":"Luis Espinoza","latitude":"17.03167000","longitude":"-93.02694000"},{"name":"Lázaro Cárdenas","latitude":"16.60417000","longitude":"-93.79139000"},{"name":"Lázaro Cárdenas (Chilil)","latitude":"16.67611000","longitude":"-92.48917000"},{"name":"Macvilhó","latitude":"16.85760000","longitude":"-92.69419000"},{"name":"Majastic","latitude":"17.28944000","longitude":"-92.62833000"},{"name":"Majomut","latitude":"16.84917000","longitude":"-92.65944000"},{"name":"Manuel Lazos","latitude":"14.97159000","longitude":"-92.18726000"},{"name":"Manuel Ávila Camacho","latitude":"16.14647000","longitude":"-93.01701000"},{"name":"Manuel Ávila Camacho (Ponte Duro)","latitude":"15.80973000","longitude":"-93.58933000"},{"name":"Mapastepec","latitude":"15.43358000","longitude":"-92.90039000"},{"name":"Maravilla Tenejapa","latitude":"16.20391000","longitude":"-91.26093000"},{"name":"Maravillas","latitude":"17.09693000","longitude":"-92.89107000"},{"name":"Mariano Matamoros","latitude":"16.48119000","longitude":"-92.58472000"},{"name":"Mariscal Subikuski","latitude":"17.33250000","longitude":"-92.38083000"},{"name":"Marqués de Comillas","latitude":"16.21471000","longitude":"-90.75917000"},{"name":"Marte R. Gómez","latitude":"14.92653000","longitude":"-92.44389000"},{"name":"Matzam","latitude":"16.78917000","longitude":"-92.47694000"},{"name":"Mazapa","latitude":"15.38773000","longitude":"-92.18780000"},{"name":"Mazapa de Madero","latitude":"15.36461000","longitude":"-92.18762000"},{"name":"Mazatán","latitude":"14.86319000","longitude":"-92.45030000"},{"name":"Metapa","latitude":"14.83624000","longitude":"-92.19186000"},{"name":"Miguel Hidalgo","latitude":"16.35060000","longitude":"-92.62852000"},{"name":"Miguel Utrilla (Los Chorros)","latitude":"16.94278000","longitude":"-92.47972000"},{"name":"Misija","latitude":"17.26611000","longitude":"-92.38167000"},{"name":"Mitontic","latitude":"16.87540000","longitude":"-92.57130000"},{"name":"Mitzitón","latitude":"16.64639000","longitude":"-92.54333000"},{"name":"Mixcum","latitude":"15.02560000","longitude":"-92.14080000"},{"name":"Monte Redondo","latitude":"15.65217000","longitude":"-92.05045000"},{"name":"Montecristo","latitude":"15.69263000","longitude":"-92.61999000"},{"name":"Montecristo de Guerrero","latitude":"15.67526000","longitude":"-92.64399000"},{"name":"Monterrey","latitude":"16.06191000","longitude":"-93.36928000"},{"name":"Morelia (Victórico Rodolfo Grajales)","latitude":"16.72306000","longitude":"-91.96778000"},{"name":"Motozintla","latitude":"15.36694000","longitude":"-92.24605000"},{"name":"Moyos","latitude":"17.35889000","longitude":"-92.64134000"},{"name":"Muquén","latitude":"16.80641000","longitude":"-92.61006000"},{"name":"Mérida","latitude":"16.56750000","longitude":"-93.81722000"},{"name":"Nachig","latitude":"16.73056000","longitude":"-92.72528000"},{"name":"Narciso Mendoza","latitude":"16.57996000","longitude":"-92.98911000"},{"name":"Navenchauc","latitude":"16.73501000","longitude":"-92.77900000"},{"name":"Nicolás Bravo","latitude":"16.51058000","longitude":"-92.99222000"},{"name":"Nicolás Ruiz","latitude":"16.43714000","longitude":"-92.58522000"},{"name":"Nueva América","latitude":"15.92281000","longitude":"-92.30587000"},{"name":"Nueva Colombia","latitude":"15.69670000","longitude":"-92.72111000"},{"name":"Nueva Esperanza","latitude":"17.24746000","longitude":"-92.45524000"},{"name":"Nueva Independencia","latitude":"15.78259000","longitude":"-92.20883000"},{"name":"Nueva Libertad","latitude":"16.09038000","longitude":"-92.80813000"},{"name":"Nueva Libertad (El Colorado)","latitude":"15.89861000","longitude":"-92.05917000"},{"name":"Nueva Morelia","latitude":"15.61784000","longitude":"-92.14517000"},{"name":"Nueva Palestina","latitude":"16.81722000","longitude":"-91.26000000"},{"name":"Nueva Sesecapa","latitude":"15.40205000","longitude":"-92.82239000"},{"name":"Nueva Tenochtitlán (Rizo de Oro)","latitude":"16.47639000","longitude":"-94.08056000"},{"name":"Nuevo Amatenango","latitude":"15.50852000","longitude":"-92.10958000"},{"name":"Nuevo Carmen Tonapac","latitude":"16.69667000","longitude":"-92.95556000"},{"name":"Nuevo Francisco León","latitude":"17.03031000","longitude":"-91.32216000"},{"name":"Nuevo Juan del Grijalva","latitude":"17.42722000","longitude":"-93.37222000"},{"name":"Nuevo León","latitude":"16.48629000","longitude":"-92.57140000"},{"name":"Nuevo Limar","latitude":"17.45514000","longitude":"-92.39890000"},{"name":"Nuevo Milenio Valdivia","latitude":"15.50306000","longitude":"-92.94861000"},{"name":"Nuevo México","latitude":"16.46944000","longitude":"-93.43806000"},{"name":"Nuevo Naranjo","latitude":"17.15444000","longitude":"-93.43333000"},{"name":"Nuevo Nicapa","latitude":"17.63464000","longitude":"-93.07238000"},{"name":"Nuevo Pacayal","latitude":"15.66010000","longitude":"-92.31538000"},{"name":"Nuevo Pumpuapa (Cereso)","latitude":"14.92562000","longitude":"-92.36533000"},{"name":"Nuevo San Juan Chamula","latitude":"16.14426000","longitude":"-91.44379000"},{"name":"Nuevo Sitalá","latitude":"17.13936000","longitude":"-92.48287000"},{"name":"Nuevo Vicente Guerrero","latitude":"16.03860000","longitude":"-92.97542000"},{"name":"Nuevo Vicente Guerrero (El Chichonal)","latitude":"16.48528000","longitude":"-92.87139000"},{"name":"Nuevo Volcán Chichonal","latitude":"17.77263000","longitude":"-93.10955000"},{"name":"Nuevo Xochimilco","latitude":"17.45442000","longitude":"-93.36904000"},{"name":"Ochusjob","latitude":"16.22482000","longitude":"-92.25201000"},{"name":"Ococh","latitude":"16.83806000","longitude":"-92.47528000"},{"name":"Ocosingo","latitude":"16.90639000","longitude":"-92.09374000"},{"name":"Ocotepec","latitude":"17.22620000","longitude":"-93.16440000"},{"name":"Ocozocoautla de Espinosa","latitude":"16.76231000","longitude":"-93.37476000"},{"name":"Octavio Paz","latitude":"14.85778000","longitude":"-92.26389000"},{"name":"Ojo de Agua","latitude":"16.15773000","longitude":"-91.75794000"},{"name":"Omoa","latitude":"14.83292000","longitude":"-92.23279000"},{"name":"Once de Abril","latitude":"15.05199000","longitude":"-92.14224000"},{"name":"Ostuacán","latitude":"17.40664000","longitude":"-93.33643000"},{"name":"Osumacinta","latitude":"16.93611000","longitude":"-93.09028000"},{"name":"Oxchuc","latitude":"16.78588000","longitude":"-92.34455000"},{"name":"Oxinam","latitude":"16.86306000","longitude":"-92.54917000"},{"name":"Pablo L. Sidar","latitude":"15.83053000","longitude":"-92.27977000"},{"name":"Pacú","latitude":"16.63584000","longitude":"-93.13437000"},{"name":"Palenque","latitude":"17.50953000","longitude":"-91.98248000"},{"name":"Pantelhó","latitude":"17.00563000","longitude":"-92.47165000"},{"name":"Pantepec","latitude":"17.18842000","longitude":"-93.04998000"},{"name":"Paraíso del Grijalva","latitude":"16.22576000","longitude":"-92.64318000"},{"name":"Paredón","latitude":"16.05083000","longitude":"-93.86667000"},{"name":"Paso Hondo","latitude":"15.68390000","longitude":"-92.01860000"},{"name":"Pasté","latitude":"16.70420000","longitude":"-92.74111000"},{"name":"Patosil","latitude":"16.75210000","longitude":"-92.74133000"},{"name":"Patria Nueva (San José el Contento)","latitude":"16.92778000","longitude":"-92.11361000"},{"name":"Pavencul","latitude":"15.20249000","longitude":"-92.17993000"},{"name":"Perla de Acapulco","latitude":"16.79570000","longitude":"-91.47793000"},{"name":"Petalcingo","latitude":"17.22715000","longitude":"-92.41511000"},{"name":"Pichucalco","latitude":"17.51000000","longitude":"-93.11591000"},{"name":"Piedra Labrada","latitude":"15.68226000","longitude":"-92.30538000"},{"name":"Pijijiapan","latitude":"15.68618000","longitude":"-93.20938000"},{"name":"Plan de Agua Prieta","latitude":"16.13111000","longitude":"-92.79139000"},{"name":"Plan de Ayala","latitude":"16.47152000","longitude":"-92.02735000"},{"name":"Pomposo Castellanos","latitude":"16.59033000","longitude":"-93.86688000"},{"name":"Potrerillo","latitude":"15.63096000","longitude":"-92.02059000"},{"name":"Presidente Echeverría (Laja Tendida)","latitude":"16.33583000","longitude":"-92.66861000"},{"name":"Primer Cantón","latitude":"15.12056000","longitude":"-92.44000000"},{"name":"Profresor Roberto Barrios","latitude":"17.32583000","longitude":"-91.92639000"},{"name":"Puebla","latitude":"16.91583000","longitude":"-92.50389000"},{"name":"Pueblo Nuevo","latitude":"17.16027000","longitude":"-92.89977000"},{"name":"Puerto Madero","latitude":"14.72076000","longitude":"-92.42146000"},{"name":"Pugchén Mumuntic","latitude":"16.86389000","longitude":"-92.82361000"},{"name":"Punta Arena","latitude":"17.74601000","longitude":"-92.05871000"},{"name":"Querétaro","latitude":"15.83752000","longitude":"-92.75774000"},{"name":"Quintana Roo","latitude":"16.60667000","longitude":"-93.56194000"},{"name":"Rafael Pascacio Gamboa","latitude":"17.91818000","longitude":"-93.26833000"},{"name":"Rafael Ramírez","latitude":"16.46199000","longitude":"-91.94523000"},{"name":"Ramón F. Balboa","latitude":"16.47427000","longitude":"-91.40318000"},{"name":"Raudales Malpaso","latitude":"17.18833000","longitude":"-93.60583000"},{"name":"Raymundo Enríquez","latitude":"14.86722000","longitude":"-92.31466000"},{"name":"Rayón","latitude":"17.20137000","longitude":"-93.01110000"},{"name":"Reforma","latitude":"17.86876000","longitude":"-93.22673000"},{"name":"Reforma y Planada","latitude":"17.38694000","longitude":"-92.86583000"},{"name":"Revolución Mexicana","latitude":"16.17156000","longitude":"-93.07666000"},{"name":"Ricardo Flores Magón","latitude":"16.39397000","longitude":"-92.69618000"},{"name":"Rincón Chamula","latitude":"17.20718000","longitude":"-92.93912000"},{"name":"Rizo de Oro","latitude":"15.97088000","longitude":"-92.48316000"},{"name":"Roblada Grande","latitude":"16.48909000","longitude":"-93.19499000"},{"name":"Rodulfo Figueroa","latitude":"15.92006000","longitude":"-91.90370000"},{"name":"Romerillo","latitude":"16.76528000","longitude":"-92.56750000"},{"name":"Río Blanco","latitude":"16.20501000","longitude":"-91.63429000"},{"name":"Río Chancalá","latitude":"17.33454000","longitude":"-91.68430000"},{"name":"Río Jordán","latitude":"17.24611000","longitude":"-91.93306000"},{"name":"Sabanilla","latitude":"17.30308000","longitude":"-92.58368000"},{"name":"Sabinalito","latitude":"15.70186000","longitude":"-91.98636000"},{"name":"Saclamantón","latitude":"16.78833000","longitude":"-92.63500000"},{"name":"Saltillo","latitude":"16.39359000","longitude":"-91.94890000"},{"name":"Salto de Agua","latitude":"17.55435000","longitude":"-92.33941000"},{"name":"Salvador Urbina","latitude":"15.03535000","longitude":"-92.20805000"},{"name":"San Andrés Duraznal","latitude":"17.15653000","longitude":"-92.79606000"},{"name":"San Antonio Buenavista","latitude":"16.15234000","longitude":"-91.65020000"},{"name":"San Antonio Bulujib","latitude":"16.99667000","longitude":"-92.29667000"},{"name":"San Antonio del Monte","latitude":"16.76028000","longitude":"-92.65306000"},{"name":"San Caralampio","latitude":"15.82935000","longitude":"-92.03555000"},{"name":"San Cayetano","latitude":"16.96119000","longitude":"-92.76016000"},{"name":"San Cristóbal de las Casas","latitude":"16.73176000","longitude":"-92.64126000"},{"name":"San Felipe Tizapa","latitude":"15.27616000","longitude":"-92.61300000"},{"name":"San Fernando","latitude":"16.87153000","longitude":"-93.20759000"},{"name":"San Francisco (El Calvito)","latitude":"16.32167000","longitude":"-92.56194000"},{"name":"San Francisco Jaconá","latitude":"17.26278000","longitude":"-93.03250000"},{"name":"San Francisco Pujiltic","latitude":"16.27922000","longitude":"-92.45319000"},{"name":"San Isidro","latitude":"15.74373000","longitude":"-93.35276000"},{"name":"San Isidro las Banderas","latitude":"17.23028000","longitude":"-93.06028000"},{"name":"San Jerónimo Tulijá","latitude":"17.22361000","longitude":"-91.78972000"},{"name":"San José Chapayal","latitude":"17.30056000","longitude":"-92.89028000"},{"name":"San José Yashitinín","latitude":"16.65472000","longitude":"-92.44500000"},{"name":"San José Yocnajab","latitude":"16.25383000","longitude":"-92.08698000"},{"name":"San José las Chicharras","latitude":"15.64363000","longitude":"-92.20659000"},{"name":"San Lucas","latitude":"16.61167000","longitude":"-92.71806000"},{"name":"San Luqueño","latitude":"16.01278000","longitude":"-93.84583000"},{"name":"San Miguel","latitude":"17.36324000","longitude":"-92.00762000"},{"name":"San Miguel la Sardina","latitude":"17.29417000","longitude":"-93.35250000"},{"name":"San Pablo Huacano","latitude":"17.19583000","longitude":"-93.20750000"},{"name":"San Pedro Buenavista","latitude":"16.08333000","longitude":"-93.11667000"},{"name":"San Pedro Nichtalucum","latitude":"17.03444000","longitude":"-92.72694000"},{"name":"San Quintín","latitude":"16.40672000","longitude":"-91.34575000"},{"name":"San Vicente la Mesilla","latitude":"16.17861000","longitude":"-92.29333000"},{"name":"Santa Elena","latitude":"16.89267000","longitude":"-91.58987000"},{"name":"Santa María","latitude":"17.35230000","longitude":"-92.07679000"},{"name":"Santa Rita","latitude":"16.13167000","longitude":"-91.97500000"},{"name":"Santiago Pojcol","latitude":"16.99148000","longitude":"-91.98071000"},{"name":"Santiago el Pinar","latitude":"16.94838000","longitude":"-92.72074000"},{"name":"Santo Domingo","latitude":"15.03067000","longitude":"-92.10361000"},{"name":"Santo Domingo de las Palmas","latitude":"16.13667000","longitude":"-91.32194000"},{"name":"Señor del Pozo","latitude":"16.29625000","longitude":"-92.11165000"},{"name":"Shoctic","latitude":"17.22361000","longitude":"-92.48806000"},{"name":"Sibacá","latitude":"16.93093000","longitude":"-92.14006000"},{"name":"Sibaniljá Pocolum","latitude":"16.87639000","longitude":"-92.46111000"},{"name":"Siltepec","latitude":"15.55717000","longitude":"-92.32314000"},{"name":"Simojovel","latitude":"17.14736000","longitude":"-92.67154000"},{"name":"Simojovel de Allende","latitude":"17.14036000","longitude":"-92.71394000"},{"name":"Sinaloa","latitude":"15.89261000","longitude":"-92.12896000"},{"name":"Sitalá","latitude":"17.02417000","longitude":"-92.30694000"},{"name":"Socoltenango","latitude":"16.17412000","longitude":"-92.36658000"},{"name":"Soconusco","latitude":"15.31502000","longitude":"-92.72645000"},{"name":"Solosuchiapa","latitude":"17.39364000","longitude":"-93.01301000"},{"name":"Soyaló","latitude":"16.91352000","longitude":"-92.96579000"},{"name":"Soyatitán","latitude":"16.29427000","longitude":"-92.42402000"},{"name":"Suchiapa","latitude":"16.60775000","longitude":"-93.10003000"},{"name":"Suchiate","latitude":"14.64138000","longitude":"-92.22252000"},{"name":"Tacuba Nueva","latitude":"17.09028000","longitude":"-92.37028000"},{"name":"Talismán","latitude":"14.96333000","longitude":"-92.14722000"},{"name":"Tamaulipas","latitude":"15.77189000","longitude":"-93.40718000"},{"name":"Taniperla","latitude":"16.82222000","longitude":"-91.52333000"},{"name":"Tapachula","latitude":"14.90385000","longitude":"-92.25749000"},{"name":"Tapalapa","latitude":"17.22618000","longitude":"-93.11552000"},{"name":"Tapilula","latitude":"17.25355000","longitude":"-93.00933000"},{"name":"Tecpatán","latitude":"17.13676000","longitude":"-93.31133000"},{"name":"Tenango","latitude":"16.96667000","longitude":"-92.41667000"},{"name":"Tentic","latitude":"16.86333000","longitude":"-92.68222000"},{"name":"Teopisca","latitude":"16.54182000","longitude":"-92.47405000"},{"name":"Texcaltic","latitude":"14.79550000","longitude":"-92.18737000"},{"name":"Tierra y Libertad","latitude":"16.37889000","longitude":"-93.86056000"},{"name":"Tila","latitude":"17.30054000","longitude":"-92.42730000"},{"name":"Tiltepec","latitude":"16.39389000","longitude":"-93.86972000"},{"name":"Tinajas 1ra. Sección","latitude":"14.71750000","longitude":"-92.32861000"},{"name":"Tocob Leglemal","latitude":"17.23389000","longitude":"-92.37833000"},{"name":"Tonalá","latitude":"16.08977000","longitude":"-93.75489000"},{"name":"Totolapa","latitude":"16.54357000","longitude":"-92.68019000"},{"name":"Tres Cerros","latitude":"16.91556000","longitude":"-92.47278000"},{"name":"Tres Picos","latitude":"15.88209000","longitude":"-93.52867000"},{"name":"Tumbala","latitude":"17.27746000","longitude":"-92.31700000"},{"name":"Tuxtla","latitude":"16.75973000","longitude":"-93.11308000"},{"name":"Tuxtla Chico","latitude":"14.93945000","longitude":"-92.16730000"},{"name":"Tuzantán","latitude":"15.14711000","longitude":"-92.42237000"},{"name":"Tz'Aquiviljok","latitude":"16.85528000","longitude":"-92.45972000"},{"name":"Tzajalchén","latitude":"16.84165000","longitude":"-92.46014000"},{"name":"Tzajalá","latitude":"17.13559000","longitude":"-92.39328000"},{"name":"Tzeltal","latitude":"16.93944000","longitude":"-92.47778000"},{"name":"Tzimol","latitude":"16.18356000","longitude":"-92.18934000"},{"name":"Tzinil","latitude":"16.25778000","longitude":"-92.32222000"},{"name":"Tziscao","latitude":"16.08155000","longitude":"-91.66641000"},{"name":"Tzoeptic","latitude":"16.88278000","longitude":"-92.56806000"},{"name":"Tzontehuitz","latitude":"16.83314000","longitude":"-92.57965000"},{"name":"Tzopilja","latitude":"16.73972000","longitude":"-92.30917000"},{"name":"Ubilio García","latitude":"17.08405000","longitude":"-91.47241000"},{"name":"Unión Buena Vista","latitude":"16.48582000","longitude":"-92.81823000"},{"name":"Unión Buenavista","latitude":"15.79527000","longitude":"-92.54417000"},{"name":"Unión Juárez","latitude":"17.28083000","longitude":"-92.39972000"},{"name":"Unión Roja","latitude":"15.04658000","longitude":"-92.21653000"},{"name":"Usipa","latitude":"17.50028000","longitude":"-92.43806000"},{"name":"Vega del Rosario","latitude":"15.52083000","longitude":"-92.30720000"},{"name":"Veinte de Noviembre","latitude":"14.97730000","longitude":"-92.26509000"},{"name":"Venustiano Carranza","latitude":"16.32314000","longitude":"-92.55844000"},{"name":"Veracruz","latitude":"16.40417000","longitude":"-91.99944000"},{"name":"Verapaz","latitude":"15.71166000","longitude":"-92.06199000"},{"name":"Vicente Guerrero","latitude":"16.66028000","longitude":"-93.58306000"},{"name":"Vida Mejor I","latitude":"14.86972000","longitude":"-92.30778000"},{"name":"Villa Comaltitlán","latitude":"15.18645000","longitude":"-92.59053000"},{"name":"Villa Corzo","latitude":"16.18510000","longitude":"-93.26881000"},{"name":"Villa Hidalgo","latitude":"16.30457000","longitude":"-93.15466000"},{"name":"Villaflores","latitude":"16.34149000","longitude":"-93.33191000"},{"name":"Villahermosa Yaluma","latitude":"16.33366000","longitude":"-92.07771000"},{"name":"Villamorelos","latitude":"16.48000000","longitude":"-93.92778000"},{"name":"Viva Cárdenas","latitude":"16.83570000","longitude":"-93.19333000"},{"name":"Viva México","latitude":"14.91008000","longitude":"-92.32609000"},{"name":"Xochiltepec","latitude":"15.12780000","longitude":"-92.43388000"},{"name":"Yajalón","latitude":"17.18519000","longitude":"-92.32715000"},{"name":"Yaltem","latitude":"16.84402000","longitude":"-92.79057000"},{"name":"Yasha","latitude":"16.39141000","longitude":"-92.06878000"},{"name":"Yashanal","latitude":"16.82889000","longitude":"-92.45194000"},{"name":"Yibeljoj","latitude":"16.95750000","longitude":"-92.50361000"},{"name":"Yoshib","latitude":"16.84528000","longitude":"-92.44611000"},{"name":"Zacatonal de Juárez","latitude":"17.27097000","longitude":"-92.79936000"},{"name":"Zacualpa","latitude":"15.16820000","longitude":"-92.62705000"},{"name":"Zamora Pico de Oro","latitude":"16.33205000","longitude":"-90.76560000"},{"name":"Zaragoza","latitude":"17.00906000","longitude":"-91.64033000"},{"name":"Zaragoza la Montaña","latitude":"16.41653000","longitude":"-92.20512000"},{"name":"Zequentic","latitude":"16.71694000","longitude":"-92.82667000"},{"name":"Zinacantán","latitude":"16.76020000","longitude":"-92.72257000"},{"name":"Álvaro Obregón","latitude":"14.92231000","longitude":"-92.37813000"},{"name":"Ángel Albino Corzo","latitude":"15.86624000","longitude":"-92.72324000"},{"name":"Ángel Albino Corzo (Guadalupe)","latitude":"17.12639000","longitude":"-93.27500000"}]