[{"name":"Chiungutwa","latitude":"-10.88333000","longitude":"38.98333000"},{"name":"Kitama","latitude":"-10.71667000","longitude":"39.73333000"},{"name":"Kitangari","latitude":"-10.65000000","longitude":"39.33333000"},{"name":"Luchingu","latitude":"-10.90000000","longitude":"39.33333000"},{"name":"Lukuledi","latitude":"-10.56667000","longitude":"38.80000000"},{"name":"Lulindi","latitude":"-10.81667000","longitude":"39.13333000"},{"name":"Madimba","latitude":"-10.40000000","longitude":"40.33333000"},{"name":"Mahuta","latitude":"-10.86667000","longitude":"39.45000000"},{"name":"Masasi","latitude":"-10.71667000","longitude":"38.80000000"},{"name":"Masuguru","latitude":"-11.36667000","longitude":"38.41667000"},{"name":"Mtwara","latitude":"-10.26667000","longitude":"40.18333000"},{"name":"Namalenga","latitude":"-10.95000000","longitude":"39.10000000"},{"name":"Namikupa","latitude":"-10.83333000","longitude":"39.60000000"},{"name":"Nanganga","latitude":"-10.38333000","longitude":"39.15000000"},{"name":"Nangomba","latitude":"-10.90000000","longitude":"38.50000000"},{"name":"Nanhyanga","latitude":"-10.80000000","longitude":"39.55000000"},{"name":"Nanyamba","latitude":"-10.68333000","longitude":"39.83333000"},{"name":"Newala Kisimani","latitude":"-10.95000000","longitude":"39.28333000"},{"name":"Tandahimba","latitude":"-10.75000000","longitude":"39.63333000"}]