[{"name":"Copiapó","latitude":"-27.36650000","longitude":"-70.33230000"},{"name":"Diego de Almagro","latitude":"-26.36667000","longitude":"-70.05000000"},{"name":"Chañaral","latitude":"-26.34790000","longitude":"-70.62240000"},{"name":"Huasco","latitude":"-28.45000000","longitude":"-71.21666667"},{"name":"Vallenar","latitude":"-28.57617000","longitude":"-70.75938000"},{"name":"Caldera","latitude":"-27.06666667","longitude":"-70.81666667"},{"name":"Tierra Amarilla","latitude":"-27.46666667","longitude":"-70.26666667"},{"name":"Alto del Carmen","latitude":"-28.93355556","longitude":"-70.46227778"},{"name":"Freirina","latitude":"-28.50000000","longitude":"-71.06666667"}]