[{"name":"Achaea Regional Unit","countryCode":"GR","fipsCode":"38","iso":"13","latitude":"38.11587290","longitude":"21.95224910"},{"name":"Aetolia-Acarnania Regional Unit","countryCode":"GR","fipsCode":"31","iso":"01","latitude":"38.70843860","longitude":"21.37989280"},{"name":"Arcadia Prefecture","countryCode":"GR","fipsCode":"41","iso":"12","latitude":"37.55578250","longitude":"22.33377690"},{"name":"Argolis Regional Unit","countryCode":"GR","fipsCode":"36","iso":"11","latitude":null,"longitude":null},{"name":"Attica Region","countryCode":"GR","fipsCode":"ESYE31","iso":"I","latitude":"38.04575680","longitude":"23.85847370"},{"name":"Boeotia Regional Unit","countryCode":"GR","fipsCode":"33","iso":"03","latitude":"38.36636640","longitude":"23.09650640"},{"name":"Central Greece Region","countryCode":"GR","fipsCode":"ESYE24","iso":"H","latitude":"38.60439840","longitude":"22.71521310"},{"name":"Central Macedonia","countryCode":"GR","fipsCode":"ESYE12","iso":"B","latitude":"40.62117300","longitude":"23.19180210"},{"name":"Chania Regional Unit","countryCode":"GR","fipsCode":"43","iso":"94","latitude":"35.51382980","longitude":"24.01803670"},{"name":"Corfu Prefecture","countryCode":"GR","fipsCode":"25","iso":"22","latitude":"39.62498380","longitude":"19.92234610"},{"name":"Corinthia Regional Unit","countryCode":"GR","fipsCode":"37","iso":"15","latitude":null,"longitude":null},{"name":"Crete Region","countryCode":"GR","fipsCode":"ESYE43","iso":"M","latitude":"35.24011700","longitude":"24.80926910"},{"name":"Drama Regional Unit","countryCode":"GR","fipsCode":"04","iso":"52","latitude":"41.23400230","longitude":"24.23904980"},{"name":"East Attica Regional Unit","countryCode":"GR","fipsCode":"ESYE11","iso":"A2","latitude":"38.20540930","longitude":"23.85847370"},{"name":"East Macedonia and Thrace","countryCode":"GR","fipsCode":"ESYE11","iso":"A","latitude":"41.12951260","longitude":"24.88771910"},{"name":"Epirus Region","countryCode":"GR","fipsCode":"ESYE21","iso":"D","latitude":"39.57064130","longitude":"20.76428430"},{"name":"Euboea","countryCode":"GR","fipsCode":"34","iso":"04","latitude":"38.52360360","longitude":"23.85847370"},{"name":"Grevena Prefecture","countryCode":"GR","fipsCode":"10","iso":"51","latitude":"40.08376260","longitude":"21.42732990"},{"name":"Imathia Regional Unit","countryCode":"GR","fipsCode":"12","iso":"53","latitude":"40.60600670","longitude":"22.14302150"},{"name":"Ioannina Regional Unit","countryCode":"GR","fipsCode":"17","iso":"33","latitude":"39.66502880","longitude":"20.85374660"},{"name":"Ionian Islands Region","countryCode":"GR","fipsCode":"ESYE22","iso":"F","latitude":"37.96948980","longitude":"21.38023720"},{"name":"Karditsa Regional Unit","countryCode":"GR","fipsCode":"23","iso":"41","latitude":"39.36402580","longitude":"21.92140490"},{"name":"Kastoria Regional Unit","countryCode":"GR","fipsCode":"09","iso":"56","latitude":"40.51926910","longitude":"21.26871710"},{"name":"Kefalonia Prefecture","countryCode":"GR","fipsCode":"27","iso":"23","latitude":"38.17536750","longitude":"20.56921790"},{"name":"Kilkis Regional Unit","countryCode":"GR","fipsCode":"06","iso":"57","latitude":"40.99370710","longitude":"22.87536740"},{"name":"Kozani Prefecture","countryCode":"GR","fipsCode":"11","iso":"58","latitude":"40.30055860","longitude":"21.78877370"},{"name":"Laconia","countryCode":"GR","fipsCode":"42","iso":"16","latitude":"43.52785460","longitude":"-71.47035090"},{"name":"Larissa Prefecture","countryCode":"GR","fipsCode":"21","iso":"42","latitude":"39.63902240","longitude":"22.41912540"},{"name":"Lefkada Regional Unit","countryCode":"GR","fipsCode":"26","iso":"24","latitude":"38.83336630","longitude":"20.70691080"},{"name":"Pella Regional Unit","countryCode":"GR","fipsCode":"07","iso":"59","latitude":"40.91480390","longitude":"22.14302150"},{"name":"Peloponnese Region","countryCode":"GR","fipsCode":"ESYE25","iso":"J","latitude":"37.50794720","longitude":"22.37349000"},{"name":"Phthiotis Prefecture","countryCode":"GR","fipsCode":"29","iso":"06","latitude":"38.99978500","longitude":"22.33377690"},{"name":"Preveza Prefecture","countryCode":"GR","fipsCode":"19","iso":"34","latitude":"38.95926490","longitude":"20.75171550"},{"name":"Serres Prefecture","countryCode":"GR","fipsCode":"05","iso":"62","latitude":"41.08638540","longitude":"23.54838190"},{"name":"South Aegean","countryCode":"GR","fipsCode":"ESYE42","iso":"L","latitude":"37.08553020","longitude":"25.14892150"},{"name":"Thessaloniki Regional Unit","countryCode":"GR","fipsCode":"13","iso":"54","latitude":"40.64006290","longitude":"22.94441910"},{"name":"West Greece Region","countryCode":"GR","fipsCode":"ESYE23","iso":"G","latitude":"38.51154960","longitude":"21.57067860"},{"name":"West Macedonia Region","countryCode":"GR","fipsCode":"ESYE13","iso":"C","latitude":"40.30040580","longitude":"21.79035590"}]