[{"name":"Aguacatán","latitude":"15.34222000","longitude":"-91.31141000"},{"name":"Barillas","latitude":"15.80361000","longitude":"-91.31583000"},{"name":"Chiantla","latitude":"15.35484000","longitude":"-91.45807000"},{"name":"Colotenango","latitude":"15.40602000","longitude":"-91.71267000"},{"name":"Concepción Huista","latitude":"15.62378000","longitude":"-91.66521000"},{"name":"Cuilco","latitude":"15.40719000","longitude":"-91.94667000"},{"name":"Huehuetenango","latitude":"15.31918000","longitude":"-91.47241000"},{"name":"Ixtahuacán","latitude":"15.41688000","longitude":"-91.76927000"},{"name":"Jacaltenango","latitude":"15.66662000","longitude":"-91.71177000"},{"name":"La Libertad","latitude":"15.51421000","longitude":"-91.86944000"},{"name":"Malacatancito","latitude":"15.24457000","longitude":"-91.49901000"},{"name":"Nentón","latitude":"15.80070000","longitude":"-91.75464000"},{"name":"San Antonio Huista","latitude":"15.65010000","longitude":"-91.77163000"},{"name":"San Gaspar Ixchil","latitude":"15.38796000","longitude":"-91.72564000"},{"name":"San Juan Atitán","latitude":"15.42886000","longitude":"-91.62398000"},{"name":"San Juan Ixcoy","latitude":"15.60022000","longitude":"-91.44639000"},{"name":"San Mateo Ixtatán","latitude":"15.83194000","longitude":"-91.47806000"},{"name":"San Miguel Acatán","latitude":"15.70401000","longitude":"-91.59771000"},{"name":"San Pedro Necta","latitude":"15.49142000","longitude":"-91.76551000"},{"name":"San Rafael La Independencia","latitude":"15.70150000","longitude":"-91.53553000"},{"name":"San Rafael Petzal","latitude":"15.40487000","longitude":"-91.66451000"},{"name":"San Sebastián Coatán","latitude":"15.73584000","longitude":"-91.56285000"},{"name":"San Sebastián Huehuetenango","latitude":"15.38768000","longitude":"-91.61530000"},{"name":"Santa Ana Huista","latitude":"15.68085000","longitude":"-91.82005000"},{"name":"Santa Bárbara","latitude":"15.31617000","longitude":"-91.63279000"},{"name":"Santa Eulalia","latitude":"15.73060000","longitude":"-91.45846000"},{"name":"Santiago Chimaltenango","latitude":"15.47658000","longitude":"-91.69656000"},{"name":"Soloma","latitude":"15.65841000","longitude":"-91.42994000"},{"name":"Tectitán","latitude":"15.30630000","longitude":"-92.06051000"},{"name":"Todos Santos Cuchumatán","latitude":"15.50846000","longitude":"-91.60382000"}]