[{"name":"Chebika","latitude":"34.31909000","longitude":"7.93519000"},{"name":"Degache","latitude":"33.97606000","longitude":"8.20810000"},{"name":"Nefta","latitude":"33.87309000","longitude":"7.87765000"},{"name":"Tamaghzah","latitude":"34.38849000","longitude":"7.94313000"},{"name":"Tozeur","latitude":"33.91968000","longitude":"8.13352000"}]