[{"name":"Arkalyk","latitude":"50.24915000","longitude":"66.92027000"},{"name":"Ayat","latitude":"52.83554000","longitude":"62.52078000"},{"name":"Borovskoy","latitude":"53.79270000","longitude":"64.18268000"},{"name":"Dzhetygara","latitude":"52.19019000","longitude":"61.19894000"},{"name":"Fyodorovka","latitude":"53.63809000","longitude":"62.69653000"},{"name":"Karasu","latitude":"52.65995000","longitude":"65.48421000"},{"name":"Komsomolets","latitude":"53.75019000","longitude":"62.05840000"},{"name":"Kostanay","latitude":"53.21435000","longitude":"63.62463000"},{"name":"Lisakovsk","latitude":"52.54707000","longitude":"62.49987000"},{"name":"Ordzhonikidze","latitude":"52.44772000","longitude":"61.74942000"},{"name":"Qashar","latitude":"53.36799000","longitude":"62.86839000"},{"name":"Qusmuryn","latitude":"52.45107000","longitude":"64.61977000"},{"name":"Rudnyy","latitude":"52.97290000","longitude":"63.11677000"},{"name":"Tobol","latitude":"52.69366000","longitude":"62.59140000"},{"name":"Torghay","latitude":"49.63389000","longitude":"63.49806000"},{"name":"Troyebratskiy","latitude":"54.44306000","longitude":"66.07982000"}]