[{"name":"Akalla","latitude":"59.41465000","longitude":"17.91398000"},{"name":"Alby","latitude":"59.23350000","longitude":"17.85380000"},{"name":"Arnö","latitude":"60.11667000","longitude":"18.63333000"},{"name":"Bergshamra","latitude":"59.38083000","longitude":"18.03427000"},{"name":"Bollmora","latitude":"59.24196000","longitude":"18.22762000"},{"name":"Boo","latitude":"59.33333000","longitude":"18.28333000"},{"name":"Botkyrka Kommun","latitude":"59.20000000","longitude":"17.81667000"},{"name":"Brevik","latitude":"59.35000000","longitude":"18.20000000"},{"name":"Bro","latitude":"59.51667000","longitude":"17.63333000"},{"name":"Bromma","latitude":"59.34000000","longitude":"17.94000000"},{"name":"Brunn","latitude":"59.28000000","longitude":"18.43000000"},{"name":"Brunna","latitude":"59.51667000","longitude":"17.75000000"},{"name":"Dalarö","latitude":"59.13306000","longitude":"18.40639000"},{"name":"Danderyds Kommun","latitude":"59.40924000","longitude":"18.04847000"},{"name":"Djursholm","latitude":"59.39926000","longitude":"18.05619000"},{"name":"Djurö","latitude":"59.32653000","longitude":"18.71152000"},{"name":"Ekerö","latitude":"59.29100000","longitude":"17.81212000"},{"name":"Ekerö Kommun","latitude":"59.32198000","longitude":"17.63580000"},{"name":"Enebyberg","latitude":"59.43333000","longitude":"18.05000000"},{"name":"Eriksberg","latitude":"59.24241000","longitude":"17.81631000"},{"name":"Fisksätra","latitude":"59.29153000","longitude":"18.25490000"},{"name":"Fittja","latitude":"59.24868000","longitude":"17.85991000"},{"name":"Gamla Stan","latitude":"59.32627000","longitude":"18.07251000"},{"name":"Gustavsberg","latitude":"59.32684000","longitude":"18.38975000"},{"name":"Hallstavik","latitude":"60.05000000","longitude":"18.60000000"},{"name":"Handen","latitude":"59.16809000","longitude":"18.13796000"},{"name":"Haninge","latitude":"59.16775000","longitude":"18.14478000"},{"name":"Haninge Kommun","latitude":"59.17382000","longitude":"18.15491000"},{"name":"Hemmesta","latitude":"59.32273000","longitude":"18.48675000"},{"name":"Huddinge","latitude":"59.23705000","longitude":"17.98192000"},{"name":"Huddinge Kommun","latitude":"59.21428000","longitude":"18.01584000"},{"name":"Hölö","latitude":"59.01667000","longitude":"17.53333000"},{"name":"Jakobsberg","latitude":"59.42268000","longitude":"17.83508000"},{"name":"Jordbro","latitude":"59.14972000","longitude":"18.11667000"},{"name":"Järfälla kommun","latitude":"59.40875000","longitude":"17.86514000"},{"name":"Järna","latitude":"59.09165000","longitude":"17.56615000"},{"name":"Kista","latitude":"59.40316000","longitude":"17.94479000"},{"name":"Kopparmora","latitude":"59.33306000","longitude":"18.58306000"},{"name":"Kummelnäs","latitude":"59.35000000","longitude":"18.28333000"},{"name":"Kungsholmen","latitude":"59.33183000","longitude":"18.04118000"},{"name":"Kungsängen","latitude":"59.47857000","longitude":"17.74834000"},{"name":"Lidingö","latitude":"59.36303000","longitude":"18.15096000"},{"name":"Lindholmen","latitude":"59.58333000","longitude":"18.10000000"},{"name":"Långvik","latitude":"59.24583000","longitude":"18.51667000"},{"name":"Märsta","latitude":"59.62157000","longitude":"17.85476000"},{"name":"Mölnbo","latitude":"59.05000000","longitude":"17.41667000"},{"name":"Mörtnäs","latitude":"59.31862000","longitude":"18.44312000"},{"name":"Nacka","latitude":"59.31053000","longitude":"18.16372000"},{"name":"Nacka Kommun","latitude":"59.31077000","longitude":"18.17551000"},{"name":"Norrtälje","latitude":"59.75799000","longitude":"18.70496000"},{"name":"Norrtälje Kommun","latitude":"59.86120000","longitude":"18.70573000"},{"name":"Nykvarn","latitude":"59.80000000","longitude":"18.30000000"},{"name":"Nykvarns Kommun","latitude":"59.19479000","longitude":"17.40632000"},{"name":"Nynäshamn","latitude":"58.90337000","longitude":"17.94793000"},{"name":"Nynäshamns kommun","latitude":"58.95607000","longitude":"17.88694000"},{"name":"Pershagen","latitude":"59.15494000","longitude":"17.65340000"},{"name":"Resarö","latitude":"59.42910000","longitude":"18.33386000"},{"name":"Rimbo","latitude":"59.75000000","longitude":"18.36667000"},{"name":"Rindö","latitude":"59.39688000","longitude":"18.39434000"},{"name":"Rosersberg","latitude":"59.58333000","longitude":"17.88333000"},{"name":"Råsunda","latitude":"59.36588000","longitude":"17.99569000"},{"name":"Rönninge","latitude":"59.20000000","longitude":"17.73333000"},{"name":"Salems Kommun","latitude":"59.24572000","longitude":"17.69875000"},{"name":"Saltsjöbaden","latitude":"59.28333000","longitude":"18.30000000"},{"name":"Segeltorp","latitude":"59.27597000","longitude":"17.93072000"},{"name":"Sigtuna","latitude":"59.61731000","longitude":"17.72361000"},{"name":"Sigtuna Kommun","latitude":"59.63960000","longitude":"17.93946000"},{"name":"Skänninge","latitude":"59.93333000","longitude":"18.48333000"},{"name":"Sollentuna","latitude":"59.42804000","longitude":"17.95093000"},{"name":"Sollentuna Kommun","latitude":"59.44499000","longitude":"17.93518000"},{"name":"Solna","latitude":"59.36004000","longitude":"18.00086000"},{"name":"Solna Kommun","latitude":"59.36548000","longitude":"18.00728000"},{"name":"Stavsnäs","latitude":"59.28333000","longitude":"18.68333000"},{"name":"Stenhamra","latitude":"59.33440000","longitude":"17.68842000"},{"name":"Stockholm","latitude":"59.33258000","longitude":"18.06490000"},{"name":"Stockholms Kommun","latitude":"59.32478000","longitude":"18.06427000"},{"name":"Strömma","latitude":"59.28333000","longitude":"18.53333000"},{"name":"Sundbyberg","latitude":"59.36128000","longitude":"17.97114000"},{"name":"Sundbybergs Kommun","latitude":"59.36669000","longitude":"17.97020000"},{"name":"Södermalm","latitude":"59.31278000","longitude":"18.07577000"},{"name":"Södertälje","latitude":"59.19554000","longitude":"17.62525000"},{"name":"Södertälje Kommun","latitude":"59.18121000","longitude":"17.62756000"},{"name":"Tensta","latitude":"59.39390000","longitude":"17.90111000"},{"name":"Tullinge","latitude":"59.20000000","longitude":"17.90000000"},{"name":"Tumba","latitude":"59.19858000","longitude":"17.83317000"},{"name":"Tyresö Kommun","latitude":"59.24148000","longitude":"18.28074000"},{"name":"Täby Kommun","latitude":"59.43739000","longitude":"18.06530000"},{"name":"Upplands Väsby","latitude":"59.51839000","longitude":"17.91128000"},{"name":"Upplands Väsby kommun","latitude":"59.52382000","longitude":"17.91001000"},{"name":"Upplands-Bro Kommun","latitude":"59.49095000","longitude":"17.74979000"},{"name":"Vallentuna","latitude":"59.53436000","longitude":"18.07758000"},{"name":"Vallentuna Kommun","latitude":"59.59146000","longitude":"18.21000000"},{"name":"Vasastan","latitude":"59.34571000","longitude":"18.04985000"},{"name":"Vaxholm","latitude":"59.40225000","longitude":"18.35317000"},{"name":"Vaxholms Kommun","latitude":"59.40386000","longitude":"18.34167000"},{"name":"Värmdö Kommun","latitude":"59.31614000","longitude":"18.70414000"},{"name":"Vårby","latitude":"59.26671000","longitude":"17.88407000"},{"name":"Vårsta","latitude":"59.16528000","longitude":"17.79722000"},{"name":"Älmsta","latitude":"59.96667000","longitude":"18.80000000"},{"name":"Älta","latitude":"59.26667000","longitude":"18.18333000"},{"name":"Åkersberga","latitude":"59.47944000","longitude":"18.29967000"},{"name":"Årsta","latitude":"59.29780000","longitude":"18.05140000"},{"name":"Ösmo","latitude":"58.98333000","longitude":"17.90000000"},{"name":"Östermalm","latitude":"59.33879000","longitude":"18.08487000"},{"name":"Österåkers Kommun","latitude":"59.48345000","longitude":"18.29979000"}]