[{"name":"Bambali","latitude":"13.48333000","longitude":"-15.33333000"},{"name":"Barra","latitude":"13.48278000","longitude":"-16.54556000"},{"name":"Central Baddibu","latitude":"13.53333000","longitude":"-15.91667000"},{"name":"Chilla","latitude":"13.55000000","longitude":"-16.28333000"},{"name":"Daru Rilwan","latitude":"13.55000000","longitude":"-15.98333000"},{"name":"Essau","latitude":"13.48389000","longitude":"-16.53472000"},{"name":"Farafenni","latitude":"13.56667000","longitude":"-15.60000000"},{"name":"Gunjur","latitude":"13.52278000","longitude":"-16.02778000"},{"name":"Jokadu","latitude":"13.53333000","longitude":"-16.18333000"},{"name":"Katchang","latitude":"13.50000000","longitude":"-15.75000000"},{"name":"Kerewan","latitude":"13.48980000","longitude":"-16.08879000"},{"name":"Lamin","latitude":"13.35222000","longitude":"-16.43389000"},{"name":"Lower Baddibu District","latitude":"13.50000000","longitude":"-16.05000000"},{"name":"Lower Niumi District","latitude":"13.53333000","longitude":"-16.41667000"},{"name":"No Kunda","latitude":"13.56667000","longitude":"-15.83333000"},{"name":"Saba","latitude":"13.51639000","longitude":"-16.04917000"},{"name":"Sara Kunda","latitude":"13.53333000","longitude":"-15.41667000"},{"name":"Upper Baddibu","latitude":"13.55000000","longitude":"-15.66667000"},{"name":"Upper Niumi District","latitude":"13.40000000","longitude":"-16.33333000"}]