[{"name":"Abū Qurqāş","latitude":"27.93120000","longitude":"30.83841000"},{"name":"Al Minyā","latitude":"28.10988000","longitude":"30.75030000"},{"name":"Banī Mazār","latitude":"28.50360000","longitude":"30.80040000"},{"name":"Dayr Mawās","latitude":"27.64176000","longitude":"30.84662000"},{"name":"Mallawī","latitude":"27.73140000","longitude":"30.84165000"},{"name":"Maţāy","latitude":"28.41899000","longitude":"30.77924000"},{"name":"Samālūţ","latitude":"28.31214000","longitude":"30.71007000"}]