[{"name":"Britof","latitude":"46.26024000","longitude":"14.39037000"},{"name":"Golnik","latitude":"46.33333000","longitude":"14.33333000"},{"name":"Kokrica","latitude":"46.27028000","longitude":"14.36111000"},{"name":"Kranj","latitude":"46.23887000","longitude":"14.35561000"},{"name":"Mlaka pri Kranju","latitude":"46.28333000","longitude":"14.35000000"},{"name":"Zgornje Bitnje","latitude":"46.22000000","longitude":"14.33667000"}]