[{"name":"Dawukou","latitude":"39.04194000","longitude":"106.39583000"},{"name":"Dongta","latitude":"38.08140000","longitude":"106.34444000"},{"name":"Shitanjing","latitude":"39.23417000","longitude":"106.34389000"},{"name":"Shizuishan","latitude":"39.23333000","longitude":"106.76944000"},{"name":"Wuzhong","latitude":"37.98670000","longitude":"106.20100000"},{"name":"Yinchuan","latitude":"38.46806000","longitude":"106.27306000"},{"name":"Zhongwei","latitude":"37.51129000","longitude":"105.19067000"}]