[{"name":"Gobojango","latitude":"-21.83270000","longitude":"28.72882000"},{"name":"Gweta","latitude":"-20.18333000","longitude":"25.23333000"},{"name":"Kalamare","latitude":"-22.93369000","longitude":"26.57032000"},{"name":"Letlhakane","latitude":"-21.41494000","longitude":"25.59263000"},{"name":"Letsheng","latitude":"-22.66384000","longitude":"27.22390000"},{"name":"Maapi","latitude":"-22.75785000","longitude":"27.35001000"},{"name":"Machaneng","latitude":"-23.18621000","longitude":"27.48856000"},{"name":"Mahalapye","latitude":"-23.10407000","longitude":"26.81421000"},{"name":"Makobeng","latitude":"-22.99637000","longitude":"27.66766000"},{"name":"Makwata","latitude":"-23.28333000","longitude":"27.30000000"},{"name":"Mathakola","latitude":"-22.72125000","longitude":"27.31057000"},{"name":"Mathambgwane","latitude":"-20.99075000","longitude":"27.33158000"},{"name":"Mathathane","latitude":"-22.26875000","longitude":"28.74946000"},{"name":"Maunatlala","latitude":"-22.59701000","longitude":"27.63006000"},{"name":"Mogapi","latitude":"-22.32301000","longitude":"27.83492000"},{"name":"Moijabana","latitude":"-22.43333000","longitude":"26.41667000"},{"name":"Mookane","latitude":"-23.68805000","longitude":"26.65948000"},{"name":"Mopipi","latitude":"-21.18333000","longitude":"24.88333000"},{"name":"Mosetse","latitude":"-20.75000000","longitude":"26.65000000"},{"name":"Nata","latitude":"-20.21667000","longitude":"26.18333000"},{"name":"Orapa","latitude":"-21.31150000","longitude":"25.37642000"},{"name":"Palapye","latitude":"-22.54605000","longitude":"27.12507000"},{"name":"Pilikwe","latitude":"-22.79904000","longitude":"27.19376000"},{"name":"Rakops","latitude":"-21.02257000","longitude":"24.36052000"},{"name":"Ramokgonami","latitude":"-22.86450000","longitude":"27.42391000"},{"name":"Ratholo","latitude":"-22.72454000","longitude":"27.57199000"},{"name":"Sefophe","latitude":"-22.18333000","longitude":"27.96667000"},{"name":"Serowe","latitude":"-22.38754000","longitude":"26.71077000"},{"name":"Sua","latitude":"-20.05000000","longitude":"26.20000000"},{"name":"Tamasane","latitude":"-22.41840000","longitude":"27.40127000"},{"name":"Tobane","latitude":"-21.95000000","longitude":"27.90000000"},{"name":"Tonota","latitude":"-21.44236000","longitude":"27.46153000"}]