[{"name":"Bocas del Toro Province","countryCode":"PA","fipsCode":"01","iso":"1","latitude":"9.41655210","longitude":"-82.52077870"},{"name":"Chiriquí Province","countryCode":"PA","fipsCode":"02","iso":"4","latitude":"8.58489800","longitude":"-82.38857830"},{"name":"Coclé Province","countryCode":"PA","fipsCode":"03","iso":"2","latitude":"8.62660680","longitude":"-80.36586500"},{"name":"Colón Province","countryCode":"PA","fipsCode":"04","iso":"3","latitude":"9.18519890","longitude":"-80.05349230"},{"name":"Darién Province","countryCode":"PA","fipsCode":"05","iso":"5","latitude":"7.86817130","longitude":"-77.83672820"},{"name":"Emberá-Wounaan Comarca","countryCode":"PA","fipsCode":"11","iso":"EM","latitude":"8.37669830","longitude":"-77.65361250"},{"name":"Guna Yala","countryCode":"PA","fipsCode":"09","iso":"KY","latitude":"9.23443950","longitude":"-78.19262500"},{"name":"Herrera Province","countryCode":"PA","fipsCode":"06","iso":"6","latitude":"7.77042820","longitude":"-80.72144170"},{"name":"Los Santos Province","countryCode":"PA","fipsCode":"07","iso":"7","latitude":"7.59093020","longitude":"-80.36586500"},{"name":"Ngöbe-Buglé Comarca","countryCode":"PA","fipsCode":"12","iso":"NB","latitude":"8.65958330","longitude":"-81.77870210"},{"name":"Panamá Oeste Province","countryCode":"PA","fipsCode":"13","iso":"10","latitude":"9.11967510","longitude":"-79.29021330"},{"name":"Panamá Province","countryCode":"PA","fipsCode":"08","iso":"8","latitude":"9.11967510","longitude":"-79.29021330"},{"name":"Veraguas Province","countryCode":"PA","fipsCode":"10","iso":"9","latitude":"8.12310330","longitude":"-81.07546570"}]