[{"name":"Baoding","latitude":"38.85111000","longitude":"115.49028000"},{"name":"Beidaihehaibin","latitude":"39.82222000","longitude":"119.51806000"},{"name":"Botou","latitude":"38.06667000","longitude":"116.56660000"},{"name":"Cangzhou","latitude":"38.31667000","longitude":"116.86667000"},{"name":"Cangzhou Shi","latitude":"38.31000000","longitude":"116.86000000"},{"name":"Changli","latitude":"39.70417000","longitude":"119.15056000"},{"name":"Chengde","latitude":"40.95190000","longitude":"117.95883000"},{"name":"Chengde Prefecture","latitude":"40.97000000","longitude":"117.93000000"},{"name":"Dingzhou","latitude":"38.51306000","longitude":"114.99556000"},{"name":"Fengrun","latitude":"39.83333000","longitude":"118.11667000"},{"name":"Guye","latitude":"39.73054000","longitude":"118.44085000"},{"name":"Handan","latitude":"36.60056000","longitude":"114.46778000"},{"name":"Hecun","latitude":"36.53333000","longitude":"114.11111000"},{"name":"Hengshui","latitude":"37.73222000","longitude":"115.70111000"},{"name":"Langfang","latitude":"39.50972000","longitude":"116.69472000"},{"name":"Langfang Shi","latitude":"39.51667000","longitude":"116.68333000"},{"name":"Linshui","latitude":"36.42472000","longitude":"114.20472000"},{"name":"Linxi","latitude":"39.71183000","longitude":"118.44954000"},{"name":"Luancheng","latitude":"37.87917000","longitude":"114.65167000"},{"name":"Nangong","latitude":"37.35806000","longitude":"115.37444000"},{"name":"Pengcheng","latitude":"36.43111000","longitude":"114.17000000"},{"name":"Qinhuangdao","latitude":"39.93167000","longitude":"119.58833000"},{"name":"Renqiu","latitude":"38.69889000","longitude":"116.09361000"},{"name":"Shahecheng","latitude":"36.93833000","longitude":"114.50583000"},{"name":"Shanhaiguan","latitude":"40.00250000","longitude":"119.74889000"},{"name":"Shijiazhuang","latitude":"38.04139000","longitude":"114.47861000"},{"name":"Shijiazhuang Shi","latitude":"38.04000000","longitude":"114.47000000"},{"name":"Songling","latitude":"40.29303000","longitude":"118.26908000"},{"name":"Tangjiazhuang","latitude":"39.74326000","longitude":"118.45099000"},{"name":"Tangshan","latitude":"39.63333000","longitude":"118.18333000"},{"name":"Tangshan Shi","latitude":"39.63000000","longitude":"118.18000000"},{"name":"Tianchang","latitude":"37.99806000","longitude":"114.01556000"},{"name":"Xingtai","latitude":"37.06306000","longitude":"114.49417000"},{"name":"Xinji","latitude":"37.90278000","longitude":"115.20361000"},{"name":"Zhangjiakou","latitude":"40.81000000","longitude":"114.87944000"},{"name":"Zhangjiakou Shi","latitude":"40.83333000","longitude":"114.93333000"},{"name":"Zhangjiakou Shi Xuanhua Qu","latitude":"40.61028000","longitude":"115.04472000"},{"name":"Zhaogezhuang","latitude":"39.76538000","longitude":"118.41191000"},{"name":"Zunhua","latitude":"40.17917000","longitude":"117.95861000"}]