[{"name":"Antoniny","latitude":"49.80974000","longitude":"26.87714000"},{"name":"Bazaliya","latitude":"49.71267000","longitude":"26.47331000"},{"name":"Derazhnya","latitude":"49.26920000","longitude":"27.43382000"},{"name":"Derazhnyans’kyy Rayon","latitude":"49.22676000","longitude":"27.46603000"},{"name":"Dunaivtsi","latitude":"48.88909000","longitude":"26.85636000"},{"name":"Horodok","latitude":"49.16374000","longitude":"26.58394000"},{"name":"Izyaslav","latitude":"50.11947000","longitude":"26.82125000"},{"name":"Kamianets-Podilskyi","latitude":"48.68450000","longitude":"26.58559000"},{"name":"Khmelnytskyi","latitude":"49.42161000","longitude":"26.99653000"},{"name":"Khmel’nyts’kyy Rayon","latitude":"49.44511000","longitude":"26.93268000"},{"name":"Krasyliv","latitude":"49.65186000","longitude":"26.97253000"},{"name":"Letychiv","latitude":"49.38263000","longitude":"27.63051000"},{"name":"Makiv","latitude":"48.79487000","longitude":"26.69188000"},{"name":"Medzhybizh","latitude":"49.43748000","longitude":"27.40487000"},{"name":"Narkevychi","latitude":"49.51717000","longitude":"26.64178000"},{"name":"Netishyn","latitude":"50.34004000","longitude":"26.64171000"},{"name":"Nova Ushytsya","latitude":"48.83716000","longitude":"27.27434000"},{"name":"Novoselytsya","latitude":"50.07030000","longitude":"27.51955000"},{"name":"Polonne","latitude":"50.12424000","longitude":"27.51087000"},{"name":"Poninka","latitude":"50.18492000","longitude":"27.53629000"},{"name":"Shepetivka","latitude":"50.18545000","longitude":"27.06365000"},{"name":"Slavuta","latitude":"50.30155000","longitude":"26.86506000"},{"name":"Smotrych","latitude":"48.66149000","longitude":"26.56031000"},{"name":"Smyga","latitude":"50.23910000","longitude":"25.76575000"},{"name":"Stara Syniava","latitude":"49.60318000","longitude":"27.61909000"},{"name":"Starokostiantyniv","latitude":"49.75764000","longitude":"27.20342000"},{"name":"Yarmolyntsi","latitude":"49.19236000","longitude":"26.83725000"},{"name":"Zakupne","latitude":"49.11944000","longitude":"26.33756000"},{"name":"Zhvanets","latitude":"48.54968000","longitude":"26.48744000"}]