[{"name":"Aleutskiy Rayon","latitude":"55.21667000","longitude":"165.98333000"},{"name":"Atlasovo","latitude":"55.60650000","longitude":"159.64266000"},{"name":"Bystrinskiy Rayon","latitude":"56.00000000","longitude":"158.50000000"},{"name":"Esso","latitude":"55.92738000","longitude":"158.70708000"},{"name":"Karaginsky District","latitude":"58.00000000","longitude":"159.83333000"},{"name":"Klyuchi","latitude":"56.32035000","longitude":"160.84541000"},{"name":"Kozyrëvsk","latitude":"56.04860000","longitude":"159.87150000"},{"name":"Mil’kovo","latitude":"54.69610000","longitude":"158.62067000"},{"name":"Mil’kovskiy Rayon","latitude":"55.00000000","longitude":"159.00000000"},{"name":"Olyutorskiy Rayon","latitude":"61.00000000","longitude":"169.00000000"},{"name":"Ossora","latitude":"59.24781000","longitude":"163.07034000"},{"name":"Ozernovskiy","latitude":"51.49604000","longitude":"156.50102000"},{"name":"Palana","latitude":"59.08384000","longitude":"159.95630000"},{"name":"Paratunka","latitude":"52.96202000","longitude":"158.25723000"},{"name":"Penzhinskiy Rayon","latitude":"63.00000000","longitude":"167.00000000"},{"name":"Petropavlovsk-Kamchatsky","latitude":"53.04444000","longitude":"158.65076000"},{"name":"Sobolevskiy Rayon","latitude":"54.58333000","longitude":"156.50000000"},{"name":"Tigil’","latitude":"57.75979000","longitude":"158.68161000"},{"name":"Tigil’skiy Rayon","latitude":"57.76046000","longitude":"158.68687000"},{"name":"Tilichiki","latitude":"60.42795000","longitude":"166.05764000"},{"name":"Ust’-Bol’sheretskiy Rayon","latitude":"52.66667000","longitude":"157.00000000"},{"name":"Ust’-Kamchatsk Staryy","latitude":"56.22778000","longitude":"162.47778000"},{"name":"Ust’-Kamchatskiy Rayon","latitude":"56.00000000","longitude":"161.00000000"},{"name":"Vilyuchinsk","latitude":"52.93110000","longitude":"158.40469000"},{"name":"Yelizovo","latitude":"53.18909000","longitude":"158.38135000"},{"name":"Yelizovskiy Rayon","latitude":"53.66667000","longitude":"159.00000000"}]