[{"name":"Audru","latitude":"58.40861000","longitude":"24.37389000"},{"name":"Kihnu vald","latitude":"58.13000000","longitude":"23.99002000"},{"name":"Kilingi-Nõmme","latitude":"58.15028000","longitude":"24.96417000"},{"name":"Lihula","latitude":"58.68139000","longitude":"23.84528000"},{"name":"Linaküla","latitude":"58.13722000","longitude":"23.97444000"},{"name":"Paikuse","latitude":"58.37917000","longitude":"24.63444000"},{"name":"Pärnu","latitude":"58.38588000","longitude":"24.49711000"},{"name":"Pärnu linn","latitude":"58.37901000","longitude":"24.52784000"},{"name":"Pärnu-Jaagupi","latitude":"58.61052000","longitude":"24.50689000"},{"name":"Saarde vald","latitude":"58.13802000","longitude":"24.95564000"},{"name":"Sauga","latitude":"58.42720000","longitude":"24.49496000"},{"name":"Sindi","latitude":"58.40056000","longitude":"24.66750000"},{"name":"Tootsi","latitude":"58.57806000","longitude":"24.79250000"},{"name":"Tori vald","latitude":"58.48663000","longitude":"24.88961000"},{"name":"Uulu","latitude":"58.28361000","longitude":"24.58722000"},{"name":"Vändra","latitude":"58.64806000","longitude":"25.03611000"}]