[{"name":"Abapó","latitude":"-18.88279000","longitude":"-63.38026000"},{"name":"Ascención de Guarayos","latitude":"-15.89299000","longitude":"-63.18855000"},{"name":"Ascensión","latitude":"-15.70000000","longitude":"-63.08333000"},{"name":"Boyuibe","latitude":"-20.43227000","longitude":"-63.28147000"},{"name":"Buena Vista","latitude":"-17.45830000","longitude":"-63.67126000"},{"name":"Camiri","latitude":"-20.03849000","longitude":"-63.51833000"},{"name":"Charagua","latitude":"-19.79151000","longitude":"-63.19864000"},{"name":"Comarapa","latitude":"-17.91537000","longitude":"-64.53163000"},{"name":"Concepción","latitude":"-16.43333000","longitude":"-60.90000000"},{"name":"Cotoca","latitude":"-17.81667000","longitude":"-63.05000000"},{"name":"German Busch","latitude":"-17.77317000","longitude":"-63.19087000"},{"name":"Guarayos","latitude":"-15.82132000","longitude":"-63.24280000"},{"name":"Jorochito","latitude":"-18.05514000","longitude":"-63.42821000"},{"name":"La Bélgica","latitude":"-17.55000000","longitude":"-63.21667000"},{"name":"Limoncito","latitude":"-18.03104000","longitude":"-63.40523000"},{"name":"Los Negros","latitude":"-17.73333000","longitude":"-63.43333000"},{"name":"Mairana","latitude":"-18.11919000","longitude":"-63.95965000"},{"name":"Mineros","latitude":"-17.11876000","longitude":"-63.23100000"},{"name":"Montero","latitude":"-17.33866000","longitude":"-63.25050000"},{"name":"Okinawa Número Uno","latitude":"-17.23333000","longitude":"-62.81667000"},{"name":"Pailón","latitude":"-17.65000000","longitude":"-62.75000000"},{"name":"Paurito","latitude":"-17.88333000","longitude":"-62.96667000"},{"name":"Portachuelo","latitude":"-17.35168000","longitude":"-63.39282000"},{"name":"Provincia Andrés Ibáñez","latitude":"-17.75000000","longitude":"-63.25000000"},{"name":"Provincia Chiquitos","latitude":"-18.00000000","longitude":"-60.00000000"},{"name":"Provincia Cordillera","latitude":"-19.00000000","longitude":"-61.50000000"},{"name":"Provincia Florida","latitude":"-18.00000000","longitude":"-63.91667000"},{"name":"Provincia Ichilo","latitude":"-17.00000000","longitude":"-64.00000000"},{"name":"Provincia Manuel María Caballero","latitude":"-17.83333000","longitude":"-64.41667000"},{"name":"Provincia Santiesteban","latitude":"-16.50000000","longitude":"-63.50000000"},{"name":"Provincia Sara","latitude":"-16.83333000","longitude":"-63.91667000"},{"name":"Provincia Vallegrande","latitude":"-18.50000000","longitude":"-64.16667000"},{"name":"Provincia Velasco","latitude":"-15.50000000","longitude":"-61.00000000"},{"name":"Provincia Warnes","latitude":"-17.33333000","longitude":"-63.00000000"},{"name":"Provincia Ángel Sandoval","latitude":"-17.50000000","longitude":"-58.50000000"},{"name":"Provincia Ñuflo de Chávez","latitude":"-15.91667000","longitude":"-62.50000000"},{"name":"Puerto Quijarro","latitude":"-17.78333000","longitude":"-57.76667000"},{"name":"Puesto de Pailas","latitude":"-17.65000000","longitude":"-62.80000000"},{"name":"Roboré","latitude":"-18.33473000","longitude":"-59.76142000"},{"name":"Samaipata","latitude":"-18.18005000","longitude":"-63.87552000"},{"name":"San Carlos","latitude":"-17.40000000","longitude":"-63.75000000"},{"name":"San Ignacio de Velasco","latitude":"-16.36667000","longitude":"-60.95000000"},{"name":"San Juan del Surutú","latitude":"-17.48333000","longitude":"-63.70000000"},{"name":"San Julian","latitude":"-17.78333000","longitude":"-62.86667000"},{"name":"San Matías","latitude":"-16.36667000","longitude":"-58.40000000"},{"name":"San Pedro","latitude":"-18.28333000","longitude":"-59.81667000"},{"name":"Santa Cruz de la Sierra","latitude":"-17.78629000","longitude":"-63.18117000"},{"name":"Santa Rita","latitude":"-17.96667000","longitude":"-63.35000000"},{"name":"Santa Rosa del Sara","latitude":"-17.10916000","longitude":"-63.59514000"},{"name":"Santiago del Torno","latitude":"-17.98674000","longitude":"-63.38118000"},{"name":"Urubichá","latitude":"-15.39286000","longitude":"-62.94661000"},{"name":"Vallegrande","latitude":"-18.48923000","longitude":"-64.10609000"},{"name":"Villa Yapacaní","latitude":"-17.40000000","longitude":"-63.83333000"},{"name":"Warnes","latitude":"-17.51630000","longitude":"-63.16778000"}]