[{"name":"Ammi Moussa","latitude":"35.86781000","longitude":"1.11143000"},{"name":"Djidiouia","latitude":"35.92989000","longitude":"0.82871000"},{"name":"Mazouna","latitude":"36.12232000","longitude":"0.89865000"},{"name":"Oued Rhiou","latitude":"35.96124000","longitude":"0.91896000"},{"name":"Relizane","latitude":"35.73734000","longitude":"0.55599000"},{"name":"Smala","latitude":"35.71652000","longitude":"0.75437000"},{"name":"Zemoura","latitude":"35.72251000","longitude":"0.75509000"},{"name":"’Aïn Merane","latitude":"36.16277000","longitude":"0.97037000"}]