[{"name":"Andili","latitude":"7.46194444","longitude":"125.97000000"},{"name":"Andop","latitude":"7.86111111","longitude":"125.75388889"},{"name":"Anibongan","latitude":"7.39333333","longitude":"125.71888889"},{"name":"Astorga","latitude":"6.90722222","longitude":"125.45583333"},{"name":"Asuncion","latitude":"7.58333000","longitude":"125.76667000"},{"name":"Babag","latitude":"7.73305556","longitude":"126.07138889"},{"name":"Baculin","latitude":"7.45250000","longitude":"126.58416667"},{"name":"Baganga","latitude":"7.57388889","longitude":"126.56000000"},{"name":"Balagunan","latitude":"7.49222222","longitude":"125.52111111"},{"name":"Balangonan","latitude":"5.57333333","longitude":"125.35388889"},{"name":"Balutakay","latitude":"6.72111111","longitude":"125.35166667"},{"name":"Banaybanay","latitude":"6.96993611","longitude":"126.01257500"},{"name":"Bansalan","latitude":"6.78333333","longitude":"125.21666667"},{"name":"Bantacan","latitude":"7.60388889","longitude":"126.12972222"},{"name":"Baon","latitude":"6.79555556","longitude":"126.08777778"},{"name":"Baracatan","latitude":"6.96750000","longitude":"125.41583333"},{"name":"Basiawan","latitude":"6.53416667","longitude":"125.48694444"},{"name":"Batiano","latitude":"7.55333333","longitude":"126.49083333"},{"name":"Bato","latitude":"7.04305556","longitude":"125.47305556"},{"name":"Batobato","latitude":"6.82527778","longitude":"126.08444444"},{"name":"Baylo","latitude":"7.85527778","longitude":"126.05555556"},{"name":"Biao","latitude":"7.16333333","longitude":"125.52111111"},{"name":"Bincoñgan","latitude":"7.36666667","longitude":"125.75000000"},{"name":"Bitaogan","latitude":"6.76833333","longitude":"126.07750000"},{"name":"Bobon","latitude":"6.86777778","longitude":"126.32833333"},{"name":"Bolila","latitude":"6.37166667","longitude":"125.57138889"},{"name":"Boston","latitude":"7.87111111","longitude":"126.36416667"},{"name":"Buclad","latitude":"7.52777778","longitude":"125.75055556"},{"name":"Buhangin","latitude":"6.49111111","longitude":"125.54750000"},{"name":"Bukid","latitude":"5.57166667","longitude":"125.40555556"},{"name":"Bulacan","latitude":"6.56750000","longitude":"125.42111111"},{"name":"Bungabon","latitude":"7.22222222","longitude":"125.87305556"},{"name":"Butulan","latitude":"5.61444444","longitude":"125.43166667"},{"name":"Cabayangan","latitude":"7.40722222","longitude":"125.73305556"},{"name":"Cabinuangan","latitude":"7.68333333","longitude":"126.03333333"},{"name":"Caburan","latitude":"5.91805556","longitude":"125.64111111"},{"name":"Cambanugoy","latitude":"7.54138889","longitude":"125.75527778"},{"name":"Camudmud","latitude":"7.17611111","longitude":"125.69333333"},{"name":"Caraga","latitude":"7.33333333","longitude":"126.56666667"},{"name":"Carmen","latitude":"7.36055556","longitude":"125.70638889"},{"name":"Cateel","latitude":"7.79138889","longitude":"126.45333333"},{"name":"City of Mati","latitude":"6.75381000","longitude":"126.24592000"},{"name":"City of Panabo","latitude":"7.33038000","longitude":"125.60607000"},{"name":"City of Tagum","latitude":"7.40000000","longitude":"125.83333000"},{"name":"Cogon","latitude":"7.15083333","longitude":"125.71722222"},{"name":"Concepcion","latitude":"7.75055556","longitude":"125.71194444"},{"name":"Corocotan","latitude":"7.39972222","longitude":"125.77277778"},{"name":"Coronon","latitude":"6.87916667","longitude":"125.44888889"},{"name":"Cuambog","latitude":"7.30861111","longitude":"125.84805556"},{"name":"Culaman","latitude":"5.96027778","longitude":"125.65861111"},{"name":"Dacudao","latitude":"7.21527778","longitude":"125.47138889"},{"name":"Dakbayan sa Digos","latitude":"6.83333000","longitude":"125.35000000"},{"name":"Davan","latitude":"6.91500000","longitude":"126.15333333"},{"name":"Davao City","latitude":"7.06666667","longitude":"125.60000000"},{"name":"Del Pilar","latitude":"7.56305556","longitude":"125.82666667"},{"name":"Digos","latitude":"6.75000000","longitude":"125.35000000"},{"name":"Dolo","latitude":"6.81027778","longitude":"125.19166667"},{"name":"Don Marcelino","latitude":"6.11667000","longitude":"125.63333000"},{"name":"Dumlan","latitude":"7.42750000","longitude":"125.88194444"},{"name":"Esperanza","latitude":"7.49166667","longitude":"125.72805556"},{"name":"Gabi","latitude":"7.62138889","longitude":"126.09194444"},{"name":"Gabuyan","latitude":"7.60805556","longitude":"125.66888889"},{"name":"Goma","latitude":"6.79194444","longitude":"125.32083333"},{"name":"Governor Generoso","latitude":"6.65000000","longitude":"126.06666667"},{"name":"Guihing Proper","latitude":"6.68444444","longitude":"125.35250000"},{"name":"Gumalang","latitude":"7.20833333","longitude":"125.40361111"},{"name":"Gupitan","latitude":"7.77583333","longitude":"125.64055556"},{"name":"Hagonoy","latitude":"6.68333333","longitude":"125.30000000"},{"name":"Ignit","latitude":"6.70083333","longitude":"125.29194444"},{"name":"Ilangay","latitude":"6.91277778","longitude":"126.05000000"},{"name":"Inawayan","latitude":"6.96083333","longitude":"125.47333333"},{"name":"Island Garden City of Samal","latitude":"7.08333000","longitude":"125.75000000"},{"name":"Jose Abad Santos","latitude":"5.91666667","longitude":"125.65000000"},{"name":"Jovellar","latitude":"7.06361111","longitude":"126.45555556"},{"name":"Kalbay","latitude":"5.72333333","longitude":"125.49861111"},{"name":"Kalian","latitude":"6.12305556","longitude":"125.70027778"},{"name":"Kaligutan","latitude":"7.70305556","longitude":"125.81305556"},{"name":"Kapalong","latitude":"7.58541667","longitude":"125.70515278"},{"name":"Katipunan","latitude":"7.32027778","longitude":"125.62027778"},{"name":"Kiblawan","latitude":"6.61666667","longitude":"125.21666667"},{"name":"Kinablangan","latitude":"7.69277778","longitude":"126.54916667"},{"name":"Kinamayan","latitude":"7.49944444","longitude":"125.67361111"},{"name":"Kinangan","latitude":"6.30138889","longitude":"125.58500000"},{"name":"La Libertad","latitude":"7.48027778","longitude":"125.64722222"},{"name":"La Paz","latitude":"7.31583333","longitude":"125.73333333"},{"name":"La Union","latitude":"6.70416667","longitude":"126.08805556"},{"name":"Lacaron","latitude":"6.44888889","longitude":"125.57916667"},{"name":"Lacson","latitude":"7.21194444","longitude":"125.44222222"},{"name":"Lais","latitude":"6.33277778","longitude":"125.64638889"},{"name":"Lamitan","latitude":"6.08722222","longitude":"125.70222222"},{"name":"Lapuan","latitude":"6.14444444","longitude":"125.70083333"},{"name":"Lasang","latitude":"7.26694444","longitude":"125.66500000"},{"name":"Libuganon","latitude":"7.34888889","longitude":"125.77833333"},{"name":"Limao","latitude":"7.07916667","longitude":"125.67361111"},{"name":"Limot","latitude":"7.04055556","longitude":"126.27277778"},{"name":"Linao","latitude":"7.01722222","longitude":"125.99194444"},{"name":"Linoan","latitude":"7.62611111","longitude":"125.97416667"},{"name":"Lukatan","latitude":"7.00972222","longitude":"126.42111111"},{"name":"Luna","latitude":"7.57638889","longitude":"125.66722222"},{"name":"Lungaog","latitude":"7.52944444","longitude":"125.68777778"},{"name":"Lupon","latitude":"6.89814000","longitude":"126.00961000"},{"name":"Luzon","latitude":"6.51916667","longitude":"126.09416667"},{"name":"Mabini","latitude":"7.30000000","longitude":"125.85000000"},{"name":"Mabuhay","latitude":"7.33305556","longitude":"125.54750000"},{"name":"Maco","latitude":"7.36194000","longitude":"125.85528000"},{"name":"Maduao","latitude":"7.29416667","longitude":"125.62583333"},{"name":"Magatos","latitude":"7.55555556","longitude":"125.72666667"},{"name":"Magdug","latitude":"6.54777778","longitude":"126.09500000"},{"name":"Magnaga","latitude":"7.16944444","longitude":"125.89305556"},{"name":"Magsaysay","latitude":"6.76666667","longitude":"125.18333333"},{"name":"Mahanob","latitude":"7.57333333","longitude":"126.50694444"},{"name":"Mahayag","latitude":"7.21666667","longitude":"125.61944444"},{"name":"Malagos","latitude":"7.18500000","longitude":"125.42222222"},{"name":"Malalag","latitude":"6.60000000","longitude":"125.40000000"},{"name":"Malinao","latitude":"6.65916667","longitude":"125.28666667"},{"name":"Malita","latitude":"6.40000000","longitude":"125.60000000"},{"name":"Mambago","latitude":"7.10555556","longitude":"125.69444444"},{"name":"Managa","latitude":"6.74611111","longitude":"125.26805556"},{"name":"Manaloal","latitude":"7.36611111","longitude":"125.66027778"},{"name":"Manat","latitude":"7.53277778","longitude":"126.01722222"},{"name":"Manay","latitude":"7.21666667","longitude":"126.53333333"},{"name":"Mangili","latitude":"6.00333333","longitude":"125.68388889"},{"name":"Manikling","latitude":"6.87916667","longitude":"126.06055556"},{"name":"Matanao","latitude":"6.75000000","longitude":"125.23333333"},{"name":"Mati","latitude":"6.95000000","longitude":"126.23333333"},{"name":"Matiao","latitude":"7.08277778","longitude":"125.93611111"},{"name":"Matti","latitude":"6.77055556","longitude":"125.30861111"},{"name":"Mawab","latitude":"7.50000000","longitude":"125.93333333"},{"name":"Mayo","latitude":"7.00222222","longitude":"126.33194444"},{"name":"Monkayo","latitude":"7.81528000","longitude":"126.05444000"},{"name":"Montevista","latitude":"7.70000000","longitude":"125.98333333"},{"name":"Nabunturan","latitude":"7.58333000","longitude":"126.01667000"},{"name":"Nangan","latitude":"6.47277778","longitude":"126.12444444"},{"name":"Nanyo","latitude":"7.33305556","longitude":"125.63777778"},{"name":"New Baclayon","latitude":"6.58416667","longitude":"125.36944444"},{"name":"New Bataan","latitude":"7.53333333","longitude":"126.13333333"},{"name":"New Bohol","latitude":"7.52333333","longitude":"125.83638889"},{"name":"New Corella","latitude":"7.58660000","longitude":"125.82370000"},{"name":"New Leyte","latitude":"7.50000000","longitude":"125.75000000"},{"name":"New Sibonga","latitude":"7.56083333","longitude":"125.92972222"},{"name":"New Visayas","latitude":"7.52333333","longitude":"125.62333333"},{"name":"Nuing","latitude":"5.63277778","longitude":"125.43527778"},{"name":"Padada","latitude":"6.63333333","longitude":"125.35000000"},{"name":"Pag-asa","latitude":"7.57555556","longitude":"125.68388889"},{"name":"Pagsabangan","latitude":"7.48111111","longitude":"125.74944444"},{"name":"Palma Gil","latitude":"7.64222222","longitude":"125.62916667"},{"name":"Panabo","latitude":"7.30805556","longitude":"125.68416667"},{"name":"Pandasan","latitude":"7.28388889","longitude":"125.85361111"},{"name":"Pangian","latitude":"6.46277778","longitude":"125.54527778"},{"name":"Panikian","latitude":"7.01083333","longitude":"126.02416667"},{"name":"Pantukan","latitude":"7.15000000","longitude":"125.95000000"},{"name":"Pasian","latitude":"7.92805556","longitude":"126.06722222"},{"name":"Pondaguitan","latitude":"6.36111111","longitude":"126.17777778"},{"name":"Pung-Pang","latitude":"6.49750000","longitude":"125.46333333"},{"name":"Samal","latitude":"7.07444000","longitude":"125.70833000"},{"name":"Sampao","latitude":"7.59388889","longitude":"125.66111111"},{"name":"San Alfonso","latitude":"7.78027778","longitude":"126.42027778"},{"name":"San Antonio","latitude":"7.12000000","longitude":"125.73972222"},{"name":"San Ignacio","latitude":"7.11888889","longitude":"126.48833333"},{"name":"San Isidro","latitude":"6.76667000","longitude":"126.13333000"},{"name":"San Luis","latitude":"7.44138889","longitude":"126.55111111"},{"name":"San Mariano","latitude":"7.33819000","longitude":"126.16464000"},{"name":"San Miguel","latitude":"7.48500000","longitude":"125.67638889"},{"name":"San Pedro","latitude":"7.34194444","longitude":"126.51750000"},{"name":"San Rafael","latitude":"7.76388889","longitude":"126.45583333"},{"name":"San Remigio","latitude":"6.92305556","longitude":"125.77583333"},{"name":"San Vicente","latitude":"7.86667000","longitude":"125.83333000"},{"name":"Santa Cruz","latitude":"6.83333333","longitude":"125.41666667"},{"name":"Santa Maria","latitude":"6.55361111","longitude":"125.47083333"},{"name":"Santiago","latitude":"7.28888889","longitude":"126.57333333"},{"name":"Santo Niño","latitude":"7.62361111","longitude":"125.62527778"},{"name":"Santo Tomas","latitude":"7.51667000","longitude":"125.60000000"},{"name":"Sarangani","latitude":"5.40000000","longitude":"125.46666667"},{"name":"Sibulan","latitude":"6.93361111","longitude":"125.46222222"},{"name":"Sigaboy","latitude":"6.65416667","longitude":"126.07277778"},{"name":"Simod","latitude":"7.47583333","longitude":"125.34083333"},{"name":"Sinawilan","latitude":"6.75444444","longitude":"125.24638889"},{"name":"Sinayawan","latitude":"6.71250000","longitude":"125.30944444"},{"name":"Sirib","latitude":"7.13333333","longitude":"125.40722222"},{"name":"Sugal","latitude":"5.66222222","longitude":"125.46166667"},{"name":"Sulop","latitude":"6.59861000","longitude":"125.34361000"},{"name":"Surup","latitude":"6.39027778","longitude":"126.14555556"},{"name":"Suz-on","latitude":"7.66277778","longitude":"125.63833333"},{"name":"Tagakpan","latitude":"7.11277778","longitude":"125.42916667"},{"name":"Tagdanua","latitude":"7.20416667","longitude":"125.88416667"},{"name":"Tagnanan","latitude":"7.28361111","longitude":"125.84222222"},{"name":"Tagum","latitude":"7.44750000","longitude":"125.80460000"},{"name":"Takub","latitude":"6.85638889","longitude":"125.42250000"},{"name":"Talagutong","latitude":"6.26444444","longitude":"125.66777778"},{"name":"Talisay","latitude":"6.71972222","longitude":"126.10000000"},{"name":"Talomo","latitude":"7.52861111","longitude":"125.72277778"},{"name":"Tamayong","latitude":"7.13305556","longitude":"125.37972222"},{"name":"Tambo","latitude":"7.15694444","longitude":"125.69916667"},{"name":"Tamisan","latitude":"6.84361111","longitude":"126.29833333"},{"name":"Tamugan","latitude":"7.23083333","longitude":"125.37638889"},{"name":"Tanlad","latitude":"6.60222222","longitude":"125.44500000"},{"name":"Tapia","latitude":"7.75416667","longitude":"126.01194444"},{"name":"Tarragona","latitude":"7.04910000","longitude":"126.44708000"},{"name":"Tawan tawan","latitude":"7.16916667","longitude":"125.37277778"},{"name":"Taytayan","latitude":"7.73388889","longitude":"126.50194444"},{"name":"Tibagon","latitude":"7.23277778","longitude":"125.86277778"},{"name":"Tibanbang","latitude":"6.63166667","longitude":"126.10555556"},{"name":"Tiblawan","latitude":"6.47833333","longitude":"126.10833333"},{"name":"Tombongon","latitude":"7.07916667","longitude":"125.94861111"},{"name":"Tubalan","latitude":"6.49500000","longitude":"125.56611111"},{"name":"Tuban","latitude":"6.82277778","longitude":"125.38694444"},{"name":"Tubod","latitude":"7.37166667","longitude":"125.64472222"},{"name":"Tuganay","latitude":"7.36888889","longitude":"125.72305556"},{"name":"Tuli","latitude":"7.23333333","longitude":"125.41666667"},{"name":"Ula","latitude":"7.13222222","longitude":"125.49222222"},{"name":"Wañgan","latitude":"7.15972222","longitude":"125.44527778"},{"name":"Wines","latitude":"7.19388889","longitude":"125.38916667"}]