[{"name":"Abramów","latitude":"51.45647000","longitude":"22.31521000"},{"name":"Adamów","latitude":"51.74335000","longitude":"22.26414000"},{"name":"Aleksandrów","latitude":"50.46630000","longitude":"22.89225000"},{"name":"Annopol","latitude":"50.88551000","longitude":"21.85678000"},{"name":"Baranów","latitude":"51.55786000","longitude":"22.13625000"},{"name":"Batorz","latitude":"50.85050000","longitude":"22.49313000"},{"name":"Bełżec","latitude":"50.38453000","longitude":"23.43839000"},{"name":"Bełżyce","latitude":"51.17415000","longitude":"22.28027000"},{"name":"Biała Podlaska","latitude":"52.03238000","longitude":"23.11652000"},{"name":"Biszcza","latitude":"50.40146000","longitude":"22.65063000"},{"name":"Biłgoraj","latitude":"50.54114000","longitude":"22.72204000"},{"name":"Borki","latitude":"51.72161000","longitude":"22.52129000"},{"name":"Borzechów","latitude":"51.09258000","longitude":"22.28414000"},{"name":"Bychawa","latitude":"51.01608000","longitude":"22.53296000"},{"name":"Chełm","latitude":"51.14312000","longitude":"23.47160000"},{"name":"Chodel","latitude":"51.11177000","longitude":"22.13269000"},{"name":"Chrzanów","latitude":"50.77256000","longitude":"22.60351000"},{"name":"Cyców","latitude":"51.29928000","longitude":"23.14124000"},{"name":"Czemierniki","latitude":"51.67298000","longitude":"22.63887000"},{"name":"Dorohusk","latitude":"51.15475000","longitude":"23.80325000"},{"name":"Dołhobyczów","latitude":"50.58591000","longitude":"24.03594000"},{"name":"Drelów","latitude":"51.91219000","longitude":"22.87165000"},{"name":"Dubienka","latitude":"51.04862000","longitude":"23.89252000"},{"name":"Dzwola","latitude":"50.69657000","longitude":"22.56729000"},{"name":"Dęblin","latitude":"51.55912000","longitude":"21.84829000"},{"name":"Dębowa Kłoda","latitude":"51.59446000","longitude":"23.00640000"},{"name":"Fajsławice","latitude":"51.09592000","longitude":"22.96323000"},{"name":"Firlej","latitude":"51.55882000","longitude":"22.50841000"},{"name":"Frampol","latitude":"50.67159000","longitude":"22.67061000"},{"name":"Garbów","latitude":"51.35517000","longitude":"22.32937000"},{"name":"Godziszów","latitude":"50.74889000","longitude":"22.49794000"},{"name":"Godziszów Pierwszy","latitude":"50.75753000","longitude":"22.48386000"},{"name":"Goraj","latitude":"50.72184000","longitude":"22.66651000"},{"name":"Gorzków","latitude":"50.94778000","longitude":"23.01267000"},{"name":"Gościeradów","latitude":"50.86859000","longitude":"22.00536000"},{"name":"Grabowiec","latitude":"50.82090000","longitude":"23.55057000"},{"name":"Hańsk","latitude":"51.41286000","longitude":"23.39942000"},{"name":"Horodło","latitude":"50.89459000","longitude":"24.03723000"},{"name":"Hrubieszów","latitude":"50.80502000","longitude":"23.89251000"},{"name":"Izbica","latitude":"50.88728000","longitude":"23.15248000"},{"name":"Jabłonna","latitude":"51.08875000","longitude":"22.59364000"},{"name":"Jabłoń","latitude":"51.72501000","longitude":"23.08743000"},{"name":"Jakubowice Murowane","latitude":"51.26992000","longitude":"22.63415000"},{"name":"Janowiec","latitude":"51.32359000","longitude":"21.88940000"},{"name":"Janów Lubelski","latitude":"50.70695000","longitude":"22.41039000"},{"name":"Janów Podlaski","latitude":"52.19398000","longitude":"23.21218000"},{"name":"Jarczów","latitude":"50.42438000","longitude":"23.58576000"},{"name":"Jastków","latitude":"51.30411000","longitude":"22.43546000"},{"name":"Jeziorzany","latitude":"51.60245000","longitude":"22.27667000"},{"name":"Józefów","latitude":"50.48119000","longitude":"23.05404000"},{"name":"Józefów nad Wisłą","latitude":"51.04183000","longitude":"21.83018000"},{"name":"Kamionka","latitude":"51.47165000","longitude":"22.46275000"},{"name":"Karczmiska","latitude":"51.22952000","longitude":"21.98158000"},{"name":"Kazimierz Dolny","latitude":"51.31911000","longitude":"21.95502000"},{"name":"Kock","latitude":"51.63997000","longitude":"22.44391000"},{"name":"Kodeń","latitude":"51.91171000","longitude":"23.60301000"},{"name":"Komarów-Osada","latitude":"50.62888000","longitude":"23.47740000"},{"name":"Komarówka Podlaska","latitude":"51.80315000","longitude":"22.94392000"},{"name":"Konstantynów","latitude":"52.20746000","longitude":"23.08530000"},{"name":"Kozubszczyzna","latitude":"51.22323000","longitude":"22.42747000"},{"name":"Końskowola","latitude":"51.40922000","longitude":"22.05175000"},{"name":"Krasnobród","latitude":"50.54551000","longitude":"23.21308000"},{"name":"Krasnystaw","latitude":"50.98464000","longitude":"23.17420000"},{"name":"Kraśniczyn","latitude":"50.93171000","longitude":"23.34929000"},{"name":"Kraśnik","latitude":"50.92360000","longitude":"22.22706000"},{"name":"Krynice","latitude":"50.58760000","longitude":"23.38157000"},{"name":"Krzczonów","latitude":"51.00727000","longitude":"22.71097000"},{"name":"Krzywda","latitude":"51.79519000","longitude":"22.19994000"},{"name":"Księżomierz","latitude":"50.90855000","longitude":"21.98965000"},{"name":"Księżpol","latitude":"50.42323000","longitude":"22.73526000"},{"name":"Kurów","latitude":"51.38941000","longitude":"22.18637000"},{"name":"Kłoczew","latitude":"51.72134000","longitude":"21.96493000"},{"name":"Leśna Podlaska","latitude":"52.13317000","longitude":"23.02786000"},{"name":"Lubartów","latitude":"51.46026000","longitude":"22.60952000"},{"name":"Lublin","latitude":"51.25000000","longitude":"22.56667000"},{"name":"Lubycza Królewska","latitude":"50.34102000","longitude":"23.51941000"},{"name":"Ludwin","latitude":"51.34605000","longitude":"22.90581000"},{"name":"Markuszów","latitude":"51.37457000","longitude":"22.25804000"},{"name":"Mełgiew","latitude":"51.22519000","longitude":"22.78414000"},{"name":"Michałów","latitude":"50.54709000","longitude":"23.60361000"},{"name":"Michów","latitude":"51.52573000","longitude":"22.31435000"},{"name":"Milanów","latitude":"51.70374000","longitude":"22.88830000"},{"name":"Milejów","latitude":"51.23226000","longitude":"22.92443000"},{"name":"Mircze","latitude":"50.65164000","longitude":"23.89604000"},{"name":"Miączyn","latitude":"50.73825000","longitude":"23.50130000"},{"name":"Międzyrzec Podlaski","latitude":"51.98640000","longitude":"22.78248000"},{"name":"Modliborzyce","latitude":"50.75416000","longitude":"22.32945000"},{"name":"Nałęczów","latitude":"51.28581000","longitude":"22.21539000"},{"name":"Niedrzwica Duża","latitude":"51.11462000","longitude":"22.38911000"},{"name":"Niedźwiada","latitude":"51.54409000","longitude":"22.69140000"},{"name":"Nielisz","latitude":"50.80067000","longitude":"23.04451000"},{"name":"Niemce","latitude":"51.36155000","longitude":"22.63939000"},{"name":"Nowodwór","latitude":"51.63901000","longitude":"22.10183000"},{"name":"Obsza","latitude":"50.31520000","longitude":"22.95688000"},{"name":"Opole Lubelskie","latitude":"51.14775000","longitude":"21.96897000"},{"name":"Ostrów Lubelski","latitude":"51.49416000","longitude":"22.85287000"},{"name":"Ostrówek","latitude":"51.58150000","longitude":"22.61227000"},{"name":"Parczew","latitude":"51.64021000","longitude":"22.90057000"},{"name":"Piaski","latitude":"51.13892000","longitude":"22.84856000"},{"name":"Piszczac","latitude":"51.98118000","longitude":"23.37719000"},{"name":"Podedwórze","latitude":"51.68815000","longitude":"23.19961000"},{"name":"Pokrówka","latitude":"51.09479000","longitude":"23.46345000"},{"name":"Poniatowa","latitude":"51.17983000","longitude":"22.13093000"},{"name":"Potok Górny","latitude":"50.38477000","longitude":"22.56188000"},{"name":"Potok Wielki","latitude":"50.79150000","longitude":"22.21642000"},{"name":"Powiat bialski","latitude":"51.97222000","longitude":"23.15328000"},{"name":"Powiat biłgorajski","latitude":"50.58582000","longitude":"22.79513000"},{"name":"Powiat chełmski","latitude":"51.15092000","longitude":"23.38165000"},{"name":"Powiat hrubieszowski","latitude":"50.70776000","longitude":"23.86307000"},{"name":"Powiat janowski","latitude":"50.74558000","longitude":"22.41147000"},{"name":"Powiat krasnostawski","latitude":"50.98486000","longitude":"23.17514000"},{"name":"Powiat kraśnicki","latitude":"50.91535000","longitude":"22.14576000"},{"name":"Powiat lubartowski","latitude":"51.53497000","longitude":"22.60585000"},{"name":"Powiat lubelski","latitude":"51.13419000","longitude":"22.46654000"},{"name":"Powiat opolski","latitude":"51.12904000","longitude":"22.00944000"},{"name":"Powiat parczewski","latitude":"51.59982000","longitude":"22.99629000"},{"name":"Powiat puławski","latitude":"51.41853000","longitude":"22.03752000"},{"name":"Powiat radzyński","latitude":"51.78255000","longitude":"22.70758000"},{"name":"Powiat rycki","latitude":"51.66219000","longitude":"21.92929000"},{"name":"Powiat tomaszowski","latitude":"50.47825000","longitude":"23.52083000"},{"name":"Powiat włodawski","latitude":"51.52267000","longitude":"23.38279000"},{"name":"Powiat zamojski","latitude":"50.69160000","longitude":"23.21261000"},{"name":"Powiat łukowski","latitude":"51.85365000","longitude":"22.24035000"},{"name":"Powiat łęczyński","latitude":"51.30429000","longitude":"22.96701000"},{"name":"Powiat świdnicki","latitude":"51.12470000","longitude":"22.85397000"},{"name":"Przytoczno","latitude":"51.61951000","longitude":"22.27135000"},{"name":"Puchaczów","latitude":"51.31050000","longitude":"22.97370000"},{"name":"Puławy","latitude":"51.41655000","longitude":"21.96939000"},{"name":"Rachanie","latitude":"50.53842000","longitude":"23.54688000"},{"name":"Radecznica","latitude":"50.75155000","longitude":"22.82976000"},{"name":"Radzyń Podlaski","latitude":"51.78333000","longitude":"22.61667000"},{"name":"Rejowiec","latitude":"51.09134000","longitude":"23.28192000"},{"name":"Rejowiec Fabryczny","latitude":"51.11414000","longitude":"23.24724000"},{"name":"Rogóźno","latitude":"50.46417000","longitude":"23.39041000"},{"name":"Rokitno","latitude":"52.12142000","longitude":"23.29514000"},{"name":"Ruda-Huta","latitude":"51.23666000","longitude":"23.59486000"},{"name":"Rudnik","latitude":"50.88035000","longitude":"22.97293000"},{"name":"Rybczewice","latitude":"51.02876000","longitude":"22.85053000"},{"name":"Ryki","latitude":"51.62574000","longitude":"21.93274000"},{"name":"Rzeczyca","latitude":"51.96225000","longitude":"22.74942000"},{"name":"Sawin","latitude":"51.27443000","longitude":"23.43375000"},{"name":"Serniki","latitude":"51.43716000","longitude":"22.65853000"},{"name":"Serokomla","latitude":"51.70070000","longitude":"22.33237000"},{"name":"Siemień","latitude":"51.62883000","longitude":"22.77243000"},{"name":"Siennica Różana","latitude":"51.00123000","longitude":"23.32260000"},{"name":"Sitno","latitude":"50.74944000","longitude":"23.36260000"},{"name":"Skierbieszów","latitude":"50.85158000","longitude":"23.35917000"},{"name":"Sosnowica","latitude":"51.52065000","longitude":"23.09215000"},{"name":"Sosnówka","latitude":"51.75084000","longitude":"23.33814000"},{"name":"Spiczyn","latitude":"51.34128000","longitude":"22.75354000"},{"name":"Stary Zamość","latitude":"50.82004000","longitude":"23.17154000"},{"name":"Stoczek Łukowski","latitude":"51.96135000","longitude":"21.97137000"},{"name":"Strzyżowice","latitude":"51.04830000","longitude":"22.44018000"},{"name":"Stężyca","latitude":"51.58187000","longitude":"21.77087000"},{"name":"Susiec","latitude":"50.41973000","longitude":"23.19626000"},{"name":"Sułów","latitude":"50.90661000","longitude":"22.36061000"},{"name":"Szastarka","latitude":"50.85527000","longitude":"22.31971000"},{"name":"Szczebrzeszyn","latitude":"50.69499000","longitude":"22.97954000"},{"name":"Sławatycze","latitude":"51.76338000","longitude":"23.55460000"},{"name":"Tarnawatka","latitude":"50.53154000","longitude":"23.39590000"},{"name":"Tarnogród","latitude":"50.36090000","longitude":"22.74174000"},{"name":"Telatyn","latitude":"50.52712000","longitude":"23.83956000"},{"name":"Terespol","latitude":"52.07550000","longitude":"23.61614000"},{"name":"Tereszpol","latitude":"50.58373000","longitude":"22.87980000"},{"name":"Tomaszów Lubelski","latitude":"50.44767000","longitude":"23.41616000"},{"name":"Trawniki","latitude":"51.13633000","longitude":"22.99816000"},{"name":"Trzebieszów","latitude":"51.99006000","longitude":"22.55502000"},{"name":"Trzydnik Duży","latitude":"50.84887000","longitude":"22.13359000"},{"name":"Turobin","latitude":"50.82367000","longitude":"22.74273000"},{"name":"Tyszowce","latitude":"50.61699000","longitude":"23.69927000"},{"name":"Ulhówek","latitude":"50.44969000","longitude":"23.79956000"},{"name":"Urszulin","latitude":"51.39390000","longitude":"23.19480000"},{"name":"Urzędów","latitude":"50.99323000","longitude":"22.14260000"},{"name":"Ułęż","latitude":"51.59195000","longitude":"22.10741000"},{"name":"Uścimów Stary","latitude":"51.46962000","longitude":"22.95516000"},{"name":"Werbkowice","latitude":"50.75373000","longitude":"23.76411000"},{"name":"Wilkołaz","latitude":"51.01473000","longitude":"22.35014000"},{"name":"Wilków","latitude":"51.26224000","longitude":"21.87756000"},{"name":"Wisznice","latitude":"51.78924000","longitude":"23.20836000"},{"name":"Wohyń","latitude":"51.75642000","longitude":"22.78582000"},{"name":"Wojciechów","latitude":"51.23543000","longitude":"22.24551000"},{"name":"Wojcieszków","latitude":"51.76922000","longitude":"22.31589000"},{"name":"Wojsławice","latitude":"50.91916000","longitude":"23.54602000"},{"name":"Wola Sernicka","latitude":"51.44978000","longitude":"22.68351000"},{"name":"Wola Uhruska","latitude":"51.32139000","longitude":"23.62627000"},{"name":"Wysokie","latitude":"50.91093000","longitude":"22.66600000"},{"name":"Wąwolnica","latitude":"51.29467000","longitude":"22.14681000"},{"name":"Włodawa","latitude":"51.55000000","longitude":"23.55000000"},{"name":"Zakrzew","latitude":"50.89004000","longitude":"22.59115000"},{"name":"Zakrzówek","latitude":"50.95124000","longitude":"22.38138000"},{"name":"Zamch","latitude":"50.31713000","longitude":"23.02786000"},{"name":"Zamość","latitude":"50.72314000","longitude":"23.25196000"},{"name":"Zwierzyniec","latitude":"50.61400000","longitude":"22.97512000"},{"name":"Łabunie","latitude":"50.65517000","longitude":"23.36620000"},{"name":"Łaszczów","latitude":"50.53332000","longitude":"23.72562000"},{"name":"Łaziska","latitude":"51.14226000","longitude":"21.87919000"},{"name":"Łomazy","latitude":"51.90435000","longitude":"23.17656000"},{"name":"Łopiennik Górny","latitude":"51.04080000","longitude":"23.01833000"},{"name":"Łukowa","latitude":"50.37426000","longitude":"22.94349000"},{"name":"Łuków","latitude":"51.92900000","longitude":"22.37956000"},{"name":"Łęczna","latitude":"51.30121000","longitude":"22.88135000"},{"name":"Świdnik","latitude":"51.21898000","longitude":"22.69621000"},{"name":"Żyrzyn","latitude":"51.49918000","longitude":"22.09170000"},{"name":"Żółkiewka","latitude":"50.90991000","longitude":"22.83465000"}]