[{"name":"Ilinden","latitude":"41.99451000","longitude":"21.58002000"},{"name":"Kadino","latitude":"41.96889000","longitude":"21.60139000"},{"name":"Marino","latitude":"41.98776000","longitude":"21.59148000"},{"name":"Miladinovci","latitude":"41.98029000","longitude":"21.64982000"},{"name":"Јурумлери","latitude":"41.96722000","longitude":"21.55694000"},{"name":"Идризово","latitude":"41.96083000","longitude":"21.57556000"}]