[{"name":"Buseresere","latitude":"-3.02361000","longitude":"31.87472000"},{"name":"Chato","latitude":"-2.63778000","longitude":"31.76694000"},{"name":"Geita","latitude":"-2.87250000","longitude":"32.23250000"},{"name":"Kasamwa","latitude":"-2.85000000","longitude":"32.43333000"},{"name":"Katoro","latitude":"-3.02028000","longitude":"31.89583000"},{"name":"Masumbwe","latitude":"-3.63333000","longitude":"32.18333000"},{"name":"Ushirombo","latitude":"-3.49194000","longitude":"31.96389000"},{"name":"Uyovu","latitude":"-3.28333000","longitude":"31.52583000"}]