[{"name":"Akyaka","latitude":"40.74093000","longitude":"43.61432000"},{"name":"Arpaçay","latitude":"40.84522000","longitude":"43.32747000"},{"name":"Digor İlçesi","latitude":"40.37515000","longitude":"43.41361000"},{"name":"Kars","latitude":"40.59825000","longitude":"43.08548000"},{"name":"Kağızman","latitude":"40.15669000","longitude":"43.13424000"},{"name":"Sarıkamış","latitude":"40.32769000","longitude":"42.58705000"},{"name":"Selim","latitude":"40.45772000","longitude":"42.78287000"},{"name":"Susuz","latitude":"40.77910000","longitude":"43.12769000"}]