[{"name":"Kakonko","latitude":"-3.28278000","longitude":"30.96417000"},{"name":"Kasulu","latitude":"-4.57667000","longitude":"30.10250000"},{"name":"Kibondo","latitude":"-3.58639000","longitude":"30.72028000"},{"name":"Kigoma","latitude":"-4.87694000","longitude":"29.62667000"},{"name":"Mabamba","latitude":"-3.59833000","longitude":"30.50194000"},{"name":"Mwandiga","latitude":"-4.83000000","longitude":"29.65806000"},{"name":"Nguruka","latitude":"-5.10917000","longitude":"31.04194000"},{"name":"Uvinza","latitude":"-5.10361000","longitude":"30.39111000"}]