[{"name":"Aykino","latitude":"62.22481000","longitude":"49.99222000"},{"name":"Blagoyevo","latitude":"63.42310000","longitude":"47.96460000"},{"name":"Borovoy","latitude":"63.23005000","longitude":"52.89031000"},{"name":"Ezhva","latitude":"61.81281000","longitude":"50.72834000"},{"name":"Inta","latitude":"66.03169000","longitude":"60.16594000"},{"name":"Izhma","latitude":"65.00833000","longitude":"53.91128000"},{"name":"Knyazhpogostskiy Rayon","latitude":"62.58333000","longitude":"50.91667000"},{"name":"Kortkeros","latitude":"61.81056000","longitude":"51.58056000"},{"name":"Koslan","latitude":"63.45641000","longitude":"48.89891000"},{"name":"Koygorodok","latitude":"60.44498000","longitude":"50.99680000"},{"name":"Koygorodskiy Rayon","latitude":"60.41667000","longitude":"51.00000000"},{"name":"Kozhva","latitude":"65.10727000","longitude":"57.04590000"},{"name":"Letka","latitude":"59.60111000","longitude":"49.42321000"},{"name":"Mezhdurechensk","latitude":"63.24556000","longitude":"48.55333000"},{"name":"Mikun’","latitude":"62.35472000","longitude":"50.07714000"},{"name":"Mordino","latitude":"61.35327000","longitude":"51.89574000"},{"name":"Nizhniy Odes","latitude":"63.64451000","longitude":"54.85598000"},{"name":"Parma","latitude":"66.00000000","longitude":"57.70000000"},{"name":"Pechora","latitude":"65.14717000","longitude":"57.22439000"},{"name":"Priluzskiy Rayon","latitude":"60.33333000","longitude":"49.33333000"},{"name":"Promyshlennyy","latitude":"67.58333000","longitude":"63.91667000"},{"name":"Puteyets","latitude":"65.17157000","longitude":"57.09101000"},{"name":"Sedkyrkeshch","latitude":"61.75000000","longitude":"50.91667000"},{"name":"Shudayag","latitude":"63.52665000","longitude":"53.60582000"},{"name":"Sindor","latitude":"62.86286000","longitude":"51.89051000"},{"name":"Sosnogorsk","latitude":"63.60229000","longitude":"53.88175000"},{"name":"Sovetskiy","latitude":"67.48333000","longitude":"64.41667000"},{"name":"Syktyvkar","latitude":"61.66400000","longitude":"50.81500000"},{"name":"Synya","latitude":"65.37185000","longitude":"58.03874000"},{"name":"Troitsko-Pechorsk","latitude":"62.70836000","longitude":"56.19643000"},{"name":"Troitsko-Pechorskiy Rayon","latitude":"62.66667000","longitude":"56.25000000"},{"name":"Tsementnozavodskiy","latitude":"67.62834000","longitude":"64.08965000"},{"name":"Ukhta","latitude":"63.56705000","longitude":"53.68348000"},{"name":"Usinsk","latitude":"65.99389000","longitude":"57.52806000"},{"name":"Usogorsk","latitude":"63.41064000","longitude":"48.68722000"},{"name":"Ust-Tsilma","latitude":"65.44104000","longitude":"52.14978000"},{"name":"Ust’-Kulom","latitude":"61.68636000","longitude":"53.69020000"},{"name":"Ust’-Tsilemskiy Rayon","latitude":"65.41667000","longitude":"52.16667000"},{"name":"Verkhnyaya Inta","latitude":"65.98115000","longitude":"60.30945000"},{"name":"Verkhnyaya Maksakovka","latitude":"61.63504000","longitude":"50.96740000"},{"name":"Vizinga","latitude":"61.07493000","longitude":"50.10311000"},{"name":"Vodnyy","latitude":"63.50464000","longitude":"53.40947000"},{"name":"Vorgashor","latitude":"67.58355000","longitude":"63.79399000"},{"name":"Vorkuta","latitude":"67.49884000","longitude":"64.05253000"},{"name":"Voyvozh","latitude":"62.89198000","longitude":"54.96346000"},{"name":"Vuktyl","latitude":"63.85667000","longitude":"57.30944000"},{"name":"Yarega","latitude":"63.43543000","longitude":"53.57650000"},{"name":"Yemva","latitude":"62.58999000","longitude":"50.85939000"},{"name":"Zapolyarnyy","latitude":"67.49552000","longitude":"63.73275000"},{"name":"Zelenets","latitude":"61.88485000","longitude":"50.74892000"},{"name":"Zheshart","latitude":"62.07314000","longitude":"49.57335000"}]