[{"name":"Adalan","latitude":"40.87590000","longitude":"29.08940000"},{"name":"Adalar","latitude":"40.86913000","longitude":"29.12064000"},{"name":"Arnavutköy","latitude":"41.19674000","longitude":"28.73405000"},{"name":"Arıköy","latitude":"41.23044000","longitude":"29.00425000"},{"name":"Ataşehir","latitude":"40.99104000","longitude":"29.13471000"},{"name":"Avcılar","latitude":"41.02355000","longitude":"28.71860000"},{"name":"Ağva","latitude":"41.13806000","longitude":"29.85667000"},{"name":"Bahçelievler","latitude":"41.00652000","longitude":"28.84099000"},{"name":"Bakırköy","latitude":"40.98388000","longitude":"28.83541000"},{"name":"Bayrampaşa","latitude":"41.04691000","longitude":"28.90278000"},{"name":"Bağcılar","latitude":"41.04275000","longitude":"28.83625000"},{"name":"Başakşehir","latitude":"41.09203000","longitude":"28.80203000"},{"name":"Beykoz","latitude":"41.13774000","longitude":"29.16932000"},{"name":"Beylikdüzü","latitude":"41.00322000","longitude":"28.64067000"},{"name":"Beyoğlu","latitude":"41.03786000","longitude":"28.96767000"},{"name":"Beşiktaş","latitude":"41.07122000","longitude":"29.02321000"},{"name":"Boyalık","latitude":"41.26337000","longitude":"28.63142000"},{"name":"Büyükçavuşlu","latitude":"41.24002000","longitude":"28.06331000"},{"name":"Büyükçekmece","latitude":"41.04521000","longitude":"28.59573000"},{"name":"Celâliye","latitude":"41.05188000","longitude":"28.41867000"},{"name":"Durusu","latitude":"41.30337000","longitude":"28.67635000"},{"name":"Eminönü","latitude":"41.01766000","longitude":"28.97438000"},{"name":"Esenler","latitude":"41.07925000","longitude":"28.85235000"},{"name":"Esenyurt","latitude":"41.04000000","longitude":"28.66161000"},{"name":"Eyüpsultan","latitude":"41.19904000","longitude":"28.88667000"},{"name":"Fatih","latitude":"41.01746000","longitude":"28.94053000"},{"name":"Gaziosmanpaşa","latitude":"41.07857000","longitude":"28.89679000"},{"name":"Güngören","latitude":"41.01787000","longitude":"28.87882000"},{"name":"Gürpınar","latitude":"40.99256000","longitude":"28.61428000"},{"name":"Istanbul","latitude":"41.01384000","longitude":"28.94966000"},{"name":"Kadıköy","latitude":"40.98229000","longitude":"29.09032000"},{"name":"Karacaköy","latitude":"41.40338000","longitude":"28.38055000"},{"name":"Kartal","latitude":"40.91197000","longitude":"29.21190000"},{"name":"Kavaklı","latitude":"41.09258000","longitude":"28.33172000"},{"name":"Kumburgaz","latitude":"41.02108000","longitude":"28.48033000"},{"name":"Kâğıthane","latitude":"41.08319000","longitude":"28.97826000"},{"name":"Küçükçekmece","latitude":"41.06947000","longitude":"28.76983000"},{"name":"Kınalı","latitude":"40.90713000","longitude":"29.05499000"},{"name":"Maltepe","latitude":"40.95890000","longitude":"29.17866000"},{"name":"Merter Keresteciler","latitude":"41.01295000","longitude":"28.88593000"},{"name":"Mimarsinan","latitude":"41.01790000","longitude":"28.56176000"},{"name":"Muratbey","latitude":"41.09630000","longitude":"28.49227000"},{"name":"Ortaköy","latitude":"41.10154000","longitude":"28.37588000"},{"name":"Pendik","latitude":"40.94577000","longitude":"29.33019000"},{"name":"Sancaktepe","latitude":"40.98949000","longitude":"29.24320000"},{"name":"Sarıyer","latitude":"41.21482000","longitude":"29.05678000"},{"name":"Selimpaşa","latitude":"41.05448000","longitude":"28.36678000"},{"name":"Silivri","latitude":"41.18116000","longitude":"28.19890000"},{"name":"Sultanbeyli","latitude":"40.95264000","longitude":"29.26797000"},{"name":"Sultangazi","latitude":"41.21792000","longitude":"28.71740000"},{"name":"Tepecik","latitude":"41.02931000","longitude":"28.54978000"},{"name":"Tuzla","latitude":"40.86368000","longitude":"29.31942000"},{"name":"Umraniye","latitude":"41.01643000","longitude":"29.12476000"},{"name":"Yakuplu","latitude":"40.98894000","longitude":"28.67582000"},{"name":"Zeytinburnu","latitude":"41.00824000","longitude":"28.90952000"},{"name":"güngören merter","latitude":"41.00711000","longitude":"28.88795000"},{"name":"Çanta","latitude":"41.07897000","longitude":"28.08323000"},{"name":"Çatalca","latitude":"41.29651000","longitude":"28.45419000"},{"name":"Çekmeköy","latitude":"41.03819000","longitude":"29.20029000"},{"name":"Üsküdar","latitude":"41.02274000","longitude":"29.01366000"},{"name":"İçmeler","latitude":"40.84639000","longitude":"29.30889000"},{"name":"Şile","latitude":"41.12902000","longitude":"29.61845000"},{"name":"Şişli","latitude":"41.12514000","longitude":"29.00013000"}]