[{"name":"Cartagena","latitude":"-33.55384000","longitude":"-71.60761000"},{"name":"La Ligua","latitude":"-32.45242000","longitude":"-71.23106000"},{"name":"Limache","latitude":"-33.01667000","longitude":"-71.26667000"},{"name":"Llaillay","latitude":"-32.84043000","longitude":"-70.95623000"},{"name":"Los Andes","latitude":"-32.83369000","longitude":"-70.59827000"},{"name":"Isla de Pascua","latitude":"-27.11048000","longitude":"-109.29749000"},{"name":"Quillota","latitude":"-32.88341000","longitude":"-71.24882000"},{"name":"Quilpué","latitude":"-33.04752000","longitude":"-71.44249000"},{"name":"San Antonio","latitude":"-33.59473000","longitude":"-71.60746000"},{"name":"San Felipe","latitude":"-32.74976000","longitude":"-70.72584000"},{"name":"Valparaíso","latitude":"-33.03600000","longitude":"-71.62963000"},{"name":"Villa Alemana","latitude":"-33.04222000","longitude":"-71.37333000"},{"name":"Viña del Mar","latitude":"-33.02457000","longitude":"-71.55183000"},{"name":"Algarrobo","latitude":"-33.36925600","longitude":"-71.66813900"},{"name":"Cabildo","latitude":"-32.41737000","longitude":"-70.82435000"},{"name":"Calle Larga","latitude":"-32.85000000","longitude":"-70.63333333"},{"name":"Casablanca","latitude":"-33.31666667","longitude":"-71.41666667"},{"name":"Catemu","latitude":"-32.63333333","longitude":"-71.03333333"},{"name":"Concón","latitude":"-32.91666667","longitude":"-71.51666667"},{"name":"El Quisco","latitude":"-33.40000000","longitude":"-71.70000000"},{"name":"El Tabo","latitude":"-33.45000000","longitude":"-71.66666667"},{"name":"Hijuelas","latitude":"-32.80000000","longitude":"-71.16666667"},{"name":"Juan Fernández","latitude":"-30.02564270","longitude":"-82.05192080"},{"name":"Santo Domingo","latitude":"-33.64719330","longitude":"-71.63527900"},{"name":"La Calera","latitude":"-32.78333333","longitude":"-71.21666667"},{"name":"La Cruz","latitude":"-32.81666667","longitude":"-71.23333333"},{"name":"Nogales","latitude":"-32.71666667","longitude":"-71.23333333"},{"name":"Olmué","latitude":"-33.00000000","longitude":"-71.20000000"},{"name":"Panquehue","latitude":"-32.80000000","longitude":"-70.83333333"},{"name":"Papudo","latitude":"-32.51666667","longitude":"-71.45000000"},{"name":"Petorca","latitude":"-32.25000000","longitude":"-70.93333333"},{"name":"Puchuncaví","latitude":"-32.72575000","longitude":"-71.41514000"},{"name":"Putaendo","latitude":"-32.63333333","longitude":"-70.73333333"},{"name":"Quintero","latitude":"-32.78333333","longitude":"-71.53333333"},{"name":"Rinconada","latitude":"-32.83333333","longitude":"-70.70000000"},{"name":"San Esteban","latitude":"-32.80000000","longitude":"-70.58333333"},{"name":"Santa María","latitude":"-32.75000000","longitude":"-70.66666667"},{"name":"Zapallar","latitude":"-32.55390000","longitude":"-71.45770000"}]