[{"name":"Abbey","latitude":"-33.66364000","longitude":"115.25635000"},{"name":"Albany","latitude":"-34.70990000","longitude":"118.12345000"},{"name":"Albany city centre","latitude":"-35.02479000","longitude":"117.88472000"},{"name":"Alexander Heights","latitude":"-31.82758000","longitude":"115.86501000"},{"name":"Alfred Cove","latitude":"-32.03316000","longitude":"115.81259000"},{"name":"Alkimos","latitude":"-31.63039000","longitude":"115.68638000"},{"name":"Applecross","latitude":"-32.01667000","longitude":"115.83333000"},{"name":"Ardross","latitude":"-32.02696000","longitude":"115.83548000"},{"name":"Armadale","latitude":"-32.17887000","longitude":"116.12750000"},{"name":"Ascot","latitude":"-31.93818000","longitude":"115.92258000"},{"name":"Ashburton","latitude":"-22.27674000","longitude":"116.90057000"},{"name":"Ashby","latitude":"-31.73255000","longitude":"115.79768000"},{"name":"Ashfield","latitude":"-31.91721000","longitude":"115.93796000"},{"name":"Attadale","latitude":"-32.02489000","longitude":"115.80200000"},{"name":"Atwell","latitude":"-32.14346000","longitude":"115.86528000"},{"name":"Aubin Grove","latitude":"-32.16714000","longitude":"115.86264000"},{"name":"Augusta","latitude":"-34.31566000","longitude":"115.15922000"},{"name":"Augusta-Margaret River Shire","latitude":"-34.11520000","longitude":"115.32277000"},{"name":"Australind","latitude":"-33.27920000","longitude":"115.71504000"},{"name":"Aveley","latitude":"-31.78132000","longitude":"115.98959000"},{"name":"Bakers Hill","latitude":"-31.74692000","longitude":"116.45866000"},{"name":"Balcatta","latitude":"-31.87501000","longitude":"115.82839000"},{"name":"Baldivis","latitude":"-32.32889000","longitude":"115.83047000"},{"name":"Balga","latitude":"-31.85497000","longitude":"115.83986000"},{"name":"Ballajura","latitude":"-31.84062000","longitude":"115.89549000"},{"name":"Banjup","latitude":"-32.14179000","longitude":"115.88671000"},{"name":"Banksia Grove","latitude":"-31.69615000","longitude":"115.80501000"},{"name":"Bassendean","latitude":"-31.90584000","longitude":"115.94501000"},{"name":"Bateman","latitude":"-32.05547000","longitude":"115.84737000"},{"name":"Baynton","latitude":"-20.75164000","longitude":"116.80139000"},{"name":"Bayonet Head","latitude":"-34.97305000","longitude":"117.93446000"},{"name":"Bayswater","latitude":"-31.91181000","longitude":"115.90870000"},{"name":"Beachlands","latitude":"-28.78570000","longitude":"114.60192000"},{"name":"Beaconsfield","latitude":"-32.06748000","longitude":"115.76401000"},{"name":"Beckenham","latitude":"-32.02481000","longitude":"115.95989000"},{"name":"Bedford","latitude":"-31.91132000","longitude":"115.88920000"},{"name":"Bedfordale","latitude":"-32.17406000","longitude":"116.05040000"},{"name":"Beechboro","latitude":"-31.86515000","longitude":"115.93661000"},{"name":"Beeliar","latitude":"-32.13339000","longitude":"115.80637000"},{"name":"Beldon","latitude":"-31.77466000","longitude":"115.76270000"},{"name":"Bellevue","latitude":"-31.90116000","longitude":"116.02762000"},{"name":"Belmont","latitude":"-31.95458000","longitude":"115.94218000"},{"name":"Bennett Springs","latitude":"-31.85941000","longitude":"115.94512000"},{"name":"Bentley","latitude":"-32.00224000","longitude":"115.92473000"},{"name":"Beresford","latitude":"-28.75754000","longitude":"114.61965000"},{"name":"Bertram","latitude":"-32.24369000","longitude":"115.84572000"},{"name":"Beverley","latitude":"-32.10839000","longitude":"116.92736000"},{"name":"Bibra Lake","latitude":"-32.09764000","longitude":"115.81921000"},{"name":"Bicton","latitude":"-32.02778000","longitude":"115.78333000"},{"name":"Bilingurr","latitude":"-17.90909000","longitude":"122.22921000"},{"name":"Bindoon","latitude":"-31.38663000","longitude":"116.09664000"},{"name":"Binningup","latitude":"-33.14830000","longitude":"115.69519000"},{"name":"Bluff Point","latitude":"-28.73740000","longitude":"114.62278000"},{"name":"Boddington","latitude":"-32.79195000","longitude":"116.41883000"},{"name":"Booragoon","latitude":"-32.03945000","longitude":"115.83369000"},{"name":"Boulder","latitude":"-30.78204000","longitude":"121.49120000"},{"name":"Boyanup","latitude":"-33.48295000","longitude":"115.72838000"},{"name":"Boyup Brook","latitude":"-33.88555000","longitude":"116.51885000"},{"name":"Brabham","latitude":"-31.82728000","longitude":"115.97417000"},{"name":"Brentwood","latitude":"-32.04347000","longitude":"115.85246000"},{"name":"Bridgetown","latitude":"-33.96242000","longitude":"116.13598000"},{"name":"Bridgetown-Greenbushes","latitude":"-33.99234000","longitude":"116.22502000"},{"name":"Broadwater","latitude":"-33.66304000","longitude":"115.28420000"},{"name":"Brockman","latitude":"-24.88126000","longitude":"113.65365000"},{"name":"Brookdale","latitude":"-32.16696000","longitude":"116.00193000"},{"name":"Brookton","latitude":"-32.35533000","longitude":"116.99994000"},{"name":"Broome","latitude":"-17.94041000","longitude":"122.64038000"},{"name":"Broomehill-Tambellup","latitude":"-34.01320000","longitude":"117.65297000"},{"name":"Bruce Rock","latitude":"-31.96651000","longitude":"118.02385000"},{"name":"Brunswick","latitude":"-33.23240000","longitude":"115.86282000"},{"name":"Bulgarra","latitude":"-20.72584000","longitude":"116.85673000"},{"name":"Bull Creek","latitude":"-32.05625000","longitude":"115.86242000"},{"name":"Bullsbrook","latitude":"-31.66905000","longitude":"115.99990000"},{"name":"Bunbury","latitude":"-33.32711000","longitude":"115.64137000"},{"name":"Burns Beach","latitude":"-31.72060000","longitude":"115.72050000"},{"name":"Burswood","latitude":"-31.95872000","longitude":"115.90396000"},{"name":"Busselton","latitude":"-33.68477000","longitude":"115.37080000"},{"name":"Busselton city cenre","latitude":"-33.65078000","longitude":"115.34932000"},{"name":"Butler","latitude":"-31.64298000","longitude":"115.70431000"},{"name":"Byford","latitude":"-32.22099000","longitude":"116.00900000"},{"name":"Cable Beach","latitude":"-17.96098000","longitude":"122.21269000"},{"name":"Calista","latitude":"-32.24100000","longitude":"115.79763000"},{"name":"Cambridge","latitude":"-31.93542000","longitude":"115.79887000"},{"name":"Camillo","latitude":"-32.11292000","longitude":"116.00205000"},{"name":"Canning","latitude":"-32.04923000","longitude":"115.91943000"},{"name":"Canning Vale","latitude":"-32.05799000","longitude":"115.91814000"},{"name":"Cannington","latitude":"-32.01625000","longitude":"115.93648000"},{"name":"Capel","latitude":"-33.52704000","longitude":"115.61813000"},{"name":"Cardup","latitude":"-32.25802000","longitude":"115.98512000"},{"name":"Carey Park","latitude":"-33.34878000","longitude":"115.64930000"},{"name":"Carine","latitude":"-31.85230000","longitude":"115.78258000"},{"name":"Carlisle","latitude":"-31.97945000","longitude":"115.91808000"},{"name":"Carnamah","latitude":"-29.80411000","longitude":"115.59402000"},{"name":"Carnarvon","latitude":"-24.88258000","longitude":"113.65713000"},{"name":"Carramar","latitude":"-31.69023000","longitude":"115.77159000"},{"name":"Castletown","latitude":"-33.83237000","longitude":"121.91563000"},{"name":"Casuarina","latitude":"-32.24143000","longitude":"115.86980000"},{"name":"Caversham","latitude":"-31.88333000","longitude":"115.96667000"},{"name":"Champion Lakes","latitude":"-32.11913000","longitude":"115.98617000"},{"name":"Chapman Valley","latitude":"-28.27249000","longitude":"115.02794000"},{"name":"Chidlow","latitude":"-31.86094000","longitude":"116.27243000"},{"name":"Chittering","latitude":"-31.35829000","longitude":"116.05131000"},{"name":"Churchlands","latitude":"-31.92142000","longitude":"115.79322000"},{"name":"City Beach","latitude":"-31.93440000","longitude":"115.76174000"},{"name":"City of Cockburn","latitude":"-32.10264000","longitude":"115.84431000"},{"name":"City of Perth","latitude":"-31.94978000","longitude":"115.85383000"},{"name":"Claremont","latitude":"-31.98127000","longitude":"115.77942000"},{"name":"Clarkson","latitude":"-31.68282000","longitude":"115.72470000"},{"name":"Cloverdale","latitude":"-31.96281000","longitude":"115.94428000"},{"name":"Cockburn Central","latitude":"-32.12133000","longitude":"115.84776000"},{"name":"College Grove","latitude":"-33.37587000","longitude":"115.65906000"},{"name":"Collie","latitude":"-33.27353000","longitude":"116.16558000"},{"name":"Como","latitude":"-31.99119000","longitude":"115.86336000"},{"name":"Connolly","latitude":"-31.74864000","longitude":"115.75053000"},{"name":"Coodanup","latitude":"-32.55187000","longitude":"115.75352000"},{"name":"Coogee","latitude":"-32.11934000","longitude":"115.76650000"},{"name":"Coolbellup","latitude":"-32.08124000","longitude":"115.80606000"},{"name":"Coolbinia","latitude":"-31.91470000","longitude":"115.84894000"},{"name":"Coolgardie","latitude":"-31.01438000","longitude":"121.20462000"},{"name":"Cooloongup","latitude":"-32.31506000","longitude":"115.77772000"},{"name":"Coorow","latitude":"-29.97865000","longitude":"115.65613000"},{"name":"Corrigin","latitude":"-32.37599000","longitude":"117.81023000"},{"name":"Cottesloe","latitude":"-31.99905000","longitude":"115.76089000"},{"name":"Cowaramup","latitude":"-33.85036000","longitude":"115.10379000"},{"name":"Craigie","latitude":"-31.78727000","longitude":"115.76989000"},{"name":"Cranbrook","latitude":"-34.33414000","longitude":"117.32898000"},{"name":"Crawley","latitude":"-31.98418000","longitude":"115.81603000"},{"name":"Cuballing","latitude":"-32.74026000","longitude":"117.15497000"},{"name":"Cue","latitude":"-27.22633000","longitude":"118.00496000"},{"name":"Cunderdin","latitude":"-31.61259000","longitude":"117.11803000"},{"name":"Currambine","latitude":"-31.73306000","longitude":"115.74766000"},{"name":"Daglish","latitude":"-31.95177000","longitude":"115.80880000"},{"name":"Dalkeith","latitude":"-31.99517000","longitude":"115.79980000"},{"name":"Dalwallinu","latitude":"-30.12998000","longitude":"116.98401000"},{"name":"Dalyellup","latitude":"-33.40844000","longitude":"115.61506000"},{"name":"Dampier","latitude":"-20.66275000","longitude":"116.71256000"},{"name":"Dampier Peninsula","latitude":"-16.93241000","longitude":"122.86559000"},{"name":"Dandaragan","latitude":"-30.54142000","longitude":"115.46132000"},{"name":"Darch","latitude":"-31.81255000","longitude":"115.84580000"},{"name":"Dardanup","latitude":"-33.41611000","longitude":"115.87410000"},{"name":"Darling Downs","latitude":"-32.19442000","longitude":"115.99187000"},{"name":"Darlington","latitude":"-31.91906000","longitude":"116.08120000"},{"name":"Dawesville","latitude":"-32.63229000","longitude":"115.62904000"},{"name":"Dayton","latitude":"-31.85251000","longitude":"115.97494000"},{"name":"Denham","latitude":"-25.92679000","longitude":"113.53327000"},{"name":"Denmark","latitude":"-34.93473000","longitude":"117.37518000"},{"name":"Derby","latitude":"-17.30295000","longitude":"123.62864000"},{"name":"Derby-West Kimberley","latitude":"-17.50447000","longitude":"125.28014000"},{"name":"Dianella","latitude":"-31.88822000","longitude":"115.87186000"},{"name":"Djugun","latitude":"-17.95395000","longitude":"122.22792000"},{"name":"Dongara","latitude":"-29.25818000","longitude":"114.93276000"},{"name":"Donnybrook","latitude":"-33.57130000","longitude":"115.82446000"},{"name":"Donnybrook-Balingup","latitude":"-33.70217000","longitude":"115.97778000"},{"name":"Doubleview","latitude":"-31.89627000","longitude":"115.78155000"},{"name":"Dowerin","latitude":"-31.11328000","longitude":"117.10566000"},{"name":"Drummond Cove","latitude":"-28.67379000","longitude":"114.61280000"},{"name":"Dudley Park","latitude":"-32.55221000","longitude":"115.73100000"},{"name":"Dumbleyung Shire","latitude":"-33.21780000","longitude":"117.98750000"},{"name":"Duncraig","latitude":"-31.83291000","longitude":"115.77590000"},{"name":"Dundas","latitude":"-32.12502000","longitude":"124.50582000"},{"name":"Dunsborough","latitude":"-33.61476000","longitude":"115.10445000"},{"name":"East Bunbury","latitude":"-33.33619000","longitude":"115.66041000"},{"name":"East Cannington","latitude":"-32.00980000","longitude":"115.95503000"},{"name":"East Carnarvon","latitude":"-24.86397000","longitude":"113.67768000"},{"name":"East Fremantle","latitude":"-32.03654000","longitude":"115.76714000"},{"name":"East Perth","latitude":"-31.95872000","longitude":"115.87109000"},{"name":"East Pilbara","latitude":"-21.61331000","longitude":"123.71368000"},{"name":"East Victoria Park","latitude":"-31.98894000","longitude":"115.90388000"},{"name":"Eaton","latitude":"-33.31664000","longitude":"115.70503000"},{"name":"Eden Hill","latitude":"-31.88908000","longitude":"115.94675000"},{"name":"Edgewater","latitude":"-31.76547000","longitude":"115.78223000"},{"name":"Eglinton","latitude":"-31.58677000","longitude":"115.68878000"},{"name":"Ellenbrook","latitude":"-31.76737000","longitude":"115.96936000"},{"name":"Embleton","latitude":"-31.90355000","longitude":"115.90902000"},{"name":"Erskine","latitude":"-32.55717000","longitude":"115.70657000"},{"name":"Esperance","latitude":"-33.85919000","longitude":"121.89164000"},{"name":"Esperance Shire","latitude":"-33.51970000","longitude":"122.15586000"},{"name":"Exmouth","latitude":"-22.03643000","longitude":"114.04358000"},{"name":"Falcon","latitude":"-32.58244000","longitude":"115.66199000"},{"name":"Ferndale","latitude":"-32.03494000","longitude":"115.92233000"},{"name":"Fitzroy Crossing","latitude":"-18.19714000","longitude":"125.56663000"},{"name":"Floreat","latitude":"-31.93862000","longitude":"115.79211000"},{"name":"Forrestdale","latitude":"-32.15520000","longitude":"115.93417000"},{"name":"Forrestfield","latitude":"-31.98277000","longitude":"116.00673000"},{"name":"Fremantle","latitude":"-32.05165000","longitude":"115.76379000"},{"name":"Garden Island","latitude":"-32.24264000","longitude":"115.69505000"},{"name":"Gelorup","latitude":"-33.42425000","longitude":"115.64094000"},{"name":"Geographe","latitude":"-33.63974000","longitude":"115.38358000"},{"name":"Geraldton","latitude":"-28.77897000","longitude":"114.61459000"},{"name":"Geraldton city centre","latitude":"-28.77754000","longitude":"114.61494000"},{"name":"Gidgegannup","latitude":"-31.75441000","longitude":"116.18746000"},{"name":"Gingin","latitude":"-31.18435000","longitude":"115.65944000"},{"name":"Girrawheen","latitude":"-31.84103000","longitude":"115.83978000"},{"name":"Glen Forrest","latitude":"-31.91929000","longitude":"116.10726000"},{"name":"Glen Iris","latitude":"-33.33713000","longitude":"115.67430000"},{"name":"Glendalough","latitude":"-31.91991000","longitude":"115.81945000"},{"name":"Gnangara","latitude":"-31.77612000","longitude":"115.86623000"},{"name":"Gnowangerup","latitude":"-34.08658000","longitude":"118.29832000"},{"name":"Golden Bay","latitude":"-32.42505000","longitude":"115.76099000"},{"name":"Goomalling","latitude":"-31.23457000","longitude":"116.79142000"},{"name":"Gooseberry Hill","latitude":"-31.95444000","longitude":"116.04920000"},{"name":"Gosnells","latitude":"-32.06763000","longitude":"116.00203000"},{"name":"Grasmere","latitude":"-35.01806000","longitude":"117.75556000"},{"name":"Greenfields","latitude":"-32.52429000","longitude":"115.76315000"},{"name":"Greenmount","latitude":"-31.90072000","longitude":"116.04950000"},{"name":"Greenwood","latitude":"-31.82723000","longitude":"115.80247000"},{"name":"Guildford","latitude":"-31.90000000","longitude":"115.96667000"},{"name":"Gwelup","latitude":"-31.87163000","longitude":"115.79484000"},{"name":"Halls Creek","latitude":"-19.00069000","longitude":"127.45204000"},{"name":"Halls Head","latitude":"-32.54315000","longitude":"115.69665000"},{"name":"Hamersley","latitude":"-31.84898000","longitude":"115.80757000"},{"name":"Hamilton Hill","latitude":"-32.08451000","longitude":"115.77946000"},{"name":"Hammond Park","latitude":"-32.16853000","longitude":"115.85040000"},{"name":"Hannans","latitude":"-30.71909000","longitude":"121.45480000"},{"name":"Harrisdale","latitude":"-32.11084000","longitude":"115.93563000"},{"name":"Harvey","latitude":"-33.14976000","longitude":"115.93376000"},{"name":"Heathridge","latitude":"-31.76244000","longitude":"115.75895000"},{"name":"Helena Valley","latitude":"-31.91938000","longitude":"116.03982000"},{"name":"Henley Brook","latitude":"-31.81393000","longitude":"115.98807000"},{"name":"Herne Hill","latitude":"-31.82553000","longitude":"116.02270000"},{"name":"High Wycombe","latitude":"-31.94444000","longitude":"116.00340000"},{"name":"Highgate","latitude":"-31.93971000","longitude":"115.87015000"},{"name":"Hilbert","latitude":"-32.17818000","longitude":"115.98490000"},{"name":"Hillarys","latitude":"-31.80698000","longitude":"115.74045000"},{"name":"Hillman","latitude":"-32.28327000","longitude":"115.76364000"},{"name":"Hilton","latitude":"-32.06208000","longitude":"115.78049000"},{"name":"Hocking","latitude":"-31.77012000","longitude":"115.81832000"},{"name":"Huntingdale","latitude":"-32.08318000","longitude":"115.96614000"},{"name":"Iluka","latitude":"-31.73554000","longitude":"115.73058000"},{"name":"Inglewood","latitude":"-31.91663000","longitude":"115.87980000"},{"name":"Innaloo","latitude":"-31.89272000","longitude":"115.79508000"},{"name":"Irwin","latitude":"-29.34192000","longitude":"115.04561000"},{"name":"Jandakot","latitude":"-32.10158000","longitude":"115.87083000"},{"name":"Jane Brook","latitude":"-31.86368000","longitude":"116.05039000"},{"name":"Jarrahdale","latitude":"-32.33580000","longitude":"116.05951000"},{"name":"Jerramungup","latitude":"-34.03050000","longitude":"119.11369000"},{"name":"Jindalee","latitude":"-31.64938000","longitude":"115.69496000"},{"name":"Jolimont","latitude":"-31.94564000","longitude":"115.80947000"},{"name":"Joondalup","latitude":"-31.77962000","longitude":"115.76498000"},{"name":"Joondanna","latitude":"-31.90767000","longitude":"115.84233000"},{"name":"Jurien Bay","latitude":"-30.30591000","longitude":"115.03825000"},{"name":"Kalamunda","latitude":"-32.00398000","longitude":"116.13292000"},{"name":"Kalbarri","latitude":"-27.71050000","longitude":"114.16505000"},{"name":"Kalgoorlie","latitude":"-30.74614000","longitude":"121.47420000"},{"name":"Kalgoorlie/Boulder","latitude":"-30.77632000","longitude":"124.92347000"},{"name":"Kallaroo","latitude":"-31.79098000","longitude":"115.75298000"},{"name":"Kambalda East","latitude":"-31.20550000","longitude":"121.67011000"},{"name":"Kambalda West","latitude":"-31.20169000","longitude":"121.63060000"},{"name":"Karawara","latitude":"-32.00860000","longitude":"115.88114000"},{"name":"Kardinya","latitude":"-32.06561000","longitude":"115.81483000"},{"name":"Karnup","latitude":"-32.41894000","longitude":"115.79267000"},{"name":"Karratha","latitude":"-20.73765000","longitude":"116.84629000"},{"name":"Karrinyup","latitude":"-31.87233000","longitude":"115.77684000"},{"name":"Katanning","latitude":"-33.62476000","longitude":"117.63965000"},{"name":"Kellerberrin","latitude":"-31.57709000","longitude":"117.80561000"},{"name":"Kelmscott","latitude":"-32.12434000","longitude":"116.02590000"},{"name":"Kent Shire","latitude":"-33.53881000","longitude":"118.66993000"},{"name":"Kenwick","latitude":"-32.03333000","longitude":"115.96667000"},{"name":"Kewdale","latitude":"-31.97886000","longitude":"115.95159000"},{"name":"Kiara","latitude":"-31.88156000","longitude":"115.93893000"},{"name":"Kingsley","latitude":"-31.81036000","longitude":"115.80077000"},{"name":"Kinross","latitude":"-31.71868000","longitude":"115.73839000"},{"name":"Kojonup","latitude":"-33.92546000","longitude":"117.03982000"},{"name":"Kondinin","latitude":"-32.48431000","longitude":"119.02420000"},{"name":"Koondoola","latitude":"-31.84145000","longitude":"115.86654000"},{"name":"Koorda","latitude":"-30.60412000","longitude":"117.40736000"},{"name":"Kulin","latitude":"-32.66096000","longitude":"118.57544000"},{"name":"Kununurra","latitude":"-15.77825000","longitude":"128.74208000"},{"name":"Kwinana","latitude":"-32.23391000","longitude":"115.82785000"},{"name":"Lake Grace","latitude":"-33.12910000","longitude":"119.42041000"},{"name":"Lakelands","latitude":"-32.47157000","longitude":"115.77291000"},{"name":"Lamington","latitude":"-30.73425000","longitude":"121.46163000"},{"name":"Landsdale","latitude":"-31.80750000","longitude":"115.86599000"},{"name":"Langford","latitude":"-32.04092000","longitude":"115.94157000"},{"name":"Lathlain","latitude":"-31.96755000","longitude":"115.90631000"},{"name":"Laverton","latitude":"-27.93793000","longitude":"125.27127000"},{"name":"Leda","latitude":"-32.26766000","longitude":"115.79930000"},{"name":"Leederville","latitude":"-31.93628000","longitude":"115.84190000"},{"name":"Leeming","latitude":"-32.07511000","longitude":"115.86613000"},{"name":"Leinster","latitude":"-27.92028000","longitude":"120.69670000"},{"name":"Leonora","latitude":"-28.39424000","longitude":"121.25960000"},{"name":"Leschenault","latitude":"-33.24519000","longitude":"115.72510000"},{"name":"Lesmurdie","latitude":"-32.00199000","longitude":"116.04821000"},{"name":"Little Grove","latitude":"-35.06803000","longitude":"117.87197000"},{"name":"Lockridge","latitude":"-31.88168000","longitude":"115.95031000"},{"name":"Lockyer","latitude":"-35.00567000","longitude":"117.85875000"},{"name":"Lower Chittering","latitude":"-31.58333000","longitude":"116.11667000"},{"name":"Lower King","latitude":"-34.95778000","longitude":"117.93833000"},{"name":"Lynwood","latitude":"-32.04013000","longitude":"115.92888000"},{"name":"Maddington","latitude":"-32.05000000","longitude":"115.98333000"},{"name":"Madeley","latitude":"-31.81110000","longitude":"115.82814000"},{"name":"Madora Bay","latitude":"-32.46951000","longitude":"115.75264000"},{"name":"Maida Vale","latitude":"-31.95187000","longitude":"116.02764000"},{"name":"Mandurah","latitude":"-32.52690000","longitude":"115.72170000"},{"name":"Mandurah city centre","latitude":"-32.52644000","longitude":"115.73361000"},{"name":"Manjimup","latitude":"-34.59789000","longitude":"116.26566000"},{"name":"Manning","latitude":"-32.01594000","longitude":"115.86714000"},{"name":"Marangaroo","latitude":"-31.82711000","longitude":"115.83843000"},{"name":"Marble Bar","latitude":"-21.17067000","longitude":"119.74441000"},{"name":"Margaret River","latitude":"-33.95504000","longitude":"115.07599000"},{"name":"Marmion","latitude":"-31.84158000","longitude":"115.75692000"},{"name":"Martin","latitude":"-32.07549000","longitude":"116.04536000"},{"name":"Maylands","latitude":"-31.93097000","longitude":"115.89486000"},{"name":"McKail","latitude":"-34.98533000","longitude":"117.83010000"},{"name":"Meadow Springs","latitude":"-32.49718000","longitude":"115.75334000"},{"name":"Medina","latitude":"-32.23406000","longitude":"115.79901000"},{"name":"Meekatharra","latitude":"-25.30330000","longitude":"118.99974000"},{"name":"Melville","latitude":"-32.04325000","longitude":"115.83408000"},{"name":"Menora","latitude":"-31.91889000","longitude":"115.86208000"},{"name":"Menzies","latitude":"-29.39176000","longitude":"123.71878000"},{"name":"Merredin","latitude":"-31.46054000","longitude":"118.38509000"},{"name":"Merriwa","latitude":"-31.66494000","longitude":"115.71273000"},{"name":"Middle Swan","latitude":"-31.85000000","longitude":"116.01667000"},{"name":"Midland","latitude":"-31.88909000","longitude":"116.01070000"},{"name":"Midvale","latitude":"-31.88881000","longitude":"116.03288000"},{"name":"Millars Well","latitude":"-20.74168000","longitude":"116.81731000"},{"name":"Millbridge","latitude":"-33.30617000","longitude":"115.73500000"},{"name":"Mindarie","latitude":"-31.68932000","longitude":"115.70698000"},{"name":"Mingenew","latitude":"-29.14515000","longitude":"115.50123000"},{"name":"Mira Mar","latitude":"-35.01517000","longitude":"117.90096000"},{"name":"Mirrabooka","latitude":"-31.85963000","longitude":"115.86587000"},{"name":"Moora","latitude":"-30.51218000","longitude":"116.20980000"},{"name":"Morawa","latitude":"-29.03545000","longitude":"116.05643000"},{"name":"Morley","latitude":"-31.88775000","longitude":"115.90990000"},{"name":"Mosman Park","latitude":"-32.01421000","longitude":"115.76613000"},{"name":"Mount Barker","latitude":"-34.63084000","longitude":"117.66606000"},{"name":"Mount Claremont","latitude":"-31.96177000","longitude":"115.78337000"},{"name":"Mount Hawthorn","latitude":"-31.92000000","longitude":"115.83509000"},{"name":"Mount Helena","latitude":"-31.87606000","longitude":"116.21025000"},{"name":"Mount Lawley","latitude":"-31.93439000","longitude":"115.87160000"},{"name":"Mount Magnet","latitude":"-28.29082000","longitude":"117.96655000"},{"name":"Mount Marshall","latitude":"-30.29376000","longitude":"118.00063000"},{"name":"Mount Melville","latitude":"-35.02216000","longitude":"117.87137000"},{"name":"Mount Nasura","latitude":"-32.13780000","longitude":"116.02473000"},{"name":"Mount Pleasant","latitude":"-32.03974000","longitude":"115.84993000"},{"name":"Mount Richon","latitude":"-32.17349000","longitude":"116.02137000"},{"name":"Mount Tarcoola","latitude":"-28.79859000","longitude":"114.62530000"},{"name":"Mukinbudin","latitude":"-30.63684000","longitude":"118.28648000"},{"name":"Mullaloo","latitude":"-31.77896000","longitude":"115.73676000"},{"name":"Mundaring","latitude":"-31.88456000","longitude":"116.21551000"},{"name":"Mundijong","latitude":"-32.29217000","longitude":"115.98564000"},{"name":"Munster","latitude":"-32.13647000","longitude":"115.78302000"},{"name":"Murchison","latitude":"-27.00893000","longitude":"116.41205000"},{"name":"Murdoch","latitude":"-32.06987000","longitude":"115.83757000"},{"name":"Murray","latitude":"-32.62391000","longitude":"115.96538000"},{"name":"Myaree","latitude":"-32.04000000","longitude":"115.81761000"},{"name":"Nannup","latitude":"-34.13466000","longitude":"115.67375000"},{"name":"Narembeen","latitude":"-32.02206000","longitude":"118.68990000"},{"name":"Narrogin","latitude":"-32.93282000","longitude":"117.17763000"},{"name":"Nedlands","latitude":"-31.97994000","longitude":"115.79942000"},{"name":"Newman","latitude":"-23.35644000","longitude":"119.73553000"},{"name":"Ngaanyatjarraku","latitude":"-25.08871000","longitude":"126.83494000"},{"name":"Nickol","latitude":"-20.74558000","longitude":"116.79540000"},{"name":"Nollamara","latitude":"-31.88016000","longitude":"115.84543000"},{"name":"Noranda","latitude":"-31.87333000","longitude":"115.89901000"},{"name":"North Beach","latitude":"-31.86298000","longitude":"115.75624000"},{"name":"North Coogee","latitude":"-32.09505000","longitude":"115.75972000"},{"name":"North Fremantle","latitude":"-32.03333000","longitude":"115.75000000"},{"name":"North Lake","latitude":"-32.08190000","longitude":"115.83567000"},{"name":"North Perth","latitude":"-31.92724000","longitude":"115.85276000"},{"name":"Northam","latitude":"-31.69898000","longitude":"116.64964000"},{"name":"Northampton Shire","latitude":"-28.04956000","longitude":"114.49589000"},{"name":"Northbridge","latitude":"-31.94784000","longitude":"115.85881000"},{"name":"Nullagine","latitude":"-21.88972000","longitude":"120.11140000"},{"name":"Nulsen","latitude":"-33.85696000","longitude":"121.87499000"},{"name":"Nungarin","latitude":"-31.13714000","longitude":"118.21768000"},{"name":"Oakford","latitude":"-32.20094000","longitude":"115.93391000"},{"name":"Ocean Reef","latitude":"-31.75871000","longitude":"115.73601000"},{"name":"Onslow","latitude":"-21.63764000","longitude":"115.11221000"},{"name":"Orana","latitude":"-34.99601000","longitude":"117.85925000"},{"name":"Orelia","latitude":"-32.23330000","longitude":"115.82227000"},{"name":"Osborne Park","latitude":"-31.90066000","longitude":"115.81083000"},{"name":"Padbury","latitude":"-31.80645000","longitude":"115.76880000"},{"name":"Palmyra","latitude":"-32.04502000","longitude":"115.78589000"},{"name":"Paraburdoo","latitude":"-23.20417000","longitude":"117.66973000"},{"name":"Parkerville","latitude":"-31.87472000","longitude":"116.13800000"},{"name":"Parkwood","latitude":"-32.04913000","longitude":"115.91838000"},{"name":"Parmelia","latitude":"-32.25784000","longitude":"115.82208000"},{"name":"Pearce","latitude":"-31.66667000","longitude":"116.01667000"},{"name":"Pearsall","latitude":"-31.78117000","longitude":"115.81823000"},{"name":"Pegs Creek","latitude":"-20.73830000","longitude":"116.83278000"},{"name":"Pemberton","latitude":"-34.44311000","longitude":"116.03689000"},{"name":"Peppermint Grove","latitude":"-31.99885000","longitude":"115.76697000"},{"name":"Perenjori","latitude":"-29.39784000","longitude":"116.53543000"},{"name":"Perth","latitude":"-31.95224000","longitude":"115.86140000"},{"name":"Perth city centre","latitude":"-31.95289000","longitude":"115.85152000"},{"name":"Piara Waters","latitude":"-32.13344000","longitude":"115.91634000"},{"name":"Piccadilly","latitude":"-30.74280000","longitude":"121.46418000"},{"name":"Pingelly","latitude":"-32.53174000","longitude":"117.20004000"},{"name":"Pinjarra","latitude":"-32.62980000","longitude":"115.87351000"},{"name":"Plantagenet Shire","latitude":"-34.62508000","longitude":"117.59753000"},{"name":"Port Denison","latitude":"-29.27367000","longitude":"114.92068000"},{"name":"Port Hedland","latitude":"-20.79258000","longitude":"118.63264000"},{"name":"Port Kennedy","latitude":"-32.37342000","longitude":"115.75150000"},{"name":"Quairading","latitude":"-32.01462000","longitude":"117.39835000"},{"name":"Queens Park","latitude":"-32.00314000","longitude":"115.94621000"},{"name":"Quindalup","latitude":"-33.63560000","longitude":"115.14899000"},{"name":"Quinns Rocks","latitude":"-31.67379000","longitude":"115.70372000"},{"name":"Rangeway","latitude":"-28.78665000","longitude":"114.63059000"},{"name":"Ravensthorpe","latitude":"-33.68375000","longitude":"120.15338000"},{"name":"Ravenswood","latitude":"-32.58240000","longitude":"115.83150000"},{"name":"Redcliffe","latitude":"-31.93845000","longitude":"115.94645000"},{"name":"Ridgewood","latitude":"-31.66150000","longitude":"115.72261000"},{"name":"Riverton","latitude":"-32.03468000","longitude":"115.89856000"},{"name":"Rivervale","latitude":"-31.95546000","longitude":"115.91306000"},{"name":"Rockingham","latitude":"-32.28239000","longitude":"115.73238000"},{"name":"Rockingham city centre","latitude":"-32.28407000","longitude":"115.73540000"},{"name":"Roebuck","latitude":"-18.17130000","longitude":"122.50116000"},{"name":"Roleystone","latitude":"-32.11458000","longitude":"116.07060000"},{"name":"Rossmoyne","latitude":"-32.03965000","longitude":"115.86781000"},{"name":"Safety Bay","latitude":"-32.30463000","longitude":"115.74213000"},{"name":"Salter Point","latitude":"-32.02384000","longitude":"115.86582000"},{"name":"Samson","latitude":"-32.06996000","longitude":"115.79770000"},{"name":"Sandstone","latitude":"-28.42189000","longitude":"118.98846000"},{"name":"Scarborough","latitude":"-31.89578000","longitude":"115.76431000"},{"name":"Secret Harbour","latitude":"-32.40589000","longitude":"115.75852000"},{"name":"Serpentine","latitude":"-32.36051000","longitude":"115.97723000"},{"name":"Serpentine-Jarrahdale","latitude":"-32.32452000","longitude":"116.04507000"},{"name":"Seville Grove","latitude":"-32.13645000","longitude":"115.98905000"},{"name":"Shark Bay","latitude":"-26.38916000","longitude":"114.21845000"},{"name":"Shelley","latitude":"-32.02957000","longitude":"115.88664000"},{"name":"Shenton Park","latitude":"-31.95575000","longitude":"115.79807000"},{"name":"Shoalwater","latitude":"-32.29088000","longitude":"115.71101000"},{"name":"Silver Sands","latitude":"-32.50857000","longitude":"115.73599000"},{"name":"Sinagra","latitude":"-31.74261000","longitude":"115.80633000"},{"name":"Singleton","latitude":"-32.44403000","longitude":"115.75725000"},{"name":"Somerville","latitude":"-30.76979000","longitude":"121.45438000"},{"name":"Sorrento","latitude":"-31.82533000","longitude":"115.75248000"},{"name":"South Bunbury","latitude":"-33.34910000","longitude":"115.63359000"},{"name":"South Carnarvon","latitude":"-24.89348000","longitude":"113.65846000"},{"name":"South Fremantle","latitude":"-32.06907000","longitude":"115.75453000"},{"name":"South Guildford","latitude":"-31.91220000","longitude":"115.96825000"},{"name":"South Hedland","latitude":"-20.40655000","longitude":"118.60069000"},{"name":"South Kalgoorlie","latitude":"-30.76507000","longitude":"121.47334000"},{"name":"South Lake","latitude":"-32.11125000","longitude":"115.83873000"},{"name":"South Perth","latitude":"-31.99884000","longitude":"115.87222000"},{"name":"South Yunderup","latitude":"-32.58510000","longitude":"115.78015000"},{"name":"Southern River","latitude":"-32.10658000","longitude":"115.95896000"},{"name":"Spalding","latitude":"-28.73525000","longitude":"114.63651000"},{"name":"Spearwood","latitude":"-32.10534000","longitude":"115.77797000"},{"name":"Spencer Park","latitude":"-35.00515000","longitude":"117.90005000"},{"name":"St George Ranges","latitude":"-18.98204000","longitude":"125.00873000"},{"name":"St James","latitude":"-32.00004000","longitude":"115.90980000"},{"name":"Stirling","latitude":"-31.87940000","longitude":"115.80929000"},{"name":"Stoneville","latitude":"-30.86667000","longitude":"121.76667000"},{"name":"Strathalbyn","latitude":"-28.75168000","longitude":"114.64576000"},{"name":"Stratton","latitude":"-31.86828000","longitude":"116.04066000"},{"name":"Subiaco","latitude":"-31.95964000","longitude":"115.81564000"},{"name":"Success","latitude":"-32.14281000","longitude":"115.84999000"},{"name":"Sunset Beach","latitude":"-28.71907000","longitude":"114.62297000"},{"name":"Swan","latitude":"-31.77039000","longitude":"116.08746000"},{"name":"Swan View","latitude":"-31.88333000","longitude":"116.05000000"},{"name":"Swanbourne","latitude":"-31.96878000","longitude":"115.76730000"},{"name":"Tammin","latitude":"-31.60512000","longitude":"117.48306000"},{"name":"Tapping","latitude":"-31.71947000","longitude":"115.79559000"},{"name":"Tarcoola Beach","latitude":"-28.81001000","longitude":"114.62236000"},{"name":"Telfer","latitude":"-21.21169000","longitude":"123.26175000"},{"name":"The Vines","latitude":"-31.75492000","longitude":"116.00238000"},{"name":"Thornlie","latitude":"-32.06003000","longitude":"115.95500000"},{"name":"Three Springs","latitude":"-29.51386000","longitude":"115.63158000"},{"name":"Tom Price","latitude":"-22.69390000","longitude":"117.79310000"},{"name":"Toodyay","latitude":"-31.46991000","longitude":"116.38804000"},{"name":"Trayning","latitude":"-31.16681000","longitude":"117.83812000"},{"name":"Trigg","latitude":"-31.86939000","longitude":"115.75710000"},{"name":"Tuart Hill","latitude":"-31.89808000","longitude":"115.83495000"},{"name":"Two Rocks","latitude":"-31.49985000","longitude":"115.58737000"},{"name":"Upper Gascoyne","latitude":"-24.71935000","longitude":"116.33876000"},{"name":"Usher","latitude":"-33.37982000","longitude":"115.62920000"},{"name":"Utakarra","latitude":"-28.78333000","longitude":"114.65000000"},{"name":"Vasse","latitude":"-33.69337000","longitude":"115.26780000"},{"name":"Victoria Park","latitude":"-31.97651000","longitude":"115.90592000"},{"name":"Victoria Plains","latitude":"-31.01632000","longitude":"116.28546000"},{"name":"Vincent","latitude":"-31.93138000","longitude":"115.85412000"},{"name":"Viveash","latitude":"-31.87861000","longitude":"115.99661000"},{"name":"Waggrakine","latitude":"-28.71883000","longitude":"114.63924000"},{"name":"Wagin","latitude":"-33.27501000","longitude":"117.38554000"},{"name":"Waikiki","latitude":"-32.31606000","longitude":"115.75460000"},{"name":"Wandering","latitude":"-32.52589000","longitude":"116.56668000"},{"name":"Wandi","latitude":"-32.19430000","longitude":"115.87630000"},{"name":"Wandina","latitude":"-28.81938000","longitude":"114.63464000"},{"name":"Wannanup","latitude":"-32.59946000","longitude":"115.64488000"},{"name":"Wanneroo","latitude":"-31.65293000","longitude":"115.72211000"},{"name":"Warnbro","latitude":"-32.34017000","longitude":"115.74730000"},{"name":"Waroona","latitude":"-32.84916000","longitude":"115.90429000"},{"name":"Warwick","latitude":"-31.83974000","longitude":"115.80855000"},{"name":"Waterford","latitude":"-32.01574000","longitude":"115.88662000"},{"name":"Watermans Bay","latitude":"-31.84915000","longitude":"115.75590000"},{"name":"Wattle Grove","latitude":"-32.00672000","longitude":"116.00046000"},{"name":"Wellard","latitude":"-32.26667000","longitude":"115.83333000"},{"name":"Wembley","latitude":"-31.93308000","longitude":"115.81783000"},{"name":"Wembley Downs","latitude":"-31.91169000","longitude":"115.77358000"},{"name":"West Arthur","latitude":"-33.44057000","longitude":"116.68597000"},{"name":"West Beach","latitude":"-33.87464000","longitude":"121.89013000"},{"name":"West Busselton","latitude":"-33.65792000","longitude":"115.32293000"},{"name":"West Lamington","latitude":"-30.74707000","longitude":"121.45248000"},{"name":"West Leederville","latitude":"-31.94141000","longitude":"115.83117000"},{"name":"West Perth","latitude":"-31.94896000","longitude":"115.84199000"},{"name":"Westminster","latitude":"-31.86744000","longitude":"115.83919000"},{"name":"Westonia","latitude":"-30.88436000","longitude":"118.72974000"},{"name":"White Gum Valley","latitude":"-32.06031000","longitude":"115.77058000"},{"name":"Wickepin","latitude":"-32.82211000","longitude":"117.63996000"},{"name":"Wickham","latitude":"-20.67474000","longitude":"117.13784000"},{"name":"Willagee","latitude":"-32.05196000","longitude":"115.80533000"},{"name":"Willetton","latitude":"-32.05251000","longitude":"115.88782000"},{"name":"Williams","latitude":"-33.05217000","longitude":"116.70943000"},{"name":"Wilson","latitude":"-32.02058000","longitude":"115.91181000"},{"name":"Wiluna","latitude":"-25.36630000","longitude":"121.93243000"},{"name":"Winthrop","latitude":"-32.05216000","longitude":"115.82972000"},{"name":"Withers","latitude":"-33.36807000","longitude":"115.63050000"},{"name":"Wongan-Ballidu","latitude":"-30.73138000","longitude":"116.84854000"},{"name":"Wonthella","latitude":"-28.76689000","longitude":"114.63338000"},{"name":"Woodanilling","latitude":"-33.51937000","longitude":"117.33580000"},{"name":"Woodbridge","latitude":"-31.88695000","longitude":"115.99196000"},{"name":"Woodvale","latitude":"-31.78928000","longitude":"115.79676000"},{"name":"Wooroloo","latitude":"-31.80380000","longitude":"116.31311000"},{"name":"Woorree","latitude":"-28.76677000","longitude":"114.65806000"},{"name":"Wundowie","latitude":"-31.76163000","longitude":"116.37990000"},{"name":"Wyalkatchem","latitude":"-31.19528000","longitude":"117.44682000"},{"name":"Wyndham-East Kimberley","latitude":"-15.51291000","longitude":"126.58779000"},{"name":"Yakamia","latitude":"-35.00392000","longitude":"117.87828000"},{"name":"Yalgoo","latitude":"-28.48787000","longitude":"117.15818000"},{"name":"Yallingup","latitude":"-33.64592000","longitude":"115.03514000"},{"name":"Yalyalup","latitude":"-33.67496000","longitude":"115.41449000"},{"name":"Yanchep","latitude":"-31.54678000","longitude":"115.63171000"},{"name":"Yangebup","latitude":"-32.12065000","longitude":"115.81623000"},{"name":"Yilgarn","latitude":"-30.90938000","longitude":"119.25881000"},{"name":"Yokine","latitude":"-31.90113000","longitude":"115.85319000"},{"name":"York","latitude":"-31.88809000","longitude":"116.76780000"}]