[{"name":"Bandiagara","latitude":"14.35005000","longitude":"-3.61038000"},{"name":"Djénné","latitude":"13.90608000","longitude":"-4.55332000"},{"name":"Douentza","latitude":"15.00155000","longitude":"-2.94978000"},{"name":"Douentza Cercle","latitude":"15.06947000","longitude":"-2.40875000"},{"name":"Mopti","latitude":"14.48430000","longitude":"-4.18296000"},{"name":"Ténenkou","latitude":"14.45722000","longitude":"-4.91690000"}]