[{"name":"Aberdeen","latitude":"35.13155000","longitude":"-79.42948000"},{"name":"Advance","latitude":"35.94125000","longitude":"-80.40922000"},{"name":"Ahoskie","latitude":"36.28682000","longitude":"-76.98468000"},{"name":"Alamance County","latitude":"36.04407000","longitude":"-79.39951000"},{"name":"Albemarle","latitude":"35.35014000","longitude":"-80.20006000"},{"name":"Alexander County","latitude":"35.92102000","longitude":"-81.17702000"},{"name":"Alleghany County","latitude":"36.49134000","longitude":"-81.12719000"},{"name":"Andrews","latitude":"35.20175000","longitude":"-83.82407000"},{"name":"Angier","latitude":"35.50710000","longitude":"-78.73918000"},{"name":"Anson County","latitude":"34.97383000","longitude":"-80.10273000"},{"name":"Apex","latitude":"35.73265000","longitude":"-78.85029000"},{"name":"Archdale","latitude":"35.91458000","longitude":"-79.97198000"},{"name":"Archer Lodge","latitude":"35.69404000","longitude":"-78.37556000"},{"name":"Ashe County","latitude":"36.43416000","longitude":"-81.50034000"},{"name":"Asheboro","latitude":"35.70791000","longitude":"-79.81364000"},{"name":"Asheville","latitude":"35.60095000","longitude":"-82.55402000"},{"name":"Atlantic Beach","latitude":"34.69905000","longitude":"-76.74021000"},{"name":"Avery County","latitude":"36.07661000","longitude":"-81.92247000"},{"name":"Avery Creek","latitude":"35.46345000","longitude":"-82.58262000"},{"name":"Ayden","latitude":"35.47266000","longitude":"-77.41552000"},{"name":"Badin","latitude":"35.40597000","longitude":"-80.11672000"},{"name":"Bakersville","latitude":"36.01567000","longitude":"-82.15874000"},{"name":"Balfour","latitude":"35.34651000","longitude":"-82.47206000"},{"name":"Banner Elk","latitude":"36.16318000","longitude":"-81.87150000"},{"name":"Barker Heights","latitude":"35.31123000","longitude":"-82.44401000"},{"name":"Bayboro","latitude":"35.14294000","longitude":"-76.77021000"},{"name":"Bayshore","latitude":"34.28961000","longitude":"-77.78748000"},{"name":"Beaufort","latitude":"34.71822000","longitude":"-76.66382000"},{"name":"Beaufort County","latitude":"35.48583000","longitude":"-76.84516000"},{"name":"Belhaven","latitude":"35.54017000","longitude":"-76.62299000"},{"name":"Belmont","latitude":"35.24292000","longitude":"-81.03730000"},{"name":"Belville","latitude":"34.23073000","longitude":"-77.96582000"},{"name":"Benson","latitude":"35.38211000","longitude":"-78.54862000"},{"name":"Bent Creek","latitude":"35.50900000","longitude":"-82.60790000"},{"name":"Bermuda Run","latitude":"36.00375000","longitude":"-80.42200000"},{"name":"Bertie County","latitude":"36.06556000","longitude":"-76.96660000"},{"name":"Bessemer City","latitude":"35.28486000","longitude":"-81.28397000"},{"name":"Bethel","latitude":"35.80710000","longitude":"-77.37886000"},{"name":"Bethlehem","latitude":"35.82569000","longitude":"-81.30703000"},{"name":"Beulaville","latitude":"34.92378000","longitude":"-77.77387000"},{"name":"Biltmore Forest","latitude":"35.53372000","longitude":"-82.52846000"},{"name":"Biscoe","latitude":"35.35986000","longitude":"-79.77976000"},{"name":"Black Mountain","latitude":"35.61790000","longitude":"-82.32123000"},{"name":"Bladen County","latitude":"34.61431000","longitude":"-78.56318000"},{"name":"Bladenboro","latitude":"34.53878000","longitude":"-78.78752000"},{"name":"Blowing Rock","latitude":"36.13513000","longitude":"-81.67761000"},{"name":"Boiling Spring Lakes","latitude":"34.03045000","longitude":"-78.06721000"},{"name":"Boiling Springs","latitude":"35.25429000","longitude":"-81.66704000"},{"name":"Bolivia","latitude":"34.06767000","longitude":"-78.14833000"},{"name":"Boone","latitude":"36.21679000","longitude":"-81.67455000"},{"name":"Boonville","latitude":"36.23264000","longitude":"-80.70812000"},{"name":"Brevard","latitude":"35.23345000","longitude":"-82.73429000"},{"name":"Brices Creek","latitude":"35.05599000","longitude":"-77.08773000"},{"name":"Broad Creek","latitude":"34.72072000","longitude":"-76.93633000"},{"name":"Broadway","latitude":"35.45793000","longitude":"-79.05308000"},{"name":"Brogden","latitude":"35.29266000","longitude":"-78.03443000"},{"name":"Brunswick","latitude":"34.28684000","longitude":"-78.70113000"},{"name":"Brunswick County","latitude":"34.03897000","longitude":"-78.22728000"},{"name":"Bryson City","latitude":"35.43127000","longitude":"-83.44944000"},{"name":"Buies Creek","latitude":"35.41322000","longitude":"-78.73557000"},{"name":"Buncombe County","latitude":"35.61122000","longitude":"-82.53010000"},{"name":"Burgaw","latitude":"34.55211000","longitude":"-77.92610000"},{"name":"Burke County","latitude":"35.74952000","longitude":"-81.70470000"},{"name":"Burlington","latitude":"36.09569000","longitude":"-79.43780000"},{"name":"Burnsville","latitude":"35.91734000","longitude":"-82.30096000"},{"name":"Butner","latitude":"36.13209000","longitude":"-78.75667000"},{"name":"Buxton","latitude":"35.26768000","longitude":"-75.54237000"},{"name":"Cabarrus County","latitude":"35.38687000","longitude":"-80.55204000"},{"name":"Cajahs Mountain","latitude":"35.83485000","longitude":"-81.54148000"},{"name":"Calabash","latitude":"33.89073000","longitude":"-78.56834000"},{"name":"Caldwell County","latitude":"35.95297000","longitude":"-81.54655000"},{"name":"Camden","latitude":"36.32849000","longitude":"-76.17188000"},{"name":"Camden County","latitude":"36.34145000","longitude":"-76.16112000"},{"name":"Canton","latitude":"35.53288000","longitude":"-82.83736000"},{"name":"Cape Carteret","latitude":"34.69155000","longitude":"-77.06300000"},{"name":"Carolina Beach","latitude":"34.03517000","longitude":"-77.89360000"},{"name":"Carolina Shores","latitude":"33.90101000","longitude":"-78.58057000"},{"name":"Carrboro","latitude":"35.91014000","longitude":"-79.07529000"},{"name":"Carteret County","latitude":"34.86401000","longitude":"-76.53249000"},{"name":"Carthage","latitude":"35.34599000","longitude":"-79.41697000"},{"name":"Cary","latitude":"35.79154000","longitude":"-78.78112000"},{"name":"Castle Hayne","latitude":"34.35572000","longitude":"-77.89999000"},{"name":"Caswell County","latitude":"36.39335000","longitude":"-79.33359000"},{"name":"Catawba County","latitude":"35.66261000","longitude":"-81.21448000"},{"name":"Cedar Point","latitude":"34.68766000","longitude":"-77.07245000"},{"name":"Chadbourn","latitude":"34.32211000","longitude":"-78.82697000"},{"name":"Chapel Hill","latitude":"35.91320000","longitude":"-79.05584000"},{"name":"Charlotte","latitude":"35.22709000","longitude":"-80.84313000"},{"name":"Chatham County","latitude":"35.70258000","longitude":"-79.25535000"},{"name":"Cherokee","latitude":"35.47427000","longitude":"-83.31487000"},{"name":"Cherokee County","latitude":"35.13384000","longitude":"-84.06347000"},{"name":"Cherryville","latitude":"35.37874000","longitude":"-81.37897000"},{"name":"China Grove","latitude":"35.56931000","longitude":"-80.58173000"},{"name":"Chowan County","latitude":"36.12656000","longitude":"-76.60216000"},{"name":"Claremont","latitude":"35.71458000","longitude":"-81.14619000"},{"name":"Clay County","latitude":"35.05719000","longitude":"-83.75021000"},{"name":"Clayton","latitude":"35.65071000","longitude":"-78.45639000"},{"name":"Clemmons","latitude":"36.02153000","longitude":"-80.38200000"},{"name":"Cleveland County","latitude":"35.33411000","longitude":"-81.55561000"},{"name":"Clinton","latitude":"34.99795000","longitude":"-78.32333000"},{"name":"Clyde","latitude":"35.53344000","longitude":"-82.91069000"},{"name":"Coats","latitude":"35.40794000","longitude":"-78.67196000"},{"name":"Columbia","latitude":"35.91766000","longitude":"-76.25215000"},{"name":"Columbus","latitude":"35.25317000","longitude":"-82.19706000"},{"name":"Columbus County","latitude":"34.26540000","longitude":"-78.65507000"},{"name":"Concord","latitude":"35.40888000","longitude":"-80.58158000"},{"name":"Connelly Springs","latitude":"35.74291000","longitude":"-81.51343000"},{"name":"Conover","latitude":"35.70652000","longitude":"-81.21869000"},{"name":"Cordova","latitude":"34.91293000","longitude":"-79.82200000"},{"name":"Cornelius","latitude":"35.48680000","longitude":"-80.86007000"},{"name":"Cove Creek","latitude":"35.60649000","longitude":"-83.01125000"},{"name":"Cramerton","latitude":"35.23875000","longitude":"-81.07508000"},{"name":"Craven County","latitude":"35.11722000","longitude":"-77.08263000"},{"name":"Creedmoor","latitude":"36.12237000","longitude":"-78.68611000"},{"name":"Cricket","latitude":"36.17152000","longitude":"-81.19398000"},{"name":"Cullowhee","latitude":"35.31371000","longitude":"-83.17653000"},{"name":"Cumberland County","latitude":"35.04859000","longitude":"-78.82744000"},{"name":"Currituck","latitude":"36.44988000","longitude":"-76.01548000"},{"name":"Currituck County","latitude":"36.36724000","longitude":"-75.93683000"},{"name":"Dallas","latitude":"35.31653000","longitude":"-81.17619000"},{"name":"Dana","latitude":"35.32928000","longitude":"-82.37540000"},{"name":"Danbury","latitude":"36.40930000","longitude":"-80.20588000"},{"name":"Dare County","latitude":"35.78663000","longitude":"-75.78094000"},{"name":"Davidson","latitude":"35.50233000","longitude":"-80.83912000"},{"name":"Davidson County","latitude":"35.79328000","longitude":"-80.21269000"},{"name":"Davie County","latitude":"35.92916000","longitude":"-80.54447000"},{"name":"Denton","latitude":"35.63347000","longitude":"-80.11588000"},{"name":"Denver","latitude":"35.53125000","longitude":"-81.02980000"},{"name":"Dobson","latitude":"36.39569000","longitude":"-80.72257000"},{"name":"Drexel","latitude":"35.75791000","longitude":"-81.60426000"},{"name":"Dunn","latitude":"35.30627000","longitude":"-78.60890000"},{"name":"Duplin County","latitude":"34.93628000","longitude":"-77.93294000"},{"name":"Durham","latitude":"35.99403000","longitude":"-78.89862000"},{"name":"Durham County","latitude":"36.03600000","longitude":"-78.87632000"},{"name":"East Flat Rock","latitude":"35.28012000","longitude":"-82.42206000"},{"name":"East Rockingham","latitude":"34.91821000","longitude":"-79.76256000"},{"name":"East Spencer","latitude":"35.68181000","longitude":"-80.43228000"},{"name":"Eastover","latitude":"35.10000000","longitude":"-78.80000000"},{"name":"Eden","latitude":"36.48847000","longitude":"-79.76670000"},{"name":"Edenton","latitude":"36.05794000","longitude":"-76.60772000"},{"name":"Edgecombe County","latitude":"35.91298000","longitude":"-77.59707000"},{"name":"Edneyville","latitude":"35.39401000","longitude":"-82.34095000"},{"name":"Elizabeth City","latitude":"36.29460000","longitude":"-76.25105000"},{"name":"Elizabethtown","latitude":"34.62934000","longitude":"-78.60529000"},{"name":"Elkin","latitude":"36.24430000","longitude":"-80.84840000"},{"name":"Ellerbe","latitude":"35.07126000","longitude":"-79.76144000"},{"name":"Elm City","latitude":"35.80655000","longitude":"-77.86332000"},{"name":"Elon","latitude":"36.10291000","longitude":"-79.50669000"},{"name":"Elroy","latitude":"35.34266000","longitude":"-77.90859000"},{"name":"Emerald Isle","latitude":"34.67794000","longitude":"-76.95078000"},{"name":"Enfield","latitude":"36.18099000","longitude":"-77.66664000"},{"name":"Enochville","latitude":"35.52986000","longitude":"-80.66812000"},{"name":"Erwin","latitude":"35.32683000","longitude":"-78.67613000"},{"name":"Etowah","latitude":"35.31762000","longitude":"-82.59429000"},{"name":"Fairfield Harbour","latitude":"35.07655000","longitude":"-76.96356000"},{"name":"Fairmont","latitude":"34.49683000","longitude":"-79.11420000"},{"name":"Fairplains","latitude":"36.19847000","longitude":"-81.15286000"},{"name":"Fairview","latitude":"35.51401000","longitude":"-82.39595000"},{"name":"Farmville","latitude":"35.59544000","longitude":"-77.58525000"},{"name":"Fayetteville","latitude":"35.05266000","longitude":"-78.87836000"},{"name":"Fearrington Village","latitude":"35.80376000","longitude":"-79.09029000"},{"name":"Flat Rock","latitude":"35.27123000","longitude":"-82.44151000"},{"name":"Fletcher","latitude":"35.43067000","longitude":"-82.50123000"},{"name":"Forest City","latitude":"35.33401000","longitude":"-81.86510000"},{"name":"Forest Oaks","latitude":"35.98819000","longitude":"-79.70614000"},{"name":"Forsyth County","latitude":"36.13049000","longitude":"-80.25636000"},{"name":"Fort Bragg","latitude":"35.13900000","longitude":"-79.00603000"},{"name":"Foscoe","latitude":"36.16179000","longitude":"-81.76566000"},{"name":"Four Oaks","latitude":"35.44488000","longitude":"-78.42695000"},{"name":"Franklin","latitude":"35.18232000","longitude":"-83.38154000"},{"name":"Franklin County","latitude":"36.08279000","longitude":"-78.28561000"},{"name":"Franklinton","latitude":"36.10182000","longitude":"-78.45805000"},{"name":"Franklinville","latitude":"35.74375000","longitude":"-79.69225000"},{"name":"Fremont","latitude":"35.54544000","longitude":"-77.97471000"},{"name":"Fruitland","latitude":"35.39651000","longitude":"-82.39317000"},{"name":"Fuquay-Varina","latitude":"35.58432000","longitude":"-78.80001000"},{"name":"Gamewell","latitude":"35.86930000","longitude":"-81.59621000"},{"name":"Garner","latitude":"35.71126000","longitude":"-78.61417000"},{"name":"Gaston","latitude":"36.50043000","longitude":"-77.64498000"},{"name":"Gaston County","latitude":"35.29437000","longitude":"-81.18025000"},{"name":"Gastonia","latitude":"35.26208000","longitude":"-81.18730000"},{"name":"Gates County","latitude":"36.44489000","longitude":"-76.70049000"},{"name":"Gatesville","latitude":"36.40349000","longitude":"-76.75301000"},{"name":"Gibsonville","latitude":"36.10569000","longitude":"-79.54225000"},{"name":"Glen Alpine","latitude":"35.72902000","longitude":"-81.77927000"},{"name":"Glen Raven","latitude":"36.11319000","longitude":"-79.47641000"},{"name":"Goldsboro","latitude":"35.38488000","longitude":"-77.99277000"},{"name":"Gorman","latitude":"36.03653000","longitude":"-78.82334000"},{"name":"Graham","latitude":"36.06903000","longitude":"-79.40058000"},{"name":"Graham County","latitude":"35.35016000","longitude":"-83.83356000"},{"name":"Granite Falls","latitude":"35.79652000","longitude":"-81.43065000"},{"name":"Granite Quarry","latitude":"35.61236000","longitude":"-80.44673000"},{"name":"Granville County","latitude":"36.30402000","longitude":"-78.65302000"},{"name":"Green Level","latitude":"36.12097000","longitude":"-79.34419000"},{"name":"Greene County","latitude":"35.48541000","longitude":"-77.67587000"},{"name":"Greensboro","latitude":"36.07264000","longitude":"-79.79198000"},{"name":"Greenville","latitude":"35.61266000","longitude":"-77.36635000"},{"name":"Grifton","latitude":"35.37266000","longitude":"-77.43746000"},{"name":"Guilford County","latitude":"36.07945000","longitude":"-79.78901000"},{"name":"Half Moon","latitude":"34.82600000","longitude":"-77.45941000"},{"name":"Halifax","latitude":"36.32849000","longitude":"-77.58942000"},{"name":"Halifax County","latitude":"36.25750000","longitude":"-77.65188000"},{"name":"Hamlet","latitude":"34.88488000","longitude":"-79.69422000"},{"name":"Hampstead","latitude":"34.36767000","longitude":"-77.71053000"},{"name":"Harkers Island","latitude":"34.69516000","longitude":"-76.55937000"},{"name":"Harnett County","latitude":"35.36860000","longitude":"-78.86931000"},{"name":"Harrisburg","latitude":"35.32395000","longitude":"-80.65784000"},{"name":"Havelock","latitude":"34.87905000","longitude":"-76.90133000"},{"name":"Haw River","latitude":"36.09153000","longitude":"-79.36419000"},{"name":"Hayesville","latitude":"35.04620000","longitude":"-83.81795000"},{"name":"Hays","latitude":"36.24985000","longitude":"-81.11564000"},{"name":"Haywood County","latitude":"35.55605000","longitude":"-82.98224000"},{"name":"Hazelwood","latitude":"35.46871000","longitude":"-83.00403000"},{"name":"Hemby Bridge","latitude":"35.10371000","longitude":"-80.62798000"},{"name":"Henderson","latitude":"36.32959000","longitude":"-78.39916000"},{"name":"Henderson County","latitude":"35.33629000","longitude":"-82.47991000"},{"name":"Hendersonville","latitude":"35.31873000","longitude":"-82.46095000"},{"name":"Hertford","latitude":"36.19016000","longitude":"-76.46605000"},{"name":"Hertford County","latitude":"36.35863000","longitude":"-76.98066000"},{"name":"Hickory","latitude":"35.73319000","longitude":"-81.34120000"},{"name":"High Point","latitude":"35.95569000","longitude":"-80.00532000"},{"name":"Hildebran","latitude":"35.71402000","longitude":"-81.42203000"},{"name":"Hillsborough","latitude":"36.07542000","longitude":"-79.09973000"},{"name":"Hoke County","latitude":"35.01736000","longitude":"-79.23711000"},{"name":"Holly Ridge","latitude":"34.49544000","longitude":"-77.55497000"},{"name":"Holly Springs","latitude":"35.65127000","longitude":"-78.83362000"},{"name":"Hoopers Creek","latitude":"35.43900000","longitude":"-82.46679000"},{"name":"Hope Mills","latitude":"34.97044000","longitude":"-78.94531000"},{"name":"Horse Shoe","latitude":"35.34317000","longitude":"-82.55651000"},{"name":"Hudson","latitude":"35.84846000","longitude":"-81.49593000"},{"name":"Huntersville","latitude":"35.41069000","longitude":"-80.84285000"},{"name":"Hyde County","latitude":"35.41004000","longitude":"-76.14850000"},{"name":"Icard","latitude":"35.72735000","longitude":"-81.47065000"},{"name":"Indian Trail","latitude":"35.07681000","longitude":"-80.66924000"},{"name":"Iredell County","latitude":"35.80708000","longitude":"-80.87344000"},{"name":"Jackson","latitude":"36.38960000","longitude":"-77.42136000"},{"name":"Jackson County","latitude":"35.28739000","longitude":"-83.14083000"},{"name":"Jacksonville","latitude":"34.75405000","longitude":"-77.43024000"},{"name":"James City","latitude":"35.08877000","longitude":"-77.03495000"},{"name":"Jamestown","latitude":"35.99430000","longitude":"-79.93531000"},{"name":"Jefferson","latitude":"36.42040000","longitude":"-81.47344000"},{"name":"Johnston County","latitude":"35.51761000","longitude":"-78.36564000"},{"name":"Jones County","latitude":"35.02170000","longitude":"-77.35526000"},{"name":"Jonesville","latitude":"36.23930000","longitude":"-80.84452000"},{"name":"Kannapolis","latitude":"35.48736000","longitude":"-80.62173000"},{"name":"Kenansville","latitude":"34.96239000","longitude":"-77.96221000"},{"name":"Kenly","latitude":"35.59627000","longitude":"-78.12416000"},{"name":"Kernersville","latitude":"36.11986000","longitude":"-80.07365000"},{"name":"Kill Devil Hills","latitude":"36.03072000","longitude":"-75.67601000"},{"name":"King","latitude":"36.28069000","longitude":"-80.35922000"},{"name":"Kings Grant","latitude":"34.26295000","longitude":"-77.86360000"},{"name":"Kings Mountain","latitude":"35.24513000","longitude":"-81.34119000"},{"name":"Kinston","latitude":"35.26266000","longitude":"-77.58164000"},{"name":"Kitty Hawk","latitude":"36.06461000","longitude":"-75.70573000"},{"name":"Knightdale","latitude":"35.78765000","longitude":"-78.48056000"},{"name":"Kure Beach","latitude":"33.99684000","longitude":"-77.90721000"},{"name":"La Grange","latitude":"35.30683000","longitude":"-77.78803000"},{"name":"Lake Junaluska","latitude":"35.52788000","longitude":"-82.95958000"},{"name":"Lake Lure","latitude":"35.42790000","longitude":"-82.20483000"},{"name":"Lake Norman of Catawba","latitude":"35.58680000","longitude":"-80.95952000"},{"name":"Lake Park","latitude":"35.08626000","longitude":"-80.63507000"},{"name":"Lake Waccamaw","latitude":"34.31906000","longitude":"-78.50001000"},{"name":"Landis","latitude":"35.54569000","longitude":"-80.61090000"},{"name":"Laurel Hill","latitude":"34.80905000","longitude":"-79.54783000"},{"name":"Laurel Park","latitude":"35.31373000","longitude":"-82.49345000"},{"name":"Laurinburg","latitude":"34.77405000","longitude":"-79.46282000"},{"name":"Lee County","latitude":"35.47517000","longitude":"-79.17143000"},{"name":"Leland","latitude":"34.25628000","longitude":"-78.04471000"},{"name":"Lenoir","latitude":"35.91402000","longitude":"-81.53898000"},{"name":"Lenoir County","latitude":"35.23915000","longitude":"-77.64127000"},{"name":"Lewisville","latitude":"36.09708000","longitude":"-80.41922000"},{"name":"Lexington","latitude":"35.82403000","longitude":"-80.25338000"},{"name":"Liberty","latitude":"35.85347000","longitude":"-79.57169000"},{"name":"Lillington","latitude":"35.39933000","longitude":"-78.81585000"},{"name":"Lincoln County","latitude":"35.48618000","longitude":"-81.22387000"},{"name":"Lincolnton","latitude":"35.47375000","longitude":"-81.25453000"},{"name":"Locust","latitude":"35.25987000","longitude":"-80.42534000"},{"name":"Long Beach","latitude":"33.91045000","longitude":"-78.11777000"},{"name":"Longview","latitude":"35.72930000","longitude":"-81.38342000"},{"name":"Louisburg","latitude":"36.09904000","longitude":"-78.30111000"},{"name":"Lowell","latitude":"35.26792000","longitude":"-81.10285000"},{"name":"Lowesville","latitude":"35.41708000","longitude":"-81.01119000"},{"name":"Lucama","latitude":"35.64544000","longitude":"-78.00971000"},{"name":"Lumberton","latitude":"34.61834000","longitude":"-79.01045000"},{"name":"Macon County","latitude":"35.15038000","longitude":"-83.42210000"},{"name":"Madison","latitude":"36.38542000","longitude":"-79.95949000"},{"name":"Madison County","latitude":"35.85809000","longitude":"-82.70576000"},{"name":"Maggie Valley","latitude":"35.51816000","longitude":"-83.09764000"},{"name":"Maiden","latitude":"35.57569000","longitude":"-81.21175000"},{"name":"Manteo","latitude":"35.90823000","longitude":"-75.67573000"},{"name":"Mar-Mac","latitude":"35.33488000","longitude":"-78.05582000"},{"name":"Marion","latitude":"35.68401000","longitude":"-82.00927000"},{"name":"Mars Hill","latitude":"35.82650000","longitude":"-82.54930000"},{"name":"Marshall","latitude":"35.79733000","longitude":"-82.68403000"},{"name":"Marshville","latitude":"34.98849000","longitude":"-80.36701000"},{"name":"Martin County","latitude":"35.84160000","longitude":"-77.10708000"},{"name":"Marvin","latitude":"34.99182000","longitude":"-80.81479000"},{"name":"Masonboro","latitude":"34.17934000","longitude":"-77.84748000"},{"name":"Matthews","latitude":"35.11681000","longitude":"-80.72368000"},{"name":"Maury","latitude":"35.48211000","longitude":"-77.58608000"},{"name":"Maxton","latitude":"34.73516000","longitude":"-79.34893000"},{"name":"Mayodan","latitude":"36.41236000","longitude":"-79.96699000"},{"name":"Maysville","latitude":"34.90488000","longitude":"-77.23134000"},{"name":"McDowell County","latitude":"35.68124000","longitude":"-82.04870000"},{"name":"McLeansville","latitude":"36.10736000","longitude":"-79.65864000"},{"name":"Mebane","latitude":"36.09597000","longitude":"-79.26696000"},{"name":"Mecklenburg County","latitude":"35.24671000","longitude":"-80.83276000"},{"name":"Midland","latitude":"35.22737000","longitude":"-80.50062000"},{"name":"Midway","latitude":"35.95347000","longitude":"-80.21810000"},{"name":"Millers Creek","latitude":"36.18930000","longitude":"-81.23759000"},{"name":"Mills River","latitude":"35.38845000","longitude":"-82.56679000"},{"name":"Mineral Springs","latitude":"34.93793000","longitude":"-80.66868000"},{"name":"Mint Hill","latitude":"35.17959000","longitude":"-80.64729000"},{"name":"Mitchell County","latitude":"36.01329000","longitude":"-82.16347000"},{"name":"Mocksville","latitude":"35.89403000","longitude":"-80.56145000"},{"name":"Monroe","latitude":"34.98543000","longitude":"-80.54951000"},{"name":"Montgomery County","latitude":"35.33246000","longitude":"-79.90547000"},{"name":"Moore County","latitude":"35.31072000","longitude":"-79.48131000"},{"name":"Mooresville","latitude":"35.58486000","longitude":"-80.81007000"},{"name":"Moravian Falls","latitude":"36.09680000","longitude":"-81.18231000"},{"name":"Morehead City","latitude":"34.72294000","longitude":"-76.72604000"},{"name":"Morganton","latitude":"35.74541000","longitude":"-81.68482000"},{"name":"Morrisville","latitude":"35.82348000","longitude":"-78.82556000"},{"name":"Mount Airy","latitude":"36.49930000","longitude":"-80.60729000"},{"name":"Mount Gilead","latitude":"35.21487000","longitude":"-80.00228000"},{"name":"Mount Holly","latitude":"35.29819000","longitude":"-81.01591000"},{"name":"Mount Olive","latitude":"35.19655000","longitude":"-78.06638000"},{"name":"Mount Pleasant","latitude":"35.39931000","longitude":"-80.43590000"},{"name":"Mountain Home","latitude":"35.36956000","longitude":"-82.49290000"},{"name":"Mountain View","latitude":"35.68319000","longitude":"-81.36898000"},{"name":"Moyock","latitude":"36.52460000","longitude":"-76.17827000"},{"name":"Mulberry","latitude":"36.23958000","longitude":"-81.18064000"},{"name":"Murfreesboro","latitude":"36.44238000","longitude":"-77.09858000"},{"name":"Murphy","latitude":"35.08758000","longitude":"-84.03463000"},{"name":"Murraysville","latitude":"34.29572000","longitude":"-77.84748000"},{"name":"Myrtle Grove","latitude":"34.13462000","longitude":"-77.88165000"},{"name":"Nags Head","latitude":"35.95739000","longitude":"-75.62406000"},{"name":"Nash County","latitude":"35.96722000","longitude":"-77.98648000"},{"name":"Nashville","latitude":"35.97460000","longitude":"-77.96554000"},{"name":"Navassa","latitude":"34.25545000","longitude":"-78.00749000"},{"name":"Neuse Forest","latitude":"34.96377000","longitude":"-76.94467000"},{"name":"New Bern","latitude":"35.10849000","longitude":"-77.04411000"},{"name":"New Hanover County","latitude":"34.18141000","longitude":"-77.86561000"},{"name":"Newland","latitude":"36.08735000","longitude":"-81.92734000"},{"name":"Newport","latitude":"34.78655000","longitude":"-76.85911000"},{"name":"Newton","latitude":"35.66986000","longitude":"-81.22147000"},{"name":"Norlina","latitude":"36.44570000","longitude":"-78.19833000"},{"name":"North Wilkesboro","latitude":"36.15847000","longitude":"-81.14758000"},{"name":"Northampton County","latitude":"36.41766000","longitude":"-77.39674000"},{"name":"Northchase","latitude":"34.30782000","longitude":"-77.87749000"},{"name":"Northlakes","latitude":"35.78180000","longitude":"-81.37509000"},{"name":"Norwood","latitude":"35.21959000","longitude":"-80.11895000"},{"name":"Oak Island","latitude":"33.91656000","longitude":"-78.16111000"},{"name":"Oak Ridge","latitude":"36.17347000","longitude":"-79.98893000"},{"name":"Oakboro","latitude":"35.22570000","longitude":"-80.32895000"},{"name":"Ogden","latitude":"34.27239000","longitude":"-77.81859000"},{"name":"Onslow County","latitude":"34.76305000","longitude":"-77.39319000"},{"name":"Orange County","latitude":"36.06130000","longitude":"-79.12060000"},{"name":"Oxford","latitude":"36.31070000","longitude":"-78.59083000"},{"name":"Pamlico County","latitude":"35.15152000","longitude":"-76.66716000"},{"name":"Pasquotank County","latitude":"36.26490000","longitude":"-76.24913000"},{"name":"Pembroke","latitude":"34.68016000","longitude":"-79.19504000"},{"name":"Pender County","latitude":"34.51494000","longitude":"-77.88887000"},{"name":"Perquimans County","latitude":"36.17720000","longitude":"-76.40767000"},{"name":"Person County","latitude":"36.39011000","longitude":"-78.97171000"},{"name":"Pilot Mountain","latitude":"36.38653000","longitude":"-80.46950000"},{"name":"Pine Knoll Shores","latitude":"34.69738000","longitude":"-76.81327000"},{"name":"Pine Level","latitude":"35.51322000","longitude":"-78.24444000"},{"name":"Pinebluff","latitude":"35.10988000","longitude":"-79.47226000"},{"name":"Pinehurst","latitude":"35.19543000","longitude":"-79.46948000"},{"name":"Pinetops","latitude":"35.78849000","longitude":"-77.63775000"},{"name":"Pineville","latitude":"35.08320000","longitude":"-80.89230000"},{"name":"Piney Green","latitude":"34.71600000","longitude":"-77.32024000"},{"name":"Pitt County","latitude":"35.59352000","longitude":"-77.37465000"},{"name":"Pittsboro","latitude":"35.72015000","longitude":"-79.17724000"},{"name":"Plain View","latitude":"35.24850000","longitude":"-78.55529000"},{"name":"Pleasant Garden","latitude":"35.96208000","longitude":"-79.76225000"},{"name":"Pleasant Hill","latitude":"35.87347000","longitude":"-79.48169000"},{"name":"Plymouth","latitude":"35.86683000","longitude":"-76.74856000"},{"name":"Polk County","latitude":"35.27929000","longitude":"-82.16967000"},{"name":"Polkton","latitude":"35.00765000","longitude":"-80.20089000"},{"name":"Princeton","latitude":"35.46599000","longitude":"-78.16055000"},{"name":"Princeville","latitude":"35.88960000","longitude":"-77.53219000"},{"name":"Pumpkin Center","latitude":"34.79155000","longitude":"-77.37246000"},{"name":"Raeford","latitude":"34.98100000","longitude":"-79.22420000"},{"name":"Raleigh","latitude":"35.77210000","longitude":"-78.63861000"},{"name":"Ramseur","latitude":"35.73347000","longitude":"-79.65253000"},{"name":"Randleman","latitude":"35.81791000","longitude":"-79.80309000"},{"name":"Randolph County","latitude":"35.71033000","longitude":"-79.80616000"},{"name":"Ranlo","latitude":"35.28625000","longitude":"-81.13035000"},{"name":"Red Oak","latitude":"36.03849000","longitude":"-77.90637000"},{"name":"Red Springs","latitude":"34.81516000","longitude":"-79.18309000"},{"name":"Reidsville","latitude":"36.35486000","longitude":"-79.66447000"},{"name":"Rhodhiss","latitude":"35.77402000","longitude":"-81.43120000"},{"name":"Richlands","latitude":"34.89933000","longitude":"-77.54663000"},{"name":"Richmond County","latitude":"35.00594000","longitude":"-79.74783000"},{"name":"River Bend","latitude":"35.06905000","longitude":"-77.14690000"},{"name":"River Road","latitude":"35.50683000","longitude":"-76.99078000"},{"name":"Roanoke Rapids","latitude":"36.46154000","longitude":"-77.65415000"},{"name":"Robbins","latitude":"35.43403000","longitude":"-79.58697000"},{"name":"Robbinsville","latitude":"35.32287000","longitude":"-83.80740000"},{"name":"Robersonville","latitude":"35.82516000","longitude":"-77.24913000"},{"name":"Robeson County","latitude":"34.64009000","longitude":"-79.10353000"},{"name":"Rockfish","latitude":"34.99266000","longitude":"-79.06614000"},{"name":"Rockingham","latitude":"34.93932000","longitude":"-79.77395000"},{"name":"Rockingham County","latitude":"36.39608000","longitude":"-79.77515000"},{"name":"Rockwell","latitude":"35.55125000","longitude":"-80.40645000"},{"name":"Rocky Mount","latitude":"35.93821000","longitude":"-77.79053000"},{"name":"Rocky Point","latitude":"34.43517000","longitude":"-77.88776000"},{"name":"Rolesville","latitude":"35.92321000","longitude":"-78.45750000"},{"name":"Rose Hill","latitude":"34.82822000","longitude":"-78.02304000"},{"name":"Roseboro","latitude":"34.95295000","longitude":"-78.50862000"},{"name":"Rowan County","latitude":"35.63954000","longitude":"-80.52464000"},{"name":"Rowland","latitude":"34.53655000","longitude":"-79.29143000"},{"name":"Roxboro","latitude":"36.39375000","longitude":"-78.98279000"},{"name":"Royal Pines","latitude":"35.47511000","longitude":"-82.51595000"},{"name":"Rural Hall","latitude":"36.24042000","longitude":"-80.29338000"},{"name":"Rutherford College","latitude":"35.74846000","longitude":"-81.52259000"},{"name":"Rutherford County","latitude":"35.40225000","longitude":"-81.92009000"},{"name":"Rutherfordton","latitude":"35.36929000","longitude":"-81.95677000"},{"name":"Saint James","latitude":"33.92934000","longitude":"-78.11638000"},{"name":"Saint Pauls","latitude":"34.80655000","longitude":"-78.97114000"},{"name":"Saint Stephens","latitude":"35.76458000","longitude":"-81.27314000"},{"name":"Salem","latitude":"35.69874000","longitude":"-81.69704000"},{"name":"Salisbury","latitude":"35.67097000","longitude":"-80.47423000"},{"name":"Sampson County","latitude":"34.99163000","longitude":"-78.37152000"},{"name":"Sanford","latitude":"35.47988000","longitude":"-79.18030000"},{"name":"Sawmills","latitude":"35.82485000","longitude":"-81.47454000"},{"name":"Saxapahaw","latitude":"35.94736000","longitude":"-79.32196000"},{"name":"Scotland County","latitude":"34.84090000","longitude":"-79.48043000"},{"name":"Scotland Neck","latitude":"36.12960000","longitude":"-77.42025000"},{"name":"Scotts Mill","latitude":"35.72666000","longitude":"-78.88390000"},{"name":"Sea Breeze","latitude":"34.06323000","longitude":"-77.89137000"},{"name":"Seagate","latitude":"34.20934000","longitude":"-77.84359000"},{"name":"Selma","latitude":"35.53655000","longitude":"-78.28444000"},{"name":"Seven Lakes","latitude":"35.27849000","longitude":"-79.56448000"},{"name":"Shallotte","latitude":"33.97323000","longitude":"-78.38584000"},{"name":"Sharpsburg","latitude":"35.86710000","longitude":"-77.82915000"},{"name":"Shelby","latitude":"35.29235000","longitude":"-81.53565000"},{"name":"Sherrills Ford","latitude":"35.62041000","longitude":"-80.98647000"},{"name":"Siler City","latitude":"35.72347000","longitude":"-79.46224000"},{"name":"Silver Lake","latitude":"34.14878000","longitude":"-77.91360000"},{"name":"Skippers Corner","latitude":"34.34600000","longitude":"-77.90249000"},{"name":"Smithfield","latitude":"35.50849000","longitude":"-78.33945000"},{"name":"Sneads Ferry","latitude":"34.55267000","longitude":"-77.39718000"},{"name":"Snow Hill","latitude":"35.45155000","longitude":"-77.68109000"},{"name":"South Gastonia","latitude":"35.21930000","longitude":"-81.20563000"},{"name":"South Henderson","latitude":"36.30820000","longitude":"-78.40666000"},{"name":"South Rosemary","latitude":"36.45154000","longitude":"-77.69720000"},{"name":"Southern Pines","latitude":"35.17405000","longitude":"-79.39225000"},{"name":"Southern Shores","latitude":"36.13905000","longitude":"-75.73157000"},{"name":"Southmont","latitude":"35.66792000","longitude":"-80.26700000"},{"name":"Southport","latitude":"33.92156000","longitude":"-78.02027000"},{"name":"Sparta","latitude":"36.50541000","longitude":"-81.12092000"},{"name":"Spencer","latitude":"35.69236000","longitude":"-80.43478000"},{"name":"Spindale","latitude":"35.36012000","longitude":"-81.92927000"},{"name":"Spring Hope","latitude":"35.94515000","longitude":"-78.11193000"},{"name":"Spring Lake","latitude":"35.16794000","longitude":"-78.97281000"},{"name":"Spruce Pine","latitude":"35.91540000","longitude":"-82.06456000"},{"name":"Stallings","latitude":"35.09070000","longitude":"-80.68618000"},{"name":"Stanfield","latitude":"35.23348000","longitude":"-80.42701000"},{"name":"Stanley","latitude":"35.35903000","longitude":"-81.09702000"},{"name":"Stanly County","latitude":"35.31199000","longitude":"-80.25092000"},{"name":"Statesville","latitude":"35.78264000","longitude":"-80.88730000"},{"name":"Stedman","latitude":"35.01350000","longitude":"-78.69391000"},{"name":"Stokes County","latitude":"36.40190000","longitude":"-80.23961000"},{"name":"Stokesdale","latitude":"36.23708000","longitude":"-79.97948000"},{"name":"Stoneville","latitude":"36.46653000","longitude":"-79.90698000"},{"name":"Stony Point","latitude":"35.86347000","longitude":"-81.04730000"},{"name":"Summerfield","latitude":"36.20875000","longitude":"-79.90476000"},{"name":"Sunset Beach","latitude":"33.88073000","longitude":"-78.51223000"},{"name":"Surf City","latitude":"34.42711000","longitude":"-77.54608000"},{"name":"Surry County","latitude":"36.41468000","longitude":"-80.68749000"},{"name":"Swain County","latitude":"35.48673000","longitude":"-83.49274000"},{"name":"Swannanoa","latitude":"35.59789000","longitude":"-82.39984000"},{"name":"Swanquarter","latitude":"35.40628000","longitude":"-76.32909000"},{"name":"Swansboro","latitude":"34.68766000","longitude":"-77.11912000"},{"name":"Swepsonville","latitude":"36.02125000","longitude":"-79.36141000"},{"name":"Sylva","latitude":"35.37371000","longitude":"-83.22598000"},{"name":"Tabor City","latitude":"34.14878000","longitude":"-78.87669000"},{"name":"Tarboro","latitude":"35.89682000","longitude":"-77.53580000"},{"name":"Taylorsville","latitude":"35.92180000","longitude":"-81.17647000"},{"name":"Thomasville","latitude":"35.88264000","longitude":"-80.08199000"},{"name":"Thurmond","latitude":"36.36652000","longitude":"-80.92841000"},{"name":"Toast","latitude":"36.50041000","longitude":"-80.62645000"},{"name":"Tobaccoville","latitude":"36.23819000","longitude":"-80.37144000"},{"name":"Transylvania County","latitude":"35.20215000","longitude":"-82.79830000"},{"name":"Trent Woods","latitude":"35.08210000","longitude":"-77.08634000"},{"name":"Trenton","latitude":"35.06710000","longitude":"-77.35274000"},{"name":"Trinity","latitude":"35.89458000","longitude":"-79.99087000"},{"name":"Troutman","latitude":"35.70069000","longitude":"-80.88813000"},{"name":"Troy","latitude":"35.35847000","longitude":"-79.89449000"},{"name":"Tryon","latitude":"35.33986000","longitude":"-81.32203000"},{"name":"Tyro","latitude":"35.80903000","longitude":"-80.37283000"},{"name":"Tyrrell County","latitude":"35.87018000","longitude":"-76.17005000"},{"name":"Union County","latitude":"34.98837000","longitude":"-80.53073000"},{"name":"Unionville","latitude":"35.08737000","longitude":"-80.50896000"},{"name":"Valdese","latitude":"35.74069000","longitude":"-81.56315000"},{"name":"Valley Hill","latitude":"35.29845000","longitude":"-82.48318000"},{"name":"Vance County","latitude":"36.36476000","longitude":"-78.40833000"},{"name":"Vander","latitude":"35.03211000","longitude":"-78.79474000"},{"name":"Wadesboro","latitude":"34.96821000","longitude":"-80.07673000"},{"name":"Wake County","latitude":"35.79012000","longitude":"-78.65022000"},{"name":"Wake Forest","latitude":"35.97987000","longitude":"-78.50972000"},{"name":"Walkertown","latitude":"36.17541000","longitude":"-80.15310000"},{"name":"Wallace","latitude":"34.73572000","longitude":"-77.99526000"},{"name":"Wallburg","latitude":"36.01014000","longitude":"-80.13921000"},{"name":"Walnut Cove","latitude":"36.29541000","longitude":"-80.14171000"},{"name":"Wanchese","latitude":"35.84267000","longitude":"-75.63851000"},{"name":"Warren County","latitude":"36.39659000","longitude":"-78.10690000"},{"name":"Warrenton","latitude":"36.39848000","longitude":"-78.15527000"},{"name":"Warsaw","latitude":"34.99933000","longitude":"-78.09110000"},{"name":"Washington","latitude":"35.54655000","longitude":"-77.05217000"},{"name":"Washington County","latitude":"35.83887000","longitude":"-76.56868000"},{"name":"Watauga County","latitude":"36.23110000","longitude":"-81.69637000"},{"name":"Waxhaw","latitude":"34.92459000","longitude":"-80.74340000"},{"name":"Wayne County","latitude":"35.36378000","longitude":"-78.00415000"},{"name":"Waynesville","latitude":"35.48871000","longitude":"-82.98875000"},{"name":"Weaverville","latitude":"35.69705000","longitude":"-82.56069000"},{"name":"Weddington","latitude":"35.02237000","longitude":"-80.76090000"},{"name":"Welcome","latitude":"35.90292000","longitude":"-80.25699000"},{"name":"Weldon","latitude":"36.42710000","longitude":"-77.59553000"},{"name":"Wendell","latitude":"35.78099000","longitude":"-78.36972000"},{"name":"Wentworth","latitude":"36.40014000","longitude":"-79.77448000"},{"name":"Wesley Chapel","latitude":"35.00709000","longitude":"-80.67451000"},{"name":"West Canton","latitude":"35.53788000","longitude":"-82.85819000"},{"name":"West Jefferson","latitude":"36.40374000","longitude":"-81.49288000"},{"name":"West Marion","latitude":"35.65790000","longitude":"-82.02539000"},{"name":"West Raleigh","latitude":"35.78682000","longitude":"-78.66389000"},{"name":"Westport","latitude":"35.50125000","longitude":"-80.97869000"},{"name":"Whispering Pines","latitude":"35.25571000","longitude":"-79.37225000"},{"name":"White Plains","latitude":"36.44569000","longitude":"-80.63340000"},{"name":"Whiteville","latitude":"34.33878000","longitude":"-78.70307000"},{"name":"Wilkes County","latitude":"36.20621000","longitude":"-81.16292000"},{"name":"Wilkesboro","latitude":"36.14596000","longitude":"-81.16064000"},{"name":"Williamston","latitude":"35.85460000","longitude":"-77.05551000"},{"name":"Wilmington","latitude":"34.22573000","longitude":"-77.94471000"},{"name":"Wilson","latitude":"35.72127000","longitude":"-77.91554000"},{"name":"Wilson County","latitude":"35.70503000","longitude":"-77.91862000"},{"name":"Wilsons Mills","latitude":"35.58405000","longitude":"-78.35583000"},{"name":"Windsor","latitude":"35.99849000","longitude":"-76.94606000"},{"name":"Wingate","latitude":"34.98432000","longitude":"-80.44923000"},{"name":"Winston-Salem","latitude":"36.09986000","longitude":"-80.24422000"},{"name":"Winterville","latitude":"35.52905000","longitude":"-77.40108000"},{"name":"Winton","latitude":"36.39571000","longitude":"-76.93190000"},{"name":"Woodfin","latitude":"35.63344000","longitude":"-82.58207000"},{"name":"Wrightsboro","latitude":"34.28850000","longitude":"-77.92110000"},{"name":"Wrightsville Beach","latitude":"34.20850000","longitude":"-77.79637000"},{"name":"Yadkin County","latitude":"36.16054000","longitude":"-80.66534000"},{"name":"Yadkinville","latitude":"36.13458000","longitude":"-80.65951000"},{"name":"Yancey County","latitude":"35.89888000","longitude":"-82.30755000"},{"name":"Yanceyville","latitude":"36.40403000","longitude":"-79.33613000"},{"name":"Youngsville","latitude":"36.02487000","longitude":"-78.47444000"},{"name":"Zebulon","latitude":"35.82432000","longitude":"-78.31472000"}]