[{"name":"Anamorós","latitude":"13.74056000","longitude":"-87.87361000"},{"name":"Conchagua","latitude":"13.30778000","longitude":"-87.86472000"},{"name":"Intipucá","latitude":"13.19694000","longitude":"-88.05444000"},{"name":"La Unión","latitude":"13.33694000","longitude":"-87.84389000"},{"name":"Nueva Esparta","latitude":"13.78361000","longitude":"-87.83861000"},{"name":"Pasaquina","latitude":"13.58444000","longitude":"-87.84111000"},{"name":"San Alejo","latitude":"13.43139000","longitude":"-87.96306000"},{"name":"Santa Rosa de Lima","latitude":"13.62472000","longitude":"-87.89361000"}]