[{"name":"Abingdon","latitude":"36.70983000","longitude":"-81.97735000"},{"name":"Accomac","latitude":"37.71957000","longitude":"-75.66548000"},{"name":"Accomack County","latitude":"37.76494000","longitude":"-75.75656000"},{"name":"Adwolf","latitude":"36.78928000","longitude":"-81.58206000"},{"name":"Albemarle County","latitude":"38.02289000","longitude":"-78.55654000"},{"name":"Alexandria","latitude":"38.80484000","longitude":"-77.04692000"},{"name":"Alleghany County","latitude":"37.78760000","longitude":"-80.00699000"},{"name":"Altavista","latitude":"37.11181000","longitude":"-79.28558000"},{"name":"Amelia County","latitude":"37.33603000","longitude":"-77.97614000"},{"name":"Amelia Court House","latitude":"37.34293000","longitude":"-77.98056000"},{"name":"Amherst","latitude":"37.58514000","longitude":"-79.05141000"},{"name":"Amherst County","latitude":"37.60477000","longitude":"-79.14511000"},{"name":"Annandale","latitude":"38.83039000","longitude":"-77.19637000"},{"name":"Appalachia","latitude":"36.90676000","longitude":"-82.78183000"},{"name":"Apple Mountain Lake","latitude":"38.92428000","longitude":"-78.10139000"},{"name":"Appomattox","latitude":"37.35709000","longitude":"-78.82529000"},{"name":"Appomattox County","latitude":"37.37229000","longitude":"-78.81212000"},{"name":"Aquia Harbour","latitude":"38.46262000","longitude":"-77.38887000"},{"name":"Arlington","latitude":"38.88101000","longitude":"-77.10428000"},{"name":"Arlington County","latitude":"38.87862000","longitude":"-77.10096000"},{"name":"Ashburn","latitude":"39.04372000","longitude":"-77.48749000"},{"name":"Ashland","latitude":"37.75903000","longitude":"-77.47998000"},{"name":"Atkins","latitude":"36.86734000","longitude":"-81.42344000"},{"name":"Augusta County","latitude":"38.16452000","longitude":"-79.13383000"},{"name":"Baileys Crossroads","latitude":"38.85039000","longitude":"-77.12970000"},{"name":"Bassett","latitude":"36.75930000","longitude":"-79.99032000"},{"name":"Basye","latitude":"38.80706000","longitude":"-78.79224000"},{"name":"Bath County","latitude":"38.05869000","longitude":"-79.74109000"},{"name":"Bealeton","latitude":"38.57179000","longitude":"-77.76388000"},{"name":"Bedford","latitude":"37.33431000","longitude":"-79.52309000"},{"name":"Bedford County","latitude":"37.31494000","longitude":"-79.52422000"},{"name":"Belle Haven","latitude":"38.78539000","longitude":"-77.06303000"},{"name":"Bellwood","latitude":"37.42181000","longitude":"-77.43748000"},{"name":"Belmont","latitude":"39.06483000","longitude":"-77.50999000"},{"name":"Belmont Estates","latitude":"38.45271000","longitude":"-78.91979000"},{"name":"Bensley","latitude":"37.44681000","longitude":"-77.44332000"},{"name":"Berryville","latitude":"39.15177000","longitude":"-77.98222000"},{"name":"Big Stone Gap","latitude":"36.88176000","longitude":"-82.74710000"},{"name":"Blacksburg","latitude":"37.22957000","longitude":"-80.41394000"},{"name":"Blackstone","latitude":"37.08043000","longitude":"-77.99723000"},{"name":"Bland","latitude":"37.10206000","longitude":"-81.11620000"},{"name":"Bland County","latitude":"37.13397000","longitude":"-81.13028000"},{"name":"Blue Ridge","latitude":"37.37847000","longitude":"-79.80698000"},{"name":"Bluefield","latitude":"37.25262000","longitude":"-81.27121000"},{"name":"Bon Air","latitude":"37.52487000","longitude":"-77.55777000"},{"name":"Boswell's Corner","latitude":"38.50541000","longitude":"-77.37263000"},{"name":"Botetourt County","latitude":"37.55712000","longitude":"-79.81233000"},{"name":"Bowling Green","latitude":"38.04958000","longitude":"-77.34665000"},{"name":"Boydton","latitude":"36.66764000","longitude":"-78.38750000"},{"name":"Bracey","latitude":"36.59959000","longitude":"-78.14305000"},{"name":"Brambleton","latitude":"38.98205000","longitude":"-77.53860000"},{"name":"Brandermill","latitude":"37.43209000","longitude":"-77.64971000"},{"name":"Bridgewater","latitude":"38.38207000","longitude":"-78.97670000"},{"name":"Brightwood","latitude":"38.42152000","longitude":"-78.19361000"},{"name":"Bristol","latitude":"36.59649000","longitude":"-82.18847000"},{"name":"Broadlands","latitude":"39.01816000","longitude":"-77.52027000"},{"name":"Broadway","latitude":"38.61317000","longitude":"-78.79891000"},{"name":"Brookneal","latitude":"37.05014000","longitude":"-78.94418000"},{"name":"Brunswick County","latitude":"36.76478000","longitude":"-77.85902000"},{"name":"Buchanan","latitude":"37.52736000","longitude":"-79.67976000"},{"name":"Buchanan County","latitude":"37.26663000","longitude":"-82.03603000"},{"name":"Buckhall","latitude":"38.73178000","longitude":"-77.43110000"},{"name":"Buckingham","latitude":"37.55015000","longitude":"-78.55556000"},{"name":"Buckingham County","latitude":"37.57224000","longitude":"-78.52871000"},{"name":"Buena Vista","latitude":"37.73430000","longitude":"-79.35392000"},{"name":"Bull Run","latitude":"38.78373000","longitude":"-77.52055000"},{"name":"Bull Run Mountain Estates","latitude":"38.90372000","longitude":"-77.66166000"},{"name":"Burke","latitude":"38.79345000","longitude":"-77.27165000"},{"name":"Campbell County","latitude":"37.20564000","longitude":"-79.09635000"},{"name":"Cana","latitude":"36.58958000","longitude":"-80.67173000"},{"name":"Cape Charles","latitude":"37.27008000","longitude":"-76.01649000"},{"name":"Captains Cove","latitude":"37.98996000","longitude":"-75.42272000"},{"name":"Caroline County","latitude":"38.02682000","longitude":"-77.34696000"},{"name":"Carroll County","latitude":"36.73154000","longitude":"-80.73390000"},{"name":"Carrollton","latitude":"36.94682000","longitude":"-76.56051000"},{"name":"Castlewood","latitude":"36.89010000","longitude":"-82.27959000"},{"name":"Cave Spring","latitude":"37.22764000","longitude":"-80.01282000"},{"name":"Cedar Bluff","latitude":"37.08761000","longitude":"-81.75900000"},{"name":"Central Garage","latitude":"37.74403000","longitude":"-77.13164000"},{"name":"Centreville","latitude":"38.84039000","longitude":"-77.42888000"},{"name":"Chamberlayne","latitude":"37.62653000","longitude":"-77.42859000"},{"name":"Chantilly","latitude":"38.89428000","longitude":"-77.43110000"},{"name":"Charles City","latitude":"37.34348000","longitude":"-77.07303000"},{"name":"Charles City County","latitude":"37.35435000","longitude":"-77.05913000"},{"name":"Charlotte County","latitude":"37.01161000","longitude":"-78.66164000"},{"name":"Charlotte Court House","latitude":"37.05654000","longitude":"-78.63833000"},{"name":"Charlottesville","latitude":"38.02931000","longitude":"-78.47668000"},{"name":"Chase City","latitude":"36.79931000","longitude":"-78.45833000"},{"name":"Chatham","latitude":"36.82569000","longitude":"-79.39808000"},{"name":"Chatmoss","latitude":"36.65680000","longitude":"-79.81226000"},{"name":"Cherry Hill","latitude":"38.56984000","longitude":"-77.26693000"},{"name":"Chesapeake","latitude":"36.81904000","longitude":"-76.27494000"},{"name":"Chester","latitude":"37.35682000","longitude":"-77.44165000"},{"name":"Chesterfield County","latitude":"37.37852000","longitude":"-77.58694000"},{"name":"Chesterfield Court House","latitude":"37.37709000","longitude":"-77.50499000"},{"name":"Chilhowie","latitude":"36.79845000","longitude":"-81.68234000"},{"name":"Chincoteague","latitude":"37.93318000","longitude":"-75.37881000"},{"name":"Christiansburg","latitude":"37.12985000","longitude":"-80.40894000"},{"name":"City of Alexandria","latitude":"38.80484000","longitude":"-77.04692000"},{"name":"City of Bedford","latitude":"37.33431000","longitude":"-79.52309000"},{"name":"City of Bristol","latitude":"36.59649000","longitude":"-82.18847000"},{"name":"City of Buena Vista","latitude":"37.73430000","longitude":"-79.35392000"},{"name":"City of Charlottesville","latitude":"38.02931000","longitude":"-78.47668000"},{"name":"City of Chesapeake","latitude":"36.68765000","longitude":"-76.31216000"},{"name":"City of Colonial Heights","latitude":"37.24404000","longitude":"-77.41026000"},{"name":"City of Covington","latitude":"37.79346000","longitude":"-79.99395000"},{"name":"City of Danville","latitude":"36.58597000","longitude":"-79.39502000"},{"name":"City of Emporia","latitude":"36.68598000","longitude":"-77.54248000"},{"name":"City of Fairfax","latitude":"38.84622000","longitude":"-77.30637000"},{"name":"City of Falls Church","latitude":"38.88233000","longitude":"-77.17109000"},{"name":"City of Franklin","latitude":"36.67765000","longitude":"-76.92246000"},{"name":"City of Fredericksburg","latitude":"38.30318000","longitude":"-77.46054000"},{"name":"City of Galax","latitude":"36.66124000","longitude":"-80.92397000"},{"name":"City of Hampton","latitude":"37.06265000","longitude":"-76.33300000"},{"name":"City of Harrisonburg","latitude":"38.44957000","longitude":"-78.86892000"},{"name":"City of Hopewell","latitude":"37.30432000","longitude":"-77.28720000"},{"name":"City of Lexington","latitude":"37.77309000","longitude":"-79.45244000"},{"name":"City of Lynchburg","latitude":"37.41375000","longitude":"-79.14225000"},{"name":"City of Manassas","latitude":"38.75095000","longitude":"-77.47527000"},{"name":"City of Manassas Park","latitude":"38.78400000","longitude":"-77.46971000"},{"name":"City of Martinsville","latitude":"36.69153000","longitude":"-79.87254000"},{"name":"City of Newport News","latitude":"37.06265000","longitude":"-76.50801000"},{"name":"City of Norfolk","latitude":"36.89126000","longitude":"-76.26188000"},{"name":"City of Norton","latitude":"36.93343000","longitude":"-82.62905000"},{"name":"City of Petersburg","latitude":"37.22793000","longitude":"-77.40193000"},{"name":"City of Poquoson","latitude":"37.12237000","longitude":"-76.34578000"},{"name":"City of Portsmouth","latitude":"36.83649000","longitude":"-76.30795000"},{"name":"City of Radford","latitude":"37.13179000","longitude":"-80.57645000"},{"name":"City of Richmond","latitude":"37.55376000","longitude":"-77.46026000"},{"name":"City of Roanoke","latitude":"37.27097000","longitude":"-79.94143000"},{"name":"City of Salem","latitude":"37.29347000","longitude":"-80.05476000"},{"name":"City of Staunton","latitude":"38.14931000","longitude":"-79.05963000"},{"name":"City of Suffolk","latitude":"36.70848000","longitude":"-76.60801000"},{"name":"City of Virginia Beach","latitude":"36.73765000","longitude":"-76.00521000"},{"name":"City of Waynesboro","latitude":"38.06847000","longitude":"-78.88947000"},{"name":"City of Williamsburg","latitude":"37.27070000","longitude":"-76.70746000"},{"name":"City of Winchester","latitude":"39.18566000","longitude":"-78.16333000"},{"name":"Clarke County","latitude":"39.11226000","longitude":"-77.99673000"},{"name":"Clarksville","latitude":"36.62403000","longitude":"-78.55694000"},{"name":"Claypool Hill","latitude":"37.06261000","longitude":"-81.75178000"},{"name":"Clifton Forge","latitude":"37.81624000","longitude":"-79.82449000"},{"name":"Clintwood","latitude":"37.15011000","longitude":"-82.45598000"},{"name":"Cloverdale","latitude":"37.36514000","longitude":"-79.90560000"},{"name":"Coeburn","latitude":"36.94399000","longitude":"-82.46404000"},{"name":"Collinsville","latitude":"36.71514000","longitude":"-79.91532000"},{"name":"Colonial Beach","latitude":"38.25457000","longitude":"-76.96358000"},{"name":"Colonial Heights","latitude":"37.26804000","longitude":"-77.40726000"},{"name":"Concord","latitude":"37.34264000","longitude":"-78.97502000"},{"name":"Countryside","latitude":"39.04094000","longitude":"-77.41360000"},{"name":"Courtland","latitude":"36.71626000","longitude":"-77.06802000"},{"name":"Covington","latitude":"37.79346000","longitude":"-79.99395000"},{"name":"Craig County","latitude":"37.48125000","longitude":"-80.21234000"},{"name":"Crewe","latitude":"37.17321000","longitude":"-78.12333000"},{"name":"Crimora","latitude":"38.15402000","longitude":"-78.85030000"},{"name":"Crozet","latitude":"38.06958000","longitude":"-78.70058000"},{"name":"Culpeper","latitude":"38.47318000","longitude":"-77.99666000"},{"name":"Culpeper County","latitude":"38.48606000","longitude":"-77.95589000"},{"name":"Cumberland","latitude":"37.49598000","longitude":"-78.24527000"},{"name":"Cumberland County","latitude":"37.51210000","longitude":"-78.24496000"},{"name":"Dahlgren","latitude":"38.33124000","longitude":"-77.05109000"},{"name":"Dale City","latitude":"38.63706000","longitude":"-77.31109000"},{"name":"Daleville","latitude":"37.40986000","longitude":"-79.91254000"},{"name":"Danville","latitude":"36.58597000","longitude":"-79.39502000"},{"name":"Dayton","latitude":"38.41485000","longitude":"-78.93864000"},{"name":"Deltaville","latitude":"37.55486000","longitude":"-76.33689000"},{"name":"Dickenson County","latitude":"37.12574000","longitude":"-82.35035000"},{"name":"Dinwiddie County","latitude":"37.07590000","longitude":"-77.63236000"},{"name":"Dooms","latitude":"38.10902000","longitude":"-78.85752000"},{"name":"Dranesville","latitude":"39.00067000","longitude":"-77.34582000"},{"name":"Dryden","latitude":"36.77759000","longitude":"-82.94155000"},{"name":"Dublin","latitude":"37.10568000","longitude":"-80.68534000"},{"name":"Dulles Town Center","latitude":"39.03761000","longitude":"-77.41582000"},{"name":"Dumbarton","latitude":"37.60376000","longitude":"-77.49137000"},{"name":"Dumfries","latitude":"38.56762000","longitude":"-77.32804000"},{"name":"Dunn Loring","latitude":"38.89344000","longitude":"-77.22165000"},{"name":"East Hampton","latitude":"37.03737000","longitude":"-76.33161000"},{"name":"East Highland Park","latitude":"37.58098000","longitude":"-77.40693000"},{"name":"East Lexington","latitude":"37.79291000","longitude":"-79.42532000"},{"name":"Eastville","latitude":"37.35264000","longitude":"-75.94576000"},{"name":"Edinburg","latitude":"38.82095000","longitude":"-78.56585000"},{"name":"Elkton","latitude":"38.40790000","longitude":"-78.62363000"},{"name":"Emory","latitude":"36.77289000","longitude":"-81.83623000"},{"name":"Emporia","latitude":"36.68598000","longitude":"-77.54248000"},{"name":"Enon","latitude":"37.33070000","longitude":"-77.32276000"},{"name":"Essex County","latitude":"37.93906000","longitude":"-76.94090000"},{"name":"Ettrick","latitude":"37.24015000","longitude":"-77.42998000"},{"name":"Exmore","latitude":"37.53180000","longitude":"-75.82299000"},{"name":"Fairfax","latitude":"38.84622000","longitude":"-77.30637000"},{"name":"Fairfax County","latitude":"38.83469000","longitude":"-77.27622000"},{"name":"Fairfax Station","latitude":"38.80095000","longitude":"-77.32554000"},{"name":"Fairlawn","latitude":"37.14846000","longitude":"-80.57839000"},{"name":"Falls Church","latitude":"38.88233000","longitude":"-77.17109000"},{"name":"Falmouth","latitude":"38.32402000","longitude":"-77.46832000"},{"name":"Farmville","latitude":"37.30210000","longitude":"-78.39194000"},{"name":"Fauquier County","latitude":"38.73855000","longitude":"-77.80927000"},{"name":"Ferrum","latitude":"36.92292000","longitude":"-80.01337000"},{"name":"Fincastle","latitude":"37.49930000","longitude":"-79.87726000"},{"name":"Fishersville","latitude":"38.09902000","longitude":"-78.96919000"},{"name":"Floris","latitude":"38.93706000","longitude":"-77.41277000"},{"name":"Floyd","latitude":"36.91124000","longitude":"-80.32005000"},{"name":"Floyd County","latitude":"36.93149000","longitude":"-80.36255000"},{"name":"Fluvanna County","latitude":"37.84187000","longitude":"-78.27745000"},{"name":"Forest","latitude":"37.36375000","longitude":"-79.28975000"},{"name":"Fort Belvoir","latitude":"38.71190000","longitude":"-77.14589000"},{"name":"Fort Hunt","latitude":"38.73289000","longitude":"-77.05803000"},{"name":"Fort Lee","latitude":"37.24694000","longitude":"-77.33442000"},{"name":"Franconia","latitude":"38.78206000","longitude":"-77.14637000"},{"name":"Franklin","latitude":"36.67765000","longitude":"-76.92246000"},{"name":"Franklin County","latitude":"36.99194000","longitude":"-79.88104000"},{"name":"Frederick County","latitude":"39.20456000","longitude":"-78.26258000"},{"name":"Fredericksburg","latitude":"38.30318000","longitude":"-77.46054000"},{"name":"Front Royal","latitude":"38.91817000","longitude":"-78.19444000"},{"name":"Gainesville","latitude":"38.79567000","longitude":"-77.61388000"},{"name":"Galax","latitude":"36.66124000","longitude":"-80.92397000"},{"name":"Gate City","latitude":"36.63788000","longitude":"-82.58099000"},{"name":"Giles County","latitude":"37.31403000","longitude":"-80.70374000"},{"name":"Glade Spring","latitude":"36.79122000","longitude":"-81.77123000"},{"name":"Glasgow","latitude":"37.63402000","longitude":"-79.45031000"},{"name":"Glen Allen","latitude":"37.66598000","longitude":"-77.50637000"},{"name":"Gloucester County","latitude":"37.40121000","longitude":"-76.52297000"},{"name":"Gloucester Courthouse","latitude":"37.40986000","longitude":"-76.52662000"},{"name":"Gloucester Point","latitude":"37.25403000","longitude":"-76.49689000"},{"name":"Goochland","latitude":"37.68431000","longitude":"-77.88527000"},{"name":"Goochland County","latitude":"37.72198000","longitude":"-77.91636000"},{"name":"Gordonsville","latitude":"38.13736000","longitude":"-78.18778000"},{"name":"Grayson County","latitude":"36.65659000","longitude":"-81.22505000"},{"name":"Great Falls","latitude":"38.99817000","longitude":"-77.28832000"},{"name":"Greenbriar","latitude":"38.87345000","longitude":"-77.40082000"},{"name":"Greene County","latitude":"38.29760000","longitude":"-78.46688000"},{"name":"Greensville County","latitude":"36.67585000","longitude":"-77.55958000"},{"name":"Gretna","latitude":"36.95375000","longitude":"-79.35891000"},{"name":"Grottoes","latitude":"38.26735000","longitude":"-78.82586000"},{"name":"Groveton","latitude":"38.76734000","longitude":"-77.08470000"},{"name":"Grundy","latitude":"37.27789000","longitude":"-82.09902000"},{"name":"Halifax","latitude":"36.76597000","longitude":"-78.92834000"},{"name":"Halifax County","latitude":"36.76695000","longitude":"-78.93662000"},{"name":"Hampden Sydney","latitude":"37.24237000","longitude":"-78.45972000"},{"name":"Hampton","latitude":"37.02987000","longitude":"-76.34522000"},{"name":"Hanover","latitude":"37.76653000","longitude":"-77.37026000"},{"name":"Hanover County","latitude":"37.76015000","longitude":"-77.49087000"},{"name":"Harrisonburg","latitude":"38.44957000","longitude":"-78.86892000"},{"name":"Hayfield","latitude":"38.75178000","longitude":"-77.13581000"},{"name":"Haymarket","latitude":"38.81206000","longitude":"-77.63638000"},{"name":"Heathsville","latitude":"37.91763000","longitude":"-76.47217000"},{"name":"Henrico County","latitude":"37.45771000","longitude":"-77.29646000"},{"name":"Henry County","latitude":"36.68470000","longitude":"-79.98152000"},{"name":"Henry Fork","latitude":"36.96625000","longitude":"-79.87031000"},{"name":"Herndon","latitude":"38.96955000","longitude":"-77.38610000"},{"name":"Highland County","latitude":"38.36233000","longitude":"-79.56854000"},{"name":"Highland Springs","latitude":"37.54598000","longitude":"-77.32776000"},{"name":"Hillsville","latitude":"36.76263000","longitude":"-80.73479000"},{"name":"Hollins","latitude":"37.34125000","longitude":"-79.94310000"},{"name":"Hollymead","latitude":"38.11708000","longitude":"-78.44168000"},{"name":"Honaker","latitude":"37.01622000","longitude":"-81.97429000"},{"name":"Hopewell","latitude":"37.30432000","longitude":"-77.28720000"},{"name":"Horse Pasture","latitude":"36.62847000","longitude":"-79.95087000"},{"name":"Huntington","latitude":"38.79234000","longitude":"-77.07081000"},{"name":"Hurt","latitude":"37.09264000","longitude":"-79.29641000"},{"name":"Hybla Valley","latitude":"38.74761000","longitude":"-77.08303000"},{"name":"Idylwood","latitude":"38.89511000","longitude":"-77.21165000"},{"name":"Independence","latitude":"36.62245000","longitude":"-81.15309000"},{"name":"Independent Hill","latitude":"38.63595000","longitude":"-77.43776000"},{"name":"Isle of Wight County","latitude":"36.90673000","longitude":"-76.70913000"},{"name":"James City County","latitude":"37.31332000","longitude":"-76.77376000"},{"name":"Jefferson","latitude":"38.86456000","longitude":"-77.18776000"},{"name":"Jolivue","latitude":"38.10985000","longitude":"-79.07308000"},{"name":"Jonesville","latitude":"36.68898000","longitude":"-83.11100000"},{"name":"Kenbridge","latitude":"36.96209000","longitude":"-78.12500000"},{"name":"Kilmarnock","latitude":"37.71041000","longitude":"-76.37967000"},{"name":"King George","latitude":"38.26818000","longitude":"-77.18442000"},{"name":"King George County","latitude":"38.27374000","longitude":"-77.15651000"},{"name":"King William","latitude":"37.68736000","longitude":"-77.01358000"},{"name":"King William County","latitude":"37.70660000","longitude":"-77.08839000"},{"name":"King and Queen County","latitude":"37.71862000","longitude":"-76.89527000"},{"name":"King and Queen Court House","latitude":"37.66986000","longitude":"-76.87746000"},{"name":"Kings Park","latitude":"38.80622000","longitude":"-77.24332000"},{"name":"Kings Park West","latitude":"38.81443000","longitude":"-77.29582000"},{"name":"Lake Barcroft","latitude":"38.84789000","longitude":"-77.15581000"},{"name":"Lake Monticello","latitude":"37.92320000","longitude":"-78.33473000"},{"name":"Lake Ridge","latitude":"38.68789000","longitude":"-77.29776000"},{"name":"Lakeside","latitude":"37.60765000","longitude":"-77.47693000"},{"name":"Lancaster County","latitude":"37.70171000","longitude":"-76.42023000"},{"name":"Laurel","latitude":"37.64292000","longitude":"-77.50887000"},{"name":"Laurel Hill","latitude":"38.71663000","longitude":"-77.23686000"},{"name":"Lawrenceville","latitude":"36.75765000","longitude":"-77.84694000"},{"name":"Laymantown","latitude":"37.36569000","longitude":"-79.85754000"},{"name":"Lebanon","latitude":"36.90094000","longitude":"-82.08013000"},{"name":"Lee County","latitude":"36.70545000","longitude":"-83.12853000"},{"name":"Leesburg","latitude":"39.11566000","longitude":"-77.56360000"},{"name":"Lexington","latitude":"37.78402000","longitude":"-79.44282000"},{"name":"Lincolnia","latitude":"38.81845000","longitude":"-77.14331000"},{"name":"Linton Hall","latitude":"38.75984000","longitude":"-77.57499000"},{"name":"Loch Lomond","latitude":"38.78623000","longitude":"-77.47804000"},{"name":"Lorton","latitude":"38.70428000","longitude":"-77.22776000"},{"name":"Loudoun County","latitude":"39.09068000","longitude":"-77.63572000"},{"name":"Loudoun Valley Estates","latitude":"38.98081000","longitude":"-77.50790000"},{"name":"Louisa","latitude":"38.02514000","longitude":"-78.00416000"},{"name":"Louisa County","latitude":"37.97821000","longitude":"-77.96298000"},{"name":"Lovettsville","latitude":"39.27260000","longitude":"-77.63666000"},{"name":"Lovingston","latitude":"37.75986000","longitude":"-78.87086000"},{"name":"Lowes Island","latitude":"39.05983000","longitude":"-77.35221000"},{"name":"Lunenburg","latitude":"36.96098000","longitude":"-78.26555000"},{"name":"Lunenburg County","latitude":"36.94621000","longitude":"-78.24057000"},{"name":"Luray","latitude":"38.66540000","longitude":"-78.45945000"},{"name":"Lynchburg","latitude":"37.41375000","longitude":"-79.14225000"},{"name":"Lyndhurst","latitude":"38.02930000","longitude":"-78.94502000"},{"name":"Madison","latitude":"38.38041000","longitude":"-78.25750000"},{"name":"Madison County","latitude":"38.41369000","longitude":"-78.27924000"},{"name":"Madison Heights","latitude":"37.43098000","longitude":"-79.12308000"},{"name":"Manassas","latitude":"38.75095000","longitude":"-77.47527000"},{"name":"Manassas Park","latitude":"38.78400000","longitude":"-77.46971000"},{"name":"Mantua","latitude":"38.85372000","longitude":"-77.25943000"},{"name":"Marion","latitude":"36.83484000","longitude":"-81.51484000"},{"name":"Marshall","latitude":"38.86484000","longitude":"-77.85777000"},{"name":"Martinsville","latitude":"36.69153000","longitude":"-79.87254000"},{"name":"Massanetta Springs","latitude":"38.40040000","longitude":"-78.83419000"},{"name":"Massanutten","latitude":"38.40957000","longitude":"-78.73780000"},{"name":"Mathews","latitude":"37.43708000","longitude":"-76.31994000"},{"name":"Mathews County","latitude":"37.41731000","longitude":"-76.27129000"},{"name":"Matoaca","latitude":"37.23043000","longitude":"-77.47749000"},{"name":"McLean","latitude":"38.93428000","longitude":"-77.17748000"},{"name":"Meadowbrook","latitude":"37.44882000","longitude":"-77.47353000"},{"name":"Mechanicsville","latitude":"37.60876000","longitude":"-77.37331000"},{"name":"Mecklenburg County","latitude":"36.68036000","longitude":"-78.36273000"},{"name":"Merrifield","latitude":"38.87428000","longitude":"-77.22693000"},{"name":"Merrimac","latitude":"37.18957000","longitude":"-80.42561000"},{"name":"Middlesex County","latitude":"37.59737000","longitude":"-76.57814000"},{"name":"Middletown","latitude":"39.02761000","longitude":"-78.28056000"},{"name":"Montclair","latitude":"38.61095000","longitude":"-77.33971000"},{"name":"Monterey","latitude":"38.41234000","longitude":"-79.58060000"},{"name":"Montgomery County","latitude":"37.17404000","longitude":"-80.38700000"},{"name":"Montrose","latitude":"37.52070000","longitude":"-77.37831000"},{"name":"Montross","latitude":"38.09513000","longitude":"-76.82746000"},{"name":"Motley","latitude":"37.06959000","longitude":"-79.34114000"},{"name":"Mount Hermon","latitude":"36.67847000","longitude":"-79.42225000"},{"name":"Mount Jackson","latitude":"38.74595000","longitude":"-78.64224000"},{"name":"Mount Vernon","latitude":"38.71919000","longitude":"-77.10726000"},{"name":"Mountain Road","latitude":"36.75958000","longitude":"-78.98696000"},{"name":"Narrows","latitude":"37.33151000","longitude":"-80.81119000"},{"name":"Nellysford","latitude":"37.89042000","longitude":"-78.87224000"},{"name":"Nelson County","latitude":"37.78741000","longitude":"-78.88676000"},{"name":"New Baltimore","latitude":"38.76734000","longitude":"-77.72833000"},{"name":"New Castle","latitude":"37.50013000","longitude":"-80.11088000"},{"name":"New Kent","latitude":"37.51765000","longitude":"-76.97886000"},{"name":"New Kent County","latitude":"37.50514000","longitude":"-76.99713000"},{"name":"New Market","latitude":"38.64790000","longitude":"-78.67141000"},{"name":"Newington","latitude":"38.73845000","longitude":"-77.18498000"},{"name":"Newport News","latitude":"37.08339000","longitude":"-76.46965000"},{"name":"Nokesville","latitude":"38.69873000","longitude":"-77.57971000"},{"name":"Norfolk","latitude":"36.84681000","longitude":"-76.28522000"},{"name":"North Shore","latitude":"37.08209000","longitude":"-79.65836000"},{"name":"North Springfield","latitude":"38.80428000","longitude":"-77.20470000"},{"name":"Northampton County","latitude":"37.30078000","longitude":"-75.92854000"},{"name":"Northumberland County","latitude":"37.88244000","longitude":"-76.47171000"},{"name":"Norton","latitude":"36.93343000","longitude":"-82.62905000"},{"name":"Nottoway County","latitude":"37.14306000","longitude":"-78.05126000"},{"name":"Oak Grove","latitude":"38.98400000","longitude":"-77.40388000"},{"name":"Oak Hill","latitude":"38.92580000","longitude":"-77.40156000"},{"name":"Oakton","latitude":"38.88095000","longitude":"-77.30082000"},{"name":"Occoquan","latitude":"38.68373000","longitude":"-77.26026000"},{"name":"Onancock","latitude":"37.71180000","longitude":"-75.74910000"},{"name":"Orange","latitude":"38.24541000","longitude":"-78.11083000"},{"name":"Orange County","latitude":"38.24624000","longitude":"-78.01349000"},{"name":"Page County","latitude":"38.61998000","longitude":"-78.48413000"},{"name":"Palmyra","latitude":"37.86097000","longitude":"-78.26334000"},{"name":"Pannill Fork","latitude":"36.70903000","longitude":"-80.01310000"},{"name":"Pantops","latitude":"38.03379000","longitude":"-78.45507000"},{"name":"Passapatanzy","latitude":"38.29735000","longitude":"-77.31415000"},{"name":"Patrick County","latitude":"36.67833000","longitude":"-80.28435000"},{"name":"Patrick Springs","latitude":"36.64180000","longitude":"-80.19505000"},{"name":"Pearisburg","latitude":"37.32673000","longitude":"-80.73702000"},{"name":"Pembroke","latitude":"37.31957000","longitude":"-80.63895000"},{"name":"Pennington Gap","latitude":"36.75842000","longitude":"-83.02711000"},{"name":"Petersburg","latitude":"37.22793000","longitude":"-77.40193000"},{"name":"Pimmit Hills","latitude":"38.91289000","longitude":"-77.20081000"},{"name":"Pittsylvania County","latitude":"36.82133000","longitude":"-79.39711000"},{"name":"Plum Creek","latitude":"37.12984000","longitude":"-80.50060000"},{"name":"Poquoson","latitude":"37.12237000","longitude":"-76.34578000"},{"name":"Portsmouth","latitude":"36.83543000","longitude":"-76.29827000"},{"name":"Portsmouth Heights","latitude":"36.82098000","longitude":"-76.36883000"},{"name":"Potomac Mills","latitude":"38.64595000","longitude":"-77.29415000"},{"name":"Powhatan County","latitude":"37.55020000","longitude":"-77.91519000"},{"name":"Prices Fork","latitude":"37.20985000","longitude":"-80.49005000"},{"name":"Prince Edward County","latitude":"37.22430000","longitude":"-78.44108000"},{"name":"Prince George","latitude":"37.22043000","longitude":"-77.28803000"},{"name":"Prince George County","latitude":"37.18653000","longitude":"-77.22413000"},{"name":"Prince William County","latitude":"38.70167000","longitude":"-77.47766000"},{"name":"Pulaski","latitude":"37.04790000","longitude":"-80.77979000"},{"name":"Pulaski County","latitude":"37.06361000","longitude":"-80.71434000"},{"name":"Purcellville","latitude":"39.13677000","longitude":"-77.71472000"},{"name":"Quantico Station","latitude":"38.52263000","longitude":"-77.31834000"},{"name":"Radford","latitude":"37.13179000","longitude":"-80.57645000"},{"name":"Rappahannock County","latitude":"38.68471000","longitude":"-78.15925000"},{"name":"Raven","latitude":"37.08706000","longitude":"-81.85512000"},{"name":"Ravensworth","latitude":"38.80400000","longitude":"-77.22054000"},{"name":"Reston","latitude":"38.96872000","longitude":"-77.34110000"},{"name":"Richlands","latitude":"37.09317000","longitude":"-81.79373000"},{"name":"Richmond","latitude":"37.55376000","longitude":"-77.46026000"},{"name":"Richmond County","latitude":"37.93705000","longitude":"-76.72968000"},{"name":"Roanoke","latitude":"37.27097000","longitude":"-79.94143000"},{"name":"Roanoke County","latitude":"37.20907000","longitude":"-80.05085000"},{"name":"Rockbridge County","latitude":"37.81461000","longitude":"-79.44758000"},{"name":"Rockingham County","latitude":"38.51213000","longitude":"-78.87576000"},{"name":"Rocky Mount","latitude":"36.99764000","longitude":"-79.89198000"},{"name":"Rose Hill","latitude":"38.78872000","longitude":"-77.11276000"},{"name":"Rosslyn","latitude":"38.89678000","longitude":"-77.07248000"},{"name":"Ruckersville","latitude":"38.23319000","longitude":"-78.36917000"},{"name":"Rural Retreat","latitude":"36.89373000","longitude":"-81.27593000"},{"name":"Rushmere","latitude":"37.06681000","longitude":"-76.67635000"},{"name":"Russell County","latitude":"36.93376000","longitude":"-82.09564000"},{"name":"Rustburg","latitude":"37.27681000","longitude":"-79.10085000"},{"name":"Salem","latitude":"37.29347000","longitude":"-80.05476000"},{"name":"Saltville","latitude":"36.88150000","longitude":"-81.76206000"},{"name":"Saluda","latitude":"37.60597000","longitude":"-76.59495000"},{"name":"Sandston","latitude":"37.52348000","longitude":"-77.31581000"},{"name":"Scott County","latitude":"36.71422000","longitude":"-82.60298000"},{"name":"Seven Corners","latitude":"38.87206000","longitude":"-77.15526000"},{"name":"Shawnee Land","latitude":"39.19149000","longitude":"-78.34556000"},{"name":"Shawsville","latitude":"37.16847000","longitude":"-80.25532000"},{"name":"Shenandoah","latitude":"38.48512000","longitude":"-78.62502000"},{"name":"Shenandoah County","latitude":"38.85839000","longitude":"-78.57060000"},{"name":"Shenandoah Farms","latitude":"38.98178000","longitude":"-78.07555000"},{"name":"Short Pump","latitude":"37.65042000","longitude":"-77.61249000"},{"name":"Smithfield","latitude":"36.98237000","longitude":"-76.63107000"},{"name":"Smyth County","latitude":"36.84388000","longitude":"-81.53702000"},{"name":"South Boston","latitude":"36.69875000","longitude":"-78.90140000"},{"name":"South Hill","latitude":"36.72653000","longitude":"-78.12889000"},{"name":"South Riding","latitude":"38.92094000","longitude":"-77.50388000"},{"name":"South Suffolk","latitude":"36.71709000","longitude":"-76.59023000"},{"name":"Southampton County","latitude":"36.72040000","longitude":"-77.10609000"},{"name":"Southern Gateway","latitude":"38.34507000","longitude":"-77.50352000"},{"name":"Spotsylvania County","latitude":"38.18502000","longitude":"-77.65597000"},{"name":"Spotsylvania Courthouse","latitude":"38.19791000","longitude":"-77.58777000"},{"name":"Springfield","latitude":"38.78928000","longitude":"-77.18720000"},{"name":"Springville","latitude":"37.19651000","longitude":"-81.40288000"},{"name":"Stafford","latitude":"38.42207000","longitude":"-77.40832000"},{"name":"Stafford County","latitude":"38.42070000","longitude":"-77.45743000"},{"name":"Stanardsville","latitude":"38.29735000","longitude":"-78.44001000"},{"name":"Stanley","latitude":"38.57540000","longitude":"-78.50251000"},{"name":"Stanleytown","latitude":"36.74430000","longitude":"-79.96282000"},{"name":"Staunton","latitude":"38.14991000","longitude":"-79.07320000"},{"name":"Stephens City","latitude":"39.08344000","longitude":"-78.21806000"},{"name":"Sterling","latitude":"39.00622000","longitude":"-77.42860000"},{"name":"Strasburg","latitude":"38.98872000","longitude":"-78.35862000"},{"name":"Stuart","latitude":"36.64097000","longitude":"-80.26561000"},{"name":"Stuarts Draft","latitude":"38.03014000","longitude":"-79.03364000"},{"name":"Sudley","latitude":"38.79289000","longitude":"-77.49749000"},{"name":"Suffolk","latitude":"36.72836000","longitude":"-76.58496000"},{"name":"Sugarland Run","latitude":"39.03761000","longitude":"-77.37526000"},{"name":"Surry","latitude":"37.13793000","longitude":"-76.83524000"},{"name":"Surry County","latitude":"37.11691000","longitude":"-76.88831000"},{"name":"Sussex","latitude":"36.91515000","longitude":"-77.27914000"},{"name":"Sussex County","latitude":"36.92175000","longitude":"-77.26179000"},{"name":"Tappahannock","latitude":"37.92541000","longitude":"-76.85913000"},{"name":"Tazewell","latitude":"37.11484000","longitude":"-81.51955000"},{"name":"Tazewell County","latitude":"37.12497000","longitude":"-81.56066000"},{"name":"Timberlake","latitude":"37.32070000","longitude":"-79.25753000"},{"name":"Timberville","latitude":"38.63901000","longitude":"-78.77391000"},{"name":"Triangle","latitude":"38.54679000","longitude":"-77.33665000"},{"name":"Tuckahoe","latitude":"37.59015000","longitude":"-77.55638000"},{"name":"Twin Lakes","latitude":"38.24927000","longitude":"-78.44378000"},{"name":"Tysons Corner","latitude":"38.91872000","longitude":"-77.23109000"},{"name":"Union Hall","latitude":"37.01875000","longitude":"-79.68642000"},{"name":"University Center","latitude":"39.05705000","longitude":"-77.44415000"},{"name":"Verona","latitude":"38.20208000","longitude":"-79.00836000"},{"name":"Victoria","latitude":"36.99487000","longitude":"-78.22722000"},{"name":"Vienna","latitude":"38.90122000","longitude":"-77.26526000"},{"name":"Vinton","latitude":"37.28097000","longitude":"-79.89698000"},{"name":"Virginia Beach","latitude":"36.85293000","longitude":"-75.97799000"},{"name":"Warm Springs","latitude":"38.04624000","longitude":"-79.79061000"},{"name":"Warren County","latitude":"38.90878000","longitude":"-78.20746000"},{"name":"Warrenton","latitude":"38.71345000","longitude":"-77.79527000"},{"name":"Warsaw","latitude":"37.95874000","longitude":"-76.75801000"},{"name":"Washington","latitude":"38.71345000","longitude":"-78.15944000"},{"name":"Washington County","latitude":"36.72448000","longitude":"-81.95966000"},{"name":"Wattsville","latitude":"37.93401000","longitude":"-75.49965000"},{"name":"Waverly","latitude":"37.03598000","longitude":"-77.09524000"},{"name":"Waynesboro","latitude":"38.06847000","longitude":"-78.88947000"},{"name":"Weber City","latitude":"37.75514000","longitude":"-78.28389000"},{"name":"West Falls Church","latitude":"38.89094000","longitude":"-77.18443000"},{"name":"West Gate","latitude":"38.78289000","longitude":"-77.49749000"},{"name":"West Lynchburg","latitude":"37.40320000","longitude":"-79.17808000"},{"name":"West Point","latitude":"37.53153000","longitude":"-76.79635000"},{"name":"West Springfield","latitude":"38.77261000","longitude":"-77.22109000"},{"name":"Westmoreland County","latitude":"38.11282000","longitude":"-76.79991000"},{"name":"Weyers Cave","latitude":"38.28846000","longitude":"-78.91308000"},{"name":"Williamsburg","latitude":"37.27070000","longitude":"-76.70746000"},{"name":"Winchester","latitude":"39.18566000","longitude":"-78.16333000"},{"name":"Windsor","latitude":"36.80848000","longitude":"-76.74412000"},{"name":"Wise","latitude":"36.97593000","longitude":"-82.57571000"},{"name":"Wise County","latitude":"36.97522000","longitude":"-82.62124000"},{"name":"Wolf Trap","latitude":"38.93983000","longitude":"-77.28609000"},{"name":"Woodbridge","latitude":"38.65817000","longitude":"-77.24970000"},{"name":"Woodburn","latitude":"38.84745000","longitude":"-77.23605000"},{"name":"Woodlake","latitude":"37.42106000","longitude":"-77.67931000"},{"name":"Woodlawn","latitude":"36.72235000","longitude":"-80.82285000"},{"name":"Woodstock","latitude":"38.88178000","longitude":"-78.50584000"},{"name":"Wyndham","latitude":"37.69848000","longitude":"-77.61249000"},{"name":"Wythe County","latitude":"36.91713000","longitude":"-81.07859000"},{"name":"Wytheville","latitude":"36.94845000","longitude":"-81.08481000"},{"name":"York County","latitude":"37.22541000","longitude":"-76.52046000"},{"name":"Yorkshire","latitude":"38.79317000","longitude":"-77.44777000"},{"name":"Yorktown","latitude":"37.23876000","longitude":"-76.50967000"}]