[{"name":"Barysh","latitude":"53.65533000","longitude":"47.11229000"},{"name":"Bazarnyy Syzgan","latitude":"53.75117000","longitude":"46.75354000"},{"name":"Cherdaklinskiy Rayon","latitude":"54.25000000","longitude":"48.83333000"},{"name":"Cherdakly","latitude":"54.35940000","longitude":"48.84497000"},{"name":"Chufarovo","latitude":"54.09630000","longitude":"47.33670000"},{"name":"Dimitrovgrad","latitude":"54.21386000","longitude":"49.61838000"},{"name":"Glotovka","latitude":"53.94906000","longitude":"46.70422000"},{"name":"Ignatovka","latitude":"53.94787000","longitude":"47.65360000"},{"name":"Imeni Vladimira Il’icha Lenina","latitude":"53.56422000","longitude":"46.98010000"},{"name":"Inza","latitude":"53.85672000","longitude":"46.35622000"},{"name":"Isheyevka","latitude":"54.42789000","longitude":"48.26675000"},{"name":"Izmaylovo","latitude":"53.72114000","longitude":"47.24581000"},{"name":"Kanadey","latitude":"53.16786000","longitude":"47.52644000"},{"name":"Karsun","latitude":"54.19941000","longitude":"46.98270000"},{"name":"Krasnyy Gulyay","latitude":"54.02821000","longitude":"48.33327000"},{"name":"Kuzovatovo","latitude":"53.54681000","longitude":"47.68659000"},{"name":"Mayna","latitude":"54.11350000","longitude":"47.62310000"},{"name":"Maynskiy Rayon","latitude":"54.16667000","longitude":"47.66667000"},{"name":"Mirnyy","latitude":"54.36607000","longitude":"48.72939000"},{"name":"Mullovka","latitude":"54.20000000","longitude":"49.40000000"},{"name":"Nikolayevka","latitude":"53.12570000","longitude":"47.20410000"},{"name":"Novaya Malykla","latitude":"54.20000000","longitude":"49.95000000"},{"name":"Novaya Mayna","latitude":"54.15000000","longitude":"49.75000000"},{"name":"Novocheremshansk","latitude":"54.35714000","longitude":"50.16662000"},{"name":"Novospasskoye","latitude":"53.14683000","longitude":"47.75138000"},{"name":"Novoul’yanovsk","latitude":"54.14961000","longitude":"48.38907000"},{"name":"Pavlovka","latitude":"52.68966000","longitude":"47.14046000"},{"name":"Pavlovskiy Rayon","latitude":"52.66667000","longitude":"47.08333000"},{"name":"Radishchevo","latitude":"52.85459000","longitude":"47.87644000"},{"name":"Sengiley","latitude":"53.96222000","longitude":"48.79444000"},{"name":"Silikatnyy","latitude":"53.98957000","longitude":"48.32749000"},{"name":"Staraya Kulatka","latitude":"52.72778000","longitude":"47.61788000"},{"name":"Staraya Mayna","latitude":"54.60417000","longitude":"48.93056000"},{"name":"Starokulatkinskiy Rayon","latitude":"52.75000000","longitude":"47.50000000"},{"name":"Starotimoshkino","latitude":"53.71908000","longitude":"47.53116000"},{"name":"Surskoye","latitude":"54.48210000","longitude":"46.72140000"},{"name":"Teren’gul’skiy Rayon","latitude":"53.75000000","longitude":"48.25000000"},{"name":"Tsil’na","latitude":"54.59533000","longitude":"48.14140000"},{"name":"Tsil’ninskiy Rayon","latitude":"54.58333000","longitude":"48.00000000"},{"name":"Ulyanovsk","latitude":"54.32824000","longitude":"48.38657000"},{"name":"Ulyanovskiy Rayon","latitude":"54.33528000","longitude":"48.01694000"},{"name":"Undory","latitude":"54.60849000","longitude":"48.39276000"},{"name":"Veshkayma","latitude":"54.04720000","longitude":"47.13000000"},{"name":"Yazykovo","latitude":"54.29220000","longitude":"47.38910000"},{"name":"Zhadovka","latitude":"53.57464000","longitude":"46.94985000"}]