[{"name":"Adh Dhibiyah","latitude":"26.02700000","longitude":"43.15700000"},{"name":"Al Bukayrīyah","latitude":"26.13915000","longitude":"43.65782000"},{"name":"Al Fuwayliq","latitude":"26.44360000","longitude":"43.25164000"},{"name":"Al Mithnab","latitude":"25.86012000","longitude":"44.22228000"},{"name":"Ar Rass","latitude":"25.86944000","longitude":"43.49730000"},{"name":"Buraydah","latitude":"26.32599000","longitude":"43.97497000"},{"name":"Tanūmah","latitude":"27.10000000","longitude":"44.13333000"},{"name":"Wed Alnkil","latitude":"25.42670000","longitude":"42.83430000"}]