[{"name":"Pagliare","latitude":"42.64372000","longitude":"13.95171000"},{"name":"Paglieta","latitude":"42.16139000","longitude":"14.50306000"},{"name":"Palena","latitude":"41.98353000","longitude":"14.13696000"},{"name":"Palmoli","latitude":"41.93944000","longitude":"14.58142000"},{"name":"Palombaro","latitude":"42.12323000","longitude":"14.22989000"},{"name":"Penna Sant'Andrea","latitude":"42.59403000","longitude":"13.77215000"},{"name":"Pennadomo","latitude":"42.00394000","longitude":"14.32338000"},{"name":"Pennapiedimonte","latitude":"42.15563000","longitude":"14.19432000"},{"name":"Penne","latitude":"42.45474000","longitude":"13.92754000"},{"name":"Perano","latitude":"42.10460000","longitude":"14.39581000"},{"name":"Pereto","latitude":"42.05821000","longitude":"13.10231000"},{"name":"Pescara","latitude":"42.45840000","longitude":"14.20283000"},{"name":"Pescasseroli","latitude":"41.80343000","longitude":"13.78707000"},{"name":"Pescina","latitude":"42.02351000","longitude":"13.65116000"},{"name":"Pescocostanzo","latitude":"41.88722000","longitude":"14.06614000"},{"name":"Pescosansonesco Nuovo","latitude":"42.25524000","longitude":"13.88480000"},{"name":"Pettorano sul Gizio","latitude":"41.97326000","longitude":"13.96001000"},{"name":"Pianella","latitude":"42.39918000","longitude":"14.04781000"},{"name":"Pianola","latitude":"42.32341000","longitude":"13.40394000"},{"name":"Pianura Vomano","latitude":"42.63028000","longitude":"13.91548000"},{"name":"Picciano","latitude":"42.47525000","longitude":"13.98990000"},{"name":"Pietracamela","latitude":"42.52344000","longitude":"13.55431000"},{"name":"Pietraferrazzana","latitude":"41.96943000","longitude":"14.37451000"},{"name":"Pietranico","latitude":"42.27565000","longitude":"13.91077000"},{"name":"Pineto","latitude":"42.60879000","longitude":"14.06639000"},{"name":"Pizzoferrato","latitude":"41.92244000","longitude":"14.23632000"},{"name":"Pizzoli","latitude":"42.43603000","longitude":"13.29886000"},{"name":"Poggio Picenze","latitude":"42.32061000","longitude":"13.54036000"},{"name":"Poggiofiorito","latitude":"42.25414000","longitude":"14.32082000"},{"name":"Pollutri","latitude":"42.13784000","longitude":"14.59172000"},{"name":"Popoli","latitude":"42.16866000","longitude":"13.82997000"},{"name":"Prata d'Ansidonia","latitude":"42.27793000","longitude":"13.60830000"},{"name":"Pratola Peligna","latitude":"42.09701000","longitude":"13.87467000"},{"name":"Pretoro","latitude":"42.21923000","longitude":"14.14248000"},{"name":"Preturo","latitude":"42.37808000","longitude":"13.29633000"},{"name":"Prezza","latitude":"42.05789000","longitude":"13.83592000"},{"name":"Progetto Case Bazzano","latitude":"42.33643000","longitude":"13.44410000"},{"name":"Progetto Case Coppito 3","latitude":"42.36981000","longitude":"13.31973000"},{"name":"Progetto Case Sassa Nsi","latitude":"42.36560000","longitude":"13.31509000"},{"name":"Provincia dell' Aquila","latitude":"42.08333000","longitude":"13.66667000"},{"name":"Provincia di Chieti","latitude":"42.11667000","longitude":"14.35000000"},{"name":"Provincia di Pescara","latitude":"42.33333000","longitude":"13.95000000"},{"name":"Provincia di Teramo","latitude":"42.65000000","longitude":"13.68333000"},{"name":"Quadri","latitude":"41.92402000","longitude":"14.28768000"},{"name":"Raiano","latitude":"42.10158000","longitude":"13.81386000"},{"name":"Rapino","latitude":"42.20931000","longitude":"14.18493000"},{"name":"Ripa Teatina","latitude":"42.36603000","longitude":"14.24441000"},{"name":"Rivisondoli","latitude":"41.87023000","longitude":"14.06671000"},{"name":"Rocca Pia","latitude":"41.93429000","longitude":"13.97726000"},{"name":"Rocca San Giovanni","latitude":"42.24604000","longitude":"14.46162000"},{"name":"Rocca di Botte","latitude":"42.03102000","longitude":"13.07185000"},{"name":"Rocca di Cambio","latitude":"42.23755000","longitude":"13.48906000"},{"name":"Rocca di Mezzo","latitude":"42.20441000","longitude":"13.51840000"},{"name":"Roccacasale","latitude":"42.12249000","longitude":"13.88758000"},{"name":"Roccamorice","latitude":"42.21274000","longitude":"14.02531000"},{"name":"Roccaraso","latitude":"41.84872000","longitude":"14.07846000"},{"name":"Roccascalegna","latitude":"42.06212000","longitude":"14.30802000"},{"name":"Roccaspinalveti-Santa Giusta","latitude":"41.94233000","longitude":"14.47092000"},{"name":"Roccavivi","latitude":"41.81214000","longitude":"13.53662000"},{"name":"Roio del Sangro","latitude":"41.91153000","longitude":"14.37382000"},{"name":"Rosciano","latitude":"42.32227000","longitude":"14.04555000"},{"name":"Rosello","latitude":"41.90116000","longitude":"14.34919000"},{"name":"Roseto degli Abruzzi","latitude":"42.67164000","longitude":"14.01481000"},{"name":"Salino","latitude":"42.78571000","longitude":"13.91400000"},{"name":"Salle","latitude":"42.17756000","longitude":"13.96091000"},{"name":"Salvo Marina","latitude":"42.07037000","longitude":"14.76597000"},{"name":"Sambuceto","latitude":"42.42168000","longitude":"14.18747000"},{"name":"San Benedetto dei Marsi","latitude":"42.00760000","longitude":"13.62381000"},{"name":"San Benedetto in Perillis","latitude":"42.18377000","longitude":"13.76996000"},{"name":"San Buono","latitude":"41.98140000","longitude":"14.56818000"},{"name":"San Demetrio Ne' Vestini","latitude":"42.28963000","longitude":"13.55519000"},{"name":"San Giovanni Lipioni","latitude":"41.84383000","longitude":"14.56271000"},{"name":"San Martino Bassa","latitude":"42.51827000","longitude":"14.13045000"},{"name":"San Martino sulla Marrucina","latitude":"42.22419000","longitude":"14.21577000"},{"name":"San Nicolò a Tordino","latitude":"42.69648000","longitude":"13.79708000"},{"name":"San Panfilo d'Ocre","latitude":"42.28616000","longitude":"13.47518000"},{"name":"San Pio delle Camere","latitude":"42.28423000","longitude":"13.65570000"},{"name":"San Rocco","latitude":"42.24294000","longitude":"14.12891000"},{"name":"San Salvo","latitude":"42.04413000","longitude":"14.73335000"},{"name":"San Valentino in Abruzzo Citeriore","latitude":"42.23304000","longitude":"13.98561000"},{"name":"San Vincenzo Valle Roveto","latitude":"41.84452000","longitude":"13.53566000"},{"name":"San Vito Chietino","latitude":"42.29014000","longitude":"14.44270000"},{"name":"Sant'Egidio alla Vibrata","latitude":"42.81705000","longitude":"13.72164000"},{"name":"Sant'Eufemia a Maiella","latitude":"42.12613000","longitude":"14.02651000"},{"name":"Sant'Eusanio Forconese","latitude":"42.28951000","longitude":"13.52425000"},{"name":"Sant'Eusanio del Sangro","latitude":"42.16908000","longitude":"14.32776000"},{"name":"Sant'Omero","latitude":"42.79011000","longitude":"13.78906000"},{"name":"Santa Maria Imbaro","latitude":"42.21999000","longitude":"14.45027000"},{"name":"Santa Teresa","latitude":"42.42753000","longitude":"14.15816000"},{"name":"Sante Marie","latitude":"42.10369000","longitude":"13.20163000"},{"name":"Santo Stefano di Sessanio","latitude":"42.34339000","longitude":"13.64477000"},{"name":"Sassa","latitude":"42.35204000","longitude":"13.29924000"},{"name":"Scafa","latitude":"42.26575000","longitude":"13.99665000"},{"name":"Scanno","latitude":"41.90442000","longitude":"13.87961000"},{"name":"Scerne","latitude":"42.64754000","longitude":"14.03791000"},{"name":"Scerni","latitude":"42.10418000","longitude":"14.57428000"},{"name":"Schiavi di Abruzzo","latitude":"41.81311000","longitude":"14.48655000"},{"name":"Scontrone","latitude":"41.74681000","longitude":"14.03880000"},{"name":"Scoppito","latitude":"42.36948000","longitude":"13.25936000"},{"name":"Scurcola Marsicana","latitude":"42.06313000","longitude":"13.33919000"},{"name":"Secinaro","latitude":"42.15062000","longitude":"13.68145000"},{"name":"Selva","latitude":"42.11442000","longitude":"14.34425000"},{"name":"Serramonacesca","latitude":"42.24795000","longitude":"14.09297000"},{"name":"Silvi","latitude":"42.54984000","longitude":"14.11759000"},{"name":"Spoltore","latitude":"42.45501000","longitude":"14.13988000"},{"name":"Sulmona","latitude":"42.04945000","longitude":"13.92578000"},{"name":"Tagliacozzo","latitude":"42.06933000","longitude":"13.25469000"},{"name":"Taranta Peligna","latitude":"42.02052000","longitude":"14.17103000"},{"name":"Teramo","latitude":"42.66123000","longitude":"13.69901000"},{"name":"Tione degli Abruzzi","latitude":"42.20393000","longitude":"13.63570000"},{"name":"Tocco da Casauria","latitude":"42.21203000","longitude":"13.91547000"},{"name":"Tollo","latitude":"42.34542000","longitude":"14.32360000"},{"name":"Torano Nuovo","latitude":"42.82305000","longitude":"13.77729000"},{"name":"Torino di Sangro","latitude":"42.19100000","longitude":"14.54272000"},{"name":"Tornareccio","latitude":"42.03763000","longitude":"14.41525000"},{"name":"Tornimparte","latitude":"42.29007000","longitude":"13.30092000"},{"name":"Torre de' Passeri","latitude":"42.24324000","longitude":"13.93330000"},{"name":"Torrebruna","latitude":"41.86742000","longitude":"14.54148000"},{"name":"Torrevecchia","latitude":"42.38274000","longitude":"14.21331000"},{"name":"Torricella","latitude":"42.65904000","longitude":"13.65719000"},{"name":"Torricella Peligna","latitude":"42.02397000","longitude":"14.25854000"},{"name":"Tortoreto","latitude":"42.80371000","longitude":"13.91346000"},{"name":"Tortoreto Lido","latitude":"42.79956000","longitude":"13.94205000"},{"name":"Tossicia","latitude":"42.54472000","longitude":"13.64595000"},{"name":"Trasacco","latitude":"41.95742000","longitude":"13.53270000"},{"name":"Treglio","latitude":"42.26184000","longitude":"14.42315000"},{"name":"Tufillo","latitude":"41.91685000","longitude":"14.62558000"},{"name":"Turrivalignani","latitude":"42.26296000","longitude":"14.02852000"},{"name":"Vacri","latitude":"42.29764000","longitude":"14.22901000"},{"name":"Valle Castellana","latitude":"42.73614000","longitude":"13.49709000"},{"name":"Vallecupa","latitude":"42.25366000","longitude":"13.57467000"},{"name":"Vasto","latitude":"42.11150000","longitude":"14.70649000"},{"name":"Vicoli","latitude":"42.34095000","longitude":"13.89688000"},{"name":"Villa Caldari","latitude":"42.29566000","longitude":"14.36157000"},{"name":"Villa Celiera","latitude":"42.38184000","longitude":"13.85860000"},{"name":"Villa Lempa","latitude":"42.79345000","longitude":"13.64433000"},{"name":"Villa Raspa","latitude":"42.45542000","longitude":"14.18457000"},{"name":"Villa Rosa","latitude":"42.85059000","longitude":"13.92015000"},{"name":"Villa Sant'Angelo","latitude":"42.27043000","longitude":"13.53710000"},{"name":"Villa Santa Lucia degli Abruzzi","latitude":"42.33286000","longitude":"13.77792000"},{"name":"Villa Santa Maria","latitude":"41.95130000","longitude":"14.35148000"},{"name":"Villagrande","latitude":"42.29533000","longitude":"13.29999000"},{"name":"Villalago","latitude":"41.93514000","longitude":"13.83868000"},{"name":"Villalfonsina","latitude":"42.16038000","longitude":"14.56932000"},{"name":"Villamagna","latitude":"42.32984000","longitude":"14.23689000"},{"name":"Villanova","latitude":"42.38251000","longitude":"14.12338000"},{"name":"Villavallelonga","latitude":"41.87104000","longitude":"13.62088000"},{"name":"Villetta Barrea","latitude":"41.77646000","longitude":"13.93892000"},{"name":"Vittorito","latitude":"42.12703000","longitude":"13.81670000"},{"name":"Abbateggio","latitude":"42.22421000","longitude":"14.01001000"},{"name":"Acciano","latitude":"42.17677000","longitude":"13.71783000"},{"name":"Aielli","latitude":"42.08146000","longitude":"13.59113000"},{"name":"Alanno","latitude":"42.29552000","longitude":"13.97084000"},{"name":"Alba Adriatica","latitude":"42.83176000","longitude":"13.92590000"},{"name":"Alfedena","latitude":"41.73545000","longitude":"14.03500000"},{"name":"Altino","latitude":"42.09954000","longitude":"14.33267000"},{"name":"Ancarano","latitude":"42.83767000","longitude":"13.74662000"},{"name":"Anversa degli Abruzzi","latitude":"41.99478000","longitude":"13.80379000"},{"name":"Archi","latitude":"42.09135000","longitude":"14.38270000"},{"name":"Ari","latitude":"42.28967000","longitude":"14.25856000"},{"name":"Arielli","latitude":"42.26003000","longitude":"14.31004000"},{"name":"Arsita","latitude":"42.50266000","longitude":"13.78516000"},{"name":"Ateleta","latitude":"41.85435000","longitude":"14.19806000"},{"name":"Atessa","latitude":"42.07018000","longitude":"14.45049000"},{"name":"Atri","latitude":"42.57642000","longitude":"13.98899000"},{"name":"Avezzano","latitude":"42.02896000","longitude":"13.42641000"},{"name":"Balsorano","latitude":"41.80982000","longitude":"13.55980000"},{"name":"Balsorano Nuovo","latitude":"41.80881000","longitude":"13.56069000"},{"name":"Barberi","latitude":"42.44072000","longitude":"14.04268000"},{"name":"Barete","latitude":"42.45009000","longitude":"13.28061000"},{"name":"Barisciano","latitude":"42.32465000","longitude":"13.59036000"},{"name":"Barrea","latitude":"41.75543000","longitude":"13.99095000"},{"name":"Basciano","latitude":"42.59639000","longitude":"13.73561000"},{"name":"Bellante","latitude":"42.74421000","longitude":"13.80234000"},{"name":"Bellante Stazione","latitude":"42.70650000","longitude":"13.83953000"},{"name":"Bisegna","latitude":"41.92113000","longitude":"13.75760000"},{"name":"Bisenti","latitude":"42.52883000","longitude":"13.79950000"},{"name":"Bolognano","latitude":"42.21814000","longitude":"13.96011000"},{"name":"Bomba","latitude":"42.03343000","longitude":"14.36656000"},{"name":"Borgo Santa Maria Immacolata","latitude":"42.61172000","longitude":"14.04553000"},{"name":"Borrello","latitude":"41.91730000","longitude":"14.30535000"},{"name":"Brittoli","latitude":"42.31518000","longitude":"13.86026000"},{"name":"Bucchianico","latitude":"42.30368000","longitude":"14.18377000"},{"name":"Bugnara","latitude":"42.02383000","longitude":"13.86141000"},{"name":"Bussi sul Tirino","latitude":"42.21321000","longitude":"13.82511000"},{"name":"Cagnano Amiterno","latitude":"42.45744000","longitude":"13.22789000"},{"name":"Calascio","latitude":"42.32595000","longitude":"13.69699000"},{"name":"Campli","latitude":"42.72679000","longitude":"13.68692000"},{"name":"Campo di Giove","latitude":"42.01013000","longitude":"14.03941000"},{"name":"Campotosto","latitude":"42.55884000","longitude":"13.36799000"},{"name":"Canistro Inferiore","latitude":"41.94101000","longitude":"13.41194000"},{"name":"Canosa Sannita","latitude":"42.29629000","longitude":"14.30514000"},{"name":"Cansano","latitude":"42.00350000","longitude":"14.01341000"},{"name":"Canzano","latitude":"42.64564000","longitude":"13.80410000"},{"name":"Capestrano","latitude":"42.26807000","longitude":"13.76779000"},{"name":"Capistrello","latitude":"41.97223000","longitude":"13.39616000"},{"name":"Capitignano","latitude":"42.52041000","longitude":"13.30122000"},{"name":"Caporciano","latitude":"42.25001000","longitude":"13.67455000"},{"name":"Cappadocia","latitude":"42.00755000","longitude":"13.27806000"},{"name":"Cappelle sul Tavo","latitude":"42.47709000","longitude":"14.10735000"},{"name":"Caramanico Terme","latitude":"42.15593000","longitude":"14.00480000"},{"name":"Carapelle Calvisio","latitude":"42.29908000","longitude":"13.68643000"},{"name":"Carpineto Sinello","latitude":"42.01044000","longitude":"14.50418000"},{"name":"Carpineto della Nora","latitude":"42.33365000","longitude":"13.86062000"},{"name":"Carsoli","latitude":"42.09882000","longitude":"13.08856000"},{"name":"Carunchio","latitude":"41.91761000","longitude":"14.52683000"},{"name":"Casacanditella","latitude":"42.24643000","longitude":"14.20040000"},{"name":"Casalanguida","latitude":"42.03752000","longitude":"14.49613000"},{"name":"Casalbordino-Miracoli","latitude":"42.15354000","longitude":"14.59912000"},{"name":"Casalincontrada","latitude":"42.29744000","longitude":"14.13511000"},{"name":"Casoli","latitude":"42.61723000","longitude":"13.97910000"},{"name":"Castel Castagna","latitude":"42.54294000","longitude":"13.71640000"},{"name":"Castel Frentano","latitude":"42.19875000","longitude":"14.35643000"},{"name":"Castel del Monte","latitude":"42.36544000","longitude":"13.72592000"},{"name":"Castel di Ieri","latitude":"42.11353000","longitude":"13.74200000"},{"name":"Castel di Sangro","latitude":"41.78392000","longitude":"14.10653000"},{"name":"Castelguidone","latitude":"41.82258000","longitude":"14.52286000"},{"name":"Castellafiume","latitude":"41.98913000","longitude":"13.33440000"},{"name":"Castellalto","latitude":"42.67705000","longitude":"13.82101000"},{"name":"Castelli","latitude":"42.48476000","longitude":"13.71201000"},{"name":"Castelnuovo Vomano","latitude":"42.62933000","longitude":"13.85003000"},{"name":"Castelvecchio Calvisio","latitude":"42.31134000","longitude":"13.68720000"},{"name":"Castelvecchio Subequo","latitude":"42.12881000","longitude":"13.72868000"},{"name":"Castiglione Messer Marino","latitude":"41.86833000","longitude":"14.44996000"},{"name":"Castiglione Messer Raimondo","latitude":"42.53194000","longitude":"13.87953000"},{"name":"Castiglione a Casauria","latitude":"42.23601000","longitude":"13.89832000"},{"name":"Castilenti","latitude":"42.53334000","longitude":"13.91710000"},{"name":"Catignano","latitude":"42.34697000","longitude":"13.95190000"},{"name":"Celano","latitude":"42.08077000","longitude":"13.51700000"},{"name":"Celenza sul Trigno","latitude":"41.87198000","longitude":"14.57893000"},{"name":"Cellino Attanasio","latitude":"42.58574000","longitude":"13.86050000"},{"name":"Cepagatti","latitude":"42.36506000","longitude":"14.07424000"},{"name":"Cerchio","latitude":"42.06357000","longitude":"13.60006000"},{"name":"Cermignano","latitude":"42.59131000","longitude":"13.79540000"},{"name":"Cerratina","latitude":"42.39007000","longitude":"14.10338000"},{"name":"Chieti","latitude":"42.34827000","longitude":"14.16494000"},{"name":"Città Sant'Angelo","latitude":"42.51254000","longitude":"14.06203000"},{"name":"Civita d'Antino","latitude":"41.88629000","longitude":"13.47215000"},{"name":"Civitaluparella","latitude":"41.94490000","longitude":"14.30135000"},{"name":"Civitaquana","latitude":"42.32578000","longitude":"13.90012000"},{"name":"Civitella Alfedena","latitude":"41.76533000","longitude":"13.94271000"},{"name":"Civitella Casanova","latitude":"42.36391000","longitude":"13.88514000"},{"name":"Civitella Messer Raimondo","latitude":"42.08893000","longitude":"14.21701000"},{"name":"Civitella Roveto","latitude":"41.91329000","longitude":"13.42396000"},{"name":"Civitella del Tronto","latitude":"42.77298000","longitude":"13.67626000"},{"name":"Cocullo","latitude":"42.03283000","longitude":"13.77500000"},{"name":"Collarmele","latitude":"42.06031000","longitude":"13.62670000"},{"name":"Collecorvino","latitude":"42.46024000","longitude":"14.01564000"},{"name":"Colledara","latitude":"42.53918000","longitude":"13.67556000"},{"name":"Colledimacine","latitude":"42.00370000","longitude":"14.20079000"},{"name":"Colledimezzo","latitude":"41.98606000","longitude":"14.38690000"},{"name":"Collelongo","latitude":"41.88659000","longitude":"13.58380000"},{"name":"Collepietro","latitude":"42.22089000","longitude":"13.78101000"},{"name":"Colleranesco","latitude":"42.72112000","longitude":"13.93732000"},{"name":"Cologna Spiaggia","latitude":"42.72152000","longitude":"13.98311000"},{"name":"Colonnella","latitude":"42.87230000","longitude":"13.86987000"},{"name":"Cominio","latitude":"42.31248000","longitude":"13.43250000"},{"name":"Controguerra","latitude":"42.85398000","longitude":"13.81775000"},{"name":"Coppito","latitude":"42.36730000","longitude":"13.34358000"},{"name":"Corfinio","latitude":"42.12149000","longitude":"13.83940000"},{"name":"Corropoli","latitude":"42.82720000","longitude":"13.83471000"},{"name":"Cortino","latitude":"42.62186000","longitude":"13.50774000"},{"name":"Corvara","latitude":"42.27511000","longitude":"13.87363000"},{"name":"Crecchio","latitude":"42.29778000","longitude":"14.32656000"},{"name":"Crognaleto","latitude":"42.58771000","longitude":"13.48890000"},{"name":"Cugnoli","latitude":"42.30692000","longitude":"13.93490000"},{"name":"Cupello","latitude":"42.06936000","longitude":"14.67054000"},{"name":"Dogliola","latitude":"41.94238000","longitude":"14.63507000"},{"name":"Elice","latitude":"42.52279000","longitude":"13.97071000"},{"name":"Fallo","latitude":"41.93833000","longitude":"14.32362000"},{"name":"Fano Adriano","latitude":"42.55230000","longitude":"13.53764000"},{"name":"Fara Filiorum Petri","latitude":"42.24152000","longitude":"14.18026000"},{"name":"Fara San Martino","latitude":"42.09248000","longitude":"14.20896000"},{"name":"Farindola","latitude":"42.44292000","longitude":"13.82137000"},{"name":"Filetto","latitude":"42.22931000","longitude":"14.24501000"},{"name":"Fonte Umano-San Martino Alta","latitude":"42.52084000","longitude":"14.10760000"},{"name":"Fontecchio","latitude":"42.23027000","longitude":"13.60613000"},{"name":"Fossa","latitude":"42.29273000","longitude":"13.48779000"},{"name":"Fossacesia","latitude":"42.24198000","longitude":"14.48339000"},{"name":"Fraine","latitude":"41.90624000","longitude":"14.48788000"},{"name":"Francavilla al Mare","latitude":"42.42158000","longitude":"14.28217000"},{"name":"Fresagrandinaria","latitude":"41.97900000","longitude":"14.66211000"},{"name":"Frisa","latitude":"42.26572000","longitude":"14.37625000"},{"name":"Furci","latitude":"42.00746000","longitude":"14.58802000"},{"name":"Gagliano Aterno","latitude":"42.12598000","longitude":"13.70023000"},{"name":"Gamberale","latitude":"41.90529000","longitude":"14.20845000"},{"name":"Gessopalena","latitude":"42.05521000","longitude":"14.27367000"},{"name":"Gioia dei Marsi","latitude":"41.95697000","longitude":"13.69057000"},{"name":"Gissi","latitude":"42.01803000","longitude":"14.54484000"},{"name":"Giuliano Teatino","latitude":"42.31220000","longitude":"14.28082000"},{"name":"Giulianova","latitude":"42.75381000","longitude":"13.96650000"},{"name":"Goriano Sicoli","latitude":"42.08011000","longitude":"13.77459000"},{"name":"Guardiagrele","latitude":"42.19406000","longitude":"14.21939000"},{"name":"Guilmi","latitude":"41.99653000","longitude":"14.47882000"},{"name":"Imposte","latitude":"42.68634000","longitude":"13.52829000"},{"name":"Introdacqua","latitude":"42.00968000","longitude":"13.89779000"},{"name":"Isola del Gran Sasso d'Italia","latitude":"42.50324000","longitude":"13.65721000"},{"name":"L'Aquila","latitude":"42.35055000","longitude":"13.39954000"},{"name":"Lama dei Peligni","latitude":"42.04214000","longitude":"14.18678000"},{"name":"Lanciano","latitude":"42.22718000","longitude":"14.39024000"},{"name":"Lecce Nei Marsi","latitude":"41.93436000","longitude":"13.68430000"},{"name":"Lentella","latitude":"41.99576000","longitude":"14.67692000"},{"name":"Lettomanoppello","latitude":"42.24336000","longitude":"14.03843000"},{"name":"Lettopalena","latitude":"42.00251000","longitude":"14.15652000"},{"name":"Liscia","latitude":"41.95524000","longitude":"14.55532000"},{"name":"Loreto Aprutino","latitude":"42.43104000","longitude":"13.98057000"},{"name":"Luco dei Marsi","latitude":"41.95925000","longitude":"13.47349000"},{"name":"Lucoli","latitude":"42.29093000","longitude":"13.33799000"},{"name":"Magliano De'Marsi","latitude":"42.09153000","longitude":"13.36379000"},{"name":"Manoppello","latitude":"42.25918000","longitude":"14.06024000"},{"name":"Manoppello Scalo","latitude":"42.30762000","longitude":"14.05363000"},{"name":"Marina di San Vito","latitude":"42.30514000","longitude":"14.44844000"},{"name":"Marina di Vasto","latitude":"42.09373000","longitude":"14.72683000"},{"name":"Martinsicuro","latitude":"42.88031000","longitude":"13.91326000"},{"name":"Massa d'Albe-Corona","latitude":"42.10723000","longitude":"13.39429000"},{"name":"Miglianico","latitude":"42.35773000","longitude":"14.29179000"},{"name":"Molina Aterno","latitude":"42.14903000","longitude":"13.73540000"},{"name":"Montazzoli","latitude":"41.94887000","longitude":"14.43069000"},{"name":"Montebello di Bertona","latitude":"42.41686000","longitude":"13.87119000"},{"name":"Montebello sul Sangro","latitude":"41.98663000","longitude":"14.32402000"},{"name":"Monteferrante","latitude":"41.95396000","longitude":"14.38856000"},{"name":"Montefino","latitude":"42.54551000","longitude":"13.88479000"},{"name":"Montelapiano","latitude":"41.96267000","longitude":"14.34212000"},{"name":"Montenerodomo","latitude":"41.97682000","longitude":"14.25177000"},{"name":"Monteodorisio","latitude":"42.08485000","longitude":"14.65386000"},{"name":"Montereale","latitude":"42.52332000","longitude":"13.24585000"},{"name":"Montesilvano Marina","latitude":"42.51140000","longitude":"14.14507000"},{"name":"Monticchio","latitude":"42.32035000","longitude":"13.46382000"},{"name":"Montorio al Vomano","latitude":"42.58123000","longitude":"13.63715000"},{"name":"Morino","latitude":"41.86442000","longitude":"13.45700000"},{"name":"Morro d'Oro","latitude":"42.66291000","longitude":"13.92129000"},{"name":"Mosciano Sant'Angelo","latitude":"42.74700000","longitude":"13.88891000"},{"name":"Moscufo","latitude":"42.42713000","longitude":"14.05434000"},{"name":"Mozzagrogna","latitude":"42.21267000","longitude":"14.44258000"},{"name":"Navelli","latitude":"42.23721000","longitude":"13.72961000"},{"name":"Nepezzano","latitude":"42.68994000","longitude":"13.75650000"},{"name":"Nereto","latitude":"42.81548000","longitude":"13.81989000"},{"name":"Nerito","latitude":"42.54763000","longitude":"13.47759000"},{"name":"Nocciano","latitude":"42.33366000","longitude":"13.98571000"},{"name":"Notaresco","latitude":"42.65742000","longitude":"13.89491000"},{"name":"Nucleo Industriale di Bazzano","latitude":"42.33623000","longitude":"13.46755000"},{"name":"Ofena","latitude":"42.32536000","longitude":"13.75864000"},{"name":"Opi","latitude":"41.77838000","longitude":"13.82932000"},{"name":"Oricola","latitude":"42.04922000","longitude":"13.03939000"},{"name":"Orsogna","latitude":"42.22344000","longitude":"14.28085000"},{"name":"Ortona","latitude":"42.35087000","longitude":"14.40342000"},{"name":"Ortona dei Marsi","latitude":"41.99820000","longitude":"13.72909000"},{"name":"Ortucchio","latitude":"41.95525000","longitude":"13.64651000"},{"name":"Ovindoli","latitude":"42.13765000","longitude":"13.51603000"},{"name":"Pacentro","latitude":"42.05043000","longitude":"13.99151000"},{"name":"Paganica-Tempera","latitude":"42.35715000","longitude":"13.47138000"}]