[{"name":"Aguas Verdes","latitude":"-3.48139000","longitude":"-80.24500000"},{"name":"Papayal","latitude":"-4.07771000","longitude":"-80.73690000"},{"name":"Provincia de Contralmirante Villar","latitude":"-4.00000000","longitude":"-80.75000000"},{"name":"Provincia de Tumbes","latitude":"-3.75000000","longitude":"-80.41667000"},{"name":"Provincia de Zarumilla","latitude":"-3.66667000","longitude":"-80.25000000"},{"name":"Tumbes","latitude":"-3.56694000","longitude":"-80.45153000"},{"name":"Zarumilla","latitude":"-3.50306000","longitude":"-80.27306000"},{"name":"Zorritos","latitude":"-3.68046000","longitude":"-80.67819000"}]