[{"name":"Batken Region","countryCode":"KG","fipsCode":"09","iso":"B","latitude":"39.97214250","longitude":"69.85974060"},{"name":"Bishkek","countryCode":"KG","fipsCode":"01","iso":"GB","latitude":"42.87462120","longitude":"74.56976170"},{"name":"Chuy Region","countryCode":"KG","fipsCode":"02","iso":"C","latitude":"42.56550000","longitude":"74.40566120"},{"name":"Issyk-Kul Region","countryCode":"KG","fipsCode":"07","iso":"Y","latitude":"42.18594280","longitude":"77.56194190"},{"name":"Jalal-Abad Region","countryCode":"KG","fipsCode":"03","iso":"J","latitude":"41.10680800","longitude":"72.89880690"},{"name":"Naryn Region","countryCode":"KG","fipsCode":"04","iso":"N","latitude":"41.29432270","longitude":"75.34121790"},{"name":"Osh","countryCode":"KG","fipsCode":"08","iso":"GO","latitude":"36.06313990","longitude":"-95.91828950"},{"name":"Osh Region","countryCode":"KG","fipsCode":"08","iso":"O","latitude":"39.84073660","longitude":"72.89880690"},{"name":"Talas Region","countryCode":"KG","fipsCode":"06","iso":"T","latitude":"42.28673390","longitude":"72.52048270"}]