[{"name":"Hurbanovo","latitude":"47.86984000","longitude":"18.19233000"},{"name":"Kolárovo","latitude":"47.92294000","longitude":"17.98467000"},{"name":"Komárno","latitude":"47.76356000","longitude":"18.12263000"},{"name":"Levice","latitude":"48.21563000","longitude":"18.60705000"},{"name":"Nitra","latitude":"48.30763000","longitude":"18.08453000"},{"name":"Nové Zámky","latitude":"47.98544000","longitude":"18.16195000"},{"name":"Okres Komárno","latitude":"47.76667000","longitude":"18.13333000"},{"name":"Okres Levice","latitude":"48.21667000","longitude":"18.60000000"},{"name":"Okres Nitra","latitude":"48.31667000","longitude":"18.08333000"},{"name":"Okres Nové Zámky","latitude":"47.98333000","longitude":"18.16667000"},{"name":"Okres Topoľčany","latitude":"48.56667000","longitude":"18.18333000"},{"name":"Okres Zlaté Moravce","latitude":"48.38294000","longitude":"18.39842000"},{"name":"Okres Šaľa","latitude":"48.14770000","longitude":"17.87306000"},{"name":"Svodín","latitude":"47.91054000","longitude":"18.49967000"},{"name":"Tlmače","latitude":"48.28926000","longitude":"18.53152000"},{"name":"Topoľčany","latitude":"48.56361000","longitude":"18.16712000"},{"name":"Vráble","latitude":"48.24371000","longitude":"18.30846000"},{"name":"Zlaté Moravce","latitude":"48.38553000","longitude":"18.40063000"},{"name":"Šahy","latitude":"48.07408000","longitude":"18.94946000"},{"name":"Šaľa","latitude":"48.15127000","longitude":"17.88062000"},{"name":"Štúrovo","latitude":"47.79495000","longitude":"18.71750000"},{"name":"Šurany","latitude":"48.08613000","longitude":"18.18447000"},{"name":"Želiezovce","latitude":"48.05075000","longitude":"18.65421000"}]