[{"name":"Département de Gouré","latitude":"14.01618000","longitude":"10.14722000"},{"name":"Département de Kantché","latitude":"13.40000000","longitude":"8.60000000"},{"name":"Département de Tânout","latitude":"14.75000000","longitude":"8.33333000"},{"name":"Gouré","latitude":"13.98350000","longitude":"10.27035000"},{"name":"Magaria","latitude":"12.99826000","longitude":"8.90991000"},{"name":"Matamey","latitude":"13.42309000","longitude":"8.47485000"},{"name":"Mirriah","latitude":"13.70727000","longitude":"9.15013000"},{"name":"Tanout","latitude":"14.97089000","longitude":"8.88786000"},{"name":"Zinder","latitude":"13.80716000","longitude":"8.98810000"}]