[{"name":"Akdiken","latitude":"36.72500000","longitude":"39.30861000"},{"name":"Akçakale","latitude":"36.71111000","longitude":"38.94750000"},{"name":"Aşağı Beğdeş","latitude":"36.81472000","longitude":"38.91917000"},{"name":"Birecik","latitude":"37.02577000","longitude":"37.97841000"},{"name":"Bozova","latitude":"37.36250000","longitude":"38.52667000"},{"name":"Bulutlu","latitude":"36.73583000","longitude":"39.39389000"},{"name":"Ceylanpınar","latitude":"36.84722000","longitude":"40.05000000"},{"name":"Dorumali","latitude":"36.80500000","longitude":"38.85306000"},{"name":"Eyyübiye","latitude":"37.21434000","longitude":"38.79358000"},{"name":"Güneren","latitude":"36.73417000","longitude":"39.08861000"},{"name":"Halfeti","latitude":"37.24529000","longitude":"37.86874000"},{"name":"Haliliye","latitude":"37.14144000","longitude":"38.79599000"},{"name":"Hanköy","latitude":"36.95081000","longitude":"40.19855000"},{"name":"Harran","latitude":"36.86000000","longitude":"39.03139000"},{"name":"Hilvan","latitude":"37.58687000","longitude":"38.95505000"},{"name":"Işıklar","latitude":"36.99417000","longitude":"40.12639000"},{"name":"Karaköprü","latitude":"37.18029000","longitude":"38.81109000"},{"name":"Koyunluca","latitude":"36.82278000","longitude":"39.34333000"},{"name":"Küçükkendirci","latitude":"36.90583000","longitude":"38.34611000"},{"name":"Mağaralı","latitude":"36.96889000","longitude":"38.07444000"},{"name":"Meydankapı","latitude":"36.78278000","longitude":"39.15833000"},{"name":"Minare","latitude":"36.93083000","longitude":"39.00444000"},{"name":"Muratlı","latitude":"36.96167000","longitude":"40.10056000"},{"name":"Pekmezli","latitude":"36.75361000","longitude":"39.45000000"},{"name":"Seksenören","latitude":"36.97252000","longitude":"39.07484000"},{"name":"Siverek","latitude":"37.75503000","longitude":"39.31667000"},{"name":"Suruç","latitude":"36.97612000","longitude":"38.42533000"},{"name":"Viranşehir","latitude":"37.22349000","longitude":"39.75519000"},{"name":"Yukarı Taşyalak","latitude":"36.96306000","longitude":"40.13194000"},{"name":"Öncül","latitude":"36.71222000","longitude":"39.02917000"},{"name":"Şanlıurfa","latitude":"37.16708000","longitude":"38.79392000"}]