[{"name":"Alberschwende","latitude":"47.45025000","longitude":"9.83152000"},{"name":"Altach","latitude":"47.35000000","longitude":"9.65000000"},{"name":"Andelsbuch","latitude":"47.41167000","longitude":"9.89326000"},{"name":"Au","latitude":"47.32176000","longitude":"9.98067000"},{"name":"Ausserbraz","latitude":"47.14875000","longitude":"9.90066000"},{"name":"Bartholomäberg","latitude":"47.08333000","longitude":"9.90000000"},{"name":"Batschuns","latitude":"47.28306000","longitude":"9.65000000"},{"name":"Bezau","latitude":"47.38478000","longitude":"9.90139000"},{"name":"Bildstein","latitude":"47.45000000","longitude":"9.76667000"},{"name":"Bizau","latitude":"47.36906000","longitude":"9.92839000"},{"name":"Blons","latitude":"47.22327000","longitude":"9.83414000"},{"name":"Bludenz","latitude":"47.15476000","longitude":"9.82255000"},{"name":"Bludesch","latitude":"47.20000000","longitude":"9.73306000"},{"name":"Brand","latitude":"47.10083000","longitude":"9.73722000"},{"name":"Bregenz","latitude":"47.50311000","longitude":"9.74710000"},{"name":"Bürs","latitude":"47.14972000","longitude":"9.80000000"},{"name":"Bürserberg","latitude":"47.14644000","longitude":"9.77736000"},{"name":"Dalaas","latitude":"47.12446000","longitude":"9.99104000"},{"name":"Damüls","latitude":"47.28034000","longitude":"9.89164000"},{"name":"Doren","latitude":"47.49278000","longitude":"9.87972000"},{"name":"Dornbirn","latitude":"47.41427000","longitude":"9.74195000"},{"name":"Düns","latitude":"47.22353000","longitude":"9.71663000"},{"name":"Dünserberg","latitude":"47.22752000","longitude":"9.72372000"},{"name":"Egg","latitude":"47.43154000","longitude":"9.89762000"},{"name":"Eichenberg","latitude":"47.53333000","longitude":"9.78333000"},{"name":"Feldkirch","latitude":"47.23306000","longitude":"9.60000000"},{"name":"Frastanz","latitude":"47.21735000","longitude":"9.62995000"},{"name":"Fraxern","latitude":"47.31498000","longitude":"9.67391000"},{"name":"Fußach","latitude":"47.47933000","longitude":"9.66278000"},{"name":"Gaißau","latitude":"47.46667000","longitude":"9.60000000"},{"name":"Gaschurn","latitude":"46.98584000","longitude":"10.02702000"},{"name":"Großdorf","latitude":"47.43361000","longitude":"9.91528000"},{"name":"Göfis","latitude":"47.23356000","longitude":"9.63458000"},{"name":"Götzis","latitude":"47.33306000","longitude":"9.63306000"},{"name":"Hard","latitude":"47.48306000","longitude":"9.68306000"},{"name":"Hirschegg","latitude":"47.34813000","longitude":"10.17137000"},{"name":"Hittisau","latitude":"47.45781000","longitude":"9.95962000"},{"name":"Hohenems","latitude":"47.36667000","longitude":"9.68306000"},{"name":"Hohenweiler","latitude":"47.58333000","longitude":"9.78333000"},{"name":"Höchst","latitude":"47.45934000","longitude":"9.64050000"},{"name":"Hörbranz","latitude":"47.55000000","longitude":"9.75000000"},{"name":"Innerbraz","latitude":"47.15000000","longitude":"9.91667000"},{"name":"Kennelbach","latitude":"47.48306000","longitude":"9.76667000"},{"name":"Klaus","latitude":"47.30913000","longitude":"9.64678000"},{"name":"Klösterle","latitude":"47.13333000","longitude":"10.08333000"},{"name":"Koblach","latitude":"47.33306000","longitude":"9.60000000"},{"name":"Krumbach","latitude":"47.48306000","longitude":"9.93583000"},{"name":"Langen","latitude":"47.51667000","longitude":"9.81667000"},{"name":"Langenegg","latitude":"47.46922000","longitude":"9.89744000"},{"name":"Lauterach","latitude":"47.47572000","longitude":"9.72941000"},{"name":"Lech","latitude":"47.20797000","longitude":"10.14184000"},{"name":"Lingenau","latitude":"47.45033000","longitude":"9.92166000"},{"name":"Lochau","latitude":"47.53333000","longitude":"9.75000000"},{"name":"Lorüns","latitude":"47.13306000","longitude":"9.85000000"},{"name":"Ludesch","latitude":"47.20000000","longitude":"9.78306000"},{"name":"Lustenau","latitude":"47.42642000","longitude":"9.65851000"},{"name":"Meiningen","latitude":"47.29891000","longitude":"9.57862000"},{"name":"Mellau","latitude":"47.35034000","longitude":"9.88149000"},{"name":"Mittelberg","latitude":"47.35127000","longitude":"10.17197000"},{"name":"Muntlix","latitude":"47.28296000","longitude":"9.65939000"},{"name":"Mäder","latitude":"47.35000000","longitude":"9.61667000"},{"name":"Möggers","latitude":"47.56667000","longitude":"9.81667000"},{"name":"Nenzing","latitude":"47.18436000","longitude":"9.70539000"},{"name":"Nüziders","latitude":"47.16667000","longitude":"9.80000000"},{"name":"Politischer Bezirk Bludenz","latitude":"47.15144000","longitude":"9.82452000"},{"name":"Politischer Bezirk Bregenz","latitude":"47.42069000","longitude":"9.91989000"},{"name":"Politischer Bezirk Dornbirn","latitude":"47.38349000","longitude":"9.74940000"},{"name":"Politischer Bezirk Feldkirch","latitude":"47.25535000","longitude":"9.58360000"},{"name":"Raggal","latitude":"47.21082000","longitude":"9.83688000"},{"name":"Rankweil","latitude":"47.27108000","longitude":"9.64308000"},{"name":"Reuthe","latitude":"47.37113000","longitude":"9.89481000"},{"name":"Riefensberg","latitude":"47.50137000","longitude":"9.95838000"},{"name":"Riezlern","latitude":"47.35778000","longitude":"10.18759000"},{"name":"Röns","latitude":"47.21667000","longitude":"9.70000000"},{"name":"Röthis","latitude":"47.29332000","longitude":"9.65484000"},{"name":"Sankt Anton im Montafon","latitude":"47.11667000","longitude":"9.86667000"},{"name":"Sankt Gallenkirch","latitude":"47.02102000","longitude":"9.97335000"},{"name":"Satteins","latitude":"47.21667000","longitude":"9.66667000"},{"name":"Schlins","latitude":"47.20000000","longitude":"9.70000000"},{"name":"Schnepfau","latitude":"47.35206000","longitude":"9.94520000"},{"name":"Schnifis","latitude":"47.21667000","longitude":"9.73306000"},{"name":"Schoppernau","latitude":"47.31205000","longitude":"10.01646000"},{"name":"Schruns","latitude":"47.06667000","longitude":"9.91667000"},{"name":"Schröcken","latitude":"47.25755000","longitude":"10.09197000"},{"name":"Schwarzach","latitude":"47.44904000","longitude":"9.76213000"},{"name":"Schwarzenberg","latitude":"47.41415000","longitude":"9.85154000"},{"name":"Sibratsgfäll","latitude":"47.42667000","longitude":"10.03806000"},{"name":"Silbertal","latitude":"47.09368000","longitude":"9.98314000"},{"name":"Stallehr","latitude":"47.13306000","longitude":"9.85000000"},{"name":"Sulz","latitude":"47.28721000","longitude":"9.65183000"},{"name":"Sulzberg","latitude":"47.52178000","longitude":"9.91353000"},{"name":"Thüringen","latitude":"47.20000000","longitude":"9.76667000"},{"name":"Tschagguns","latitude":"47.08333000","longitude":"9.90000000"},{"name":"Vandans","latitude":"47.09569000","longitude":"9.86525000"},{"name":"Viktorsberg","latitude":"47.30092000","longitude":"9.67484000"},{"name":"Warth","latitude":"47.25000000","longitude":"10.18333000"},{"name":"Weiler","latitude":"47.29972000","longitude":"9.65000000"},{"name":"Wolfurt","latitude":"47.46667000","longitude":"9.75000000"},{"name":"Übersaxen","latitude":"47.25284000","longitude":"9.67080000"}]