[{"name":"Adjudeni","latitude":"47.01408000","longitude":"26.94903000"},{"name":"Agapia","latitude":"47.16667000","longitude":"26.28333000"},{"name":"Bahna","latitude":"46.78333000","longitude":"26.78333000"},{"name":"Barticești","latitude":"47.06324000","longitude":"26.79254000"},{"name":"Bicaz","latitude":"46.91667000","longitude":"26.06667000"},{"name":"Bicaz-Chei","latitude":"46.81667000","longitude":"25.88333000"},{"name":"Bicazu Ardelean","latitude":"46.85000000","longitude":"25.93333000"},{"name":"Bistrița","latitude":"46.94856000","longitude":"26.29598000"},{"name":"Boboiești","latitude":"47.25370000","longitude":"26.03749000"},{"name":"Bodeşti","latitude":"47.03333000","longitude":"26.41667000"},{"name":"Bodeștii de Jos","latitude":"47.02752000","longitude":"26.44483000"},{"name":"Boghicea","latitude":"47.05414000","longitude":"27.06935000"},{"name":"Borca","latitude":"47.18333000","longitude":"25.76667000"},{"name":"Borleşti","latitude":"46.76667000","longitude":"26.48333000"},{"name":"Botești","latitude":"47.05200000","longitude":"26.74863000"},{"name":"Bozieni","latitude":"46.83333000","longitude":"27.15000000"},{"name":"Brusturi","latitude":"47.28333000","longitude":"26.38333000"},{"name":"Budești","latitude":"46.94084000","longitude":"26.71177000"},{"name":"Buruienești","latitude":"46.99595000","longitude":"26.97732000"},{"name":"Bâra","latitude":"47.03333000","longitude":"27.05000000"},{"name":"Bârgăuani","latitude":"46.98333000","longitude":"26.63333000"},{"name":"Bălușești","latitude":"46.81591000","longitude":"26.99885000"},{"name":"Bălţăteşti","latitude":"47.11667000","longitude":"26.30000000"},{"name":"Bărcăneşti","latitude":"46.71667000","longitude":"26.58333000"},{"name":"Ceahlău","latitude":"47.05000000","longitude":"25.96667000"},{"name":"Chilii","latitude":"46.80254000","longitude":"27.03394000"},{"name":"Chintinici","latitude":"46.82754000","longitude":"26.49339000"},{"name":"Comuna Agapia","latitude":"47.16196000","longitude":"26.29545000"},{"name":"Comuna Alexandru Cel Bun","latitude":"46.93988000","longitude":"26.26849000"},{"name":"Comuna Bahna","latitude":"46.77860000","longitude":"26.79742000"},{"name":"Comuna Bicaz Chei","latitude":"46.83435000","longitude":"25.87234000"},{"name":"Comuna Bicazu Ardelean","latitude":"46.86884000","longitude":"25.92570000"},{"name":"Comuna Bodeşti-Precista","latitude":"47.03819000","longitude":"26.43790000"},{"name":"Comuna Boghicea","latitude":"47.06025000","longitude":"27.11082000"},{"name":"Comuna Borca","latitude":"47.19099000","longitude":"25.78140000"},{"name":"Comuna Borleşti","latitude":"46.78934000","longitude":"26.49080000"},{"name":"Comuna Boteşti","latitude":"47.06415000","longitude":"26.75969000"},{"name":"Comuna Bozieni","latitude":"46.84446000","longitude":"27.15282000"},{"name":"Comuna Brusturi-Drăgăneşti","latitude":"47.29579000","longitude":"26.35443000"},{"name":"Comuna Bâra","latitude":"47.01319000","longitude":"27.04016000"},{"name":"Comuna Bârgãuani","latitude":"46.97877000","longitude":"26.64589000"},{"name":"Comuna Bălţăteşti","latitude":"47.13076000","longitude":"26.30187000"},{"name":"Comuna Ceahlău","latitude":"47.04488000","longitude":"25.95955000"},{"name":"Comuna Cordun","latitude":"46.97290000","longitude":"26.86265000"},{"name":"Comuna Costişa","latitude":"46.75818000","longitude":"26.64623000"},{"name":"Comuna Crăcăoani","latitude":"47.09597000","longitude":"26.25865000"},{"name":"Comuna Cândeşti","latitude":"46.71667000","longitude":"26.58333000"},{"name":"Comuna Dobreni","latitude":"46.99482000","longitude":"26.40941000"},{"name":"Comuna Dochia","latitude":"46.91740000","longitude":"26.58485000"},{"name":"Comuna Doljeşti","latitude":"47.02806000","longitude":"26.97557000"},{"name":"Comuna Dragomireşti","latitude":"47.02798000","longitude":"26.57536000"},{"name":"Comuna Drăgăneşti","latitude":"47.31204000","longitude":"26.41550000"},{"name":"Comuna Dulceşti","latitude":"46.98346000","longitude":"26.78062000"},{"name":"Comuna Dumbrava Roşie","latitude":"46.88535000","longitude":"26.44117000"},{"name":"Comuna Dămuc","latitude":"46.75621000","longitude":"25.89219000"},{"name":"Comuna Fãurei","latitude":"46.91528000","longitude":"26.71834000"},{"name":"Comuna Fărcaşa","latitude":"47.15272000","longitude":"25.84880000"},{"name":"Comuna Gherăeşti","latitude":"47.03620000","longitude":"26.82009000"},{"name":"Comuna Ghindăoani","latitude":"47.10983000","longitude":"26.33909000"},{"name":"Comuna Girov","latitude":"46.94918000","longitude":"26.48244000"},{"name":"Comuna Grinţieş","latitude":"47.02472000","longitude":"25.87636000"},{"name":"Comuna Grumăzeşti","latitude":"47.14727000","longitude":"26.38641000"},{"name":"Comuna Gâdinţi","latitude":"46.93708000","longitude":"27.00588000"},{"name":"Comuna Gârcina","latitude":"46.99222000","longitude":"26.32820000"},{"name":"Comuna Hangu","latitude":"47.03525000","longitude":"26.06400000"},{"name":"Comuna Horia","latitude":"46.90639000","longitude":"26.93891000"},{"name":"Comuna Icuseşti","latitude":"46.79894000","longitude":"26.99076000"},{"name":"Comuna Ion Creangă","latitude":"46.86069000","longitude":"27.00358000"},{"name":"Comuna Moldoveni","latitude":"46.82131000","longitude":"26.78791000"},{"name":"Comuna Mărgineni","latitude":"46.89237000","longitude":"26.65742000"},{"name":"Comuna Negreşti","latitude":"47.04779000","longitude":"26.35005000"},{"name":"Comuna Oniceni","latitude":"46.78926000","longitude":"27.16336000"},{"name":"Comuna Petricani","latitude":"47.15304000","longitude":"26.44114000"},{"name":"Comuna Piatra Şoimului","latitude":"46.82443000","longitude":"26.41848000"},{"name":"Comuna Pipirig","latitude":"47.22800000","longitude":"26.08483000"},{"name":"Comuna Podoleni","latitude":"46.81772000","longitude":"26.63280000"},{"name":"Comuna Poiana Teiului","latitude":"47.11403000","longitude":"25.92517000"},{"name":"Comuna Poienari","latitude":"46.88625000","longitude":"27.11966000"},{"name":"Comuna Pânceşti","latitude":"46.90170000","longitude":"27.16879000"},{"name":"Comuna Pângăraţi","latitude":"46.93333000","longitude":"26.15000000"},{"name":"Comuna Păstrăveni","latitude":"47.15940000","longitude":"26.57615000"},{"name":"Comuna Rediu","latitude":"46.75000000","longitude":"26.56667000"},{"name":"Comuna Români","latitude":"46.80242000","longitude":"26.69945000"},{"name":"Comuna Ruginoasa","latitude":"46.97447000","longitude":"26.70674000"},{"name":"Comuna Rãzboieni","latitude":"47.07424000","longitude":"26.56150000"},{"name":"Comuna Răuceşti","latitude":"47.26151000","longitude":"26.41170000"},{"name":"Comuna Sagna","latitude":"46.96806000","longitude":"27.01670000"},{"name":"Comuna Secuieni","latitude":"46.86853000","longitude":"26.81062000"},{"name":"Comuna Stăniţa","latitude":"47.01216000","longitude":"27.13704000"},{"name":"Comuna Săbăoani","latitude":"47.00187000","longitude":"26.88525000"},{"name":"Comuna Săvineşti","latitude":"46.86469000","longitude":"26.48400000"},{"name":"Comuna Tarcău","latitude":"46.82269000","longitude":"26.16264000"},{"name":"Comuna Tazlău","latitude":"46.72098000","longitude":"26.47003000"},{"name":"Comuna Taşca","latitude":"46.88991000","longitude":"26.01069000"},{"name":"Comuna Timişeşti","latitude":"47.22939000","longitude":"26.51982000"},{"name":"Comuna Trifeşti","latitude":"46.90906000","longitude":"26.83311000"},{"name":"Comuna Tupilaţi","latitude":"47.08147000","longitude":"26.64158000"},{"name":"Comuna Tămăşeni","latitude":"47.00327000","longitude":"26.95087000"},{"name":"Comuna Urecheni","latitude":"47.17764000","longitude":"26.53424000"},{"name":"Comuna Valea Ursului","latitude":"46.79452000","longitude":"27.08166000"},{"name":"Comuna Vânători Neamţ","latitude":"47.23534000","longitude":"26.27700000"},{"name":"Comuna Văleni","latitude":"47.02964000","longitude":"26.71532000"},{"name":"Comuna Zăneşti","latitude":"46.82573000","longitude":"26.56213000"},{"name":"Comuna Ştefan cel Mare","latitude":"46.98599000","longitude":"26.51293000"},{"name":"Comuna Ţibucani","latitude":"47.11856000","longitude":"26.57350000"},{"name":"Cordun","latitude":"46.95000000","longitude":"26.86667000"},{"name":"Costişa","latitude":"46.75000000","longitude":"26.65000000"},{"name":"Cotu Vameș","latitude":"46.90600000","longitude":"26.95535000"},{"name":"Cracăul Negru","latitude":"47.09363000","longitude":"26.24061000"},{"name":"Crăcăoani","latitude":"47.09836000","longitude":"26.31111000"},{"name":"Cuejdiu","latitude":"46.99040000","longitude":"26.29455000"},{"name":"Cut","latitude":"46.88258000","longitude":"26.41928000"},{"name":"Cândeşti","latitude":"46.71667000","longitude":"26.58333000"},{"name":"Dobreni","latitude":"46.98333000","longitude":"26.41667000"},{"name":"Dochia","latitude":"46.90731000","longitude":"26.56763000"},{"name":"Dodeni","latitude":"46.92587000","longitude":"26.09277000"},{"name":"Dolhești","latitude":"47.21189000","longitude":"26.06738000"},{"name":"Doljeşti","latitude":"47.03333000","longitude":"26.98333000"},{"name":"Dragomireşti","latitude":"47.01667000","longitude":"26.53333000"},{"name":"Drăgănești","latitude":"47.30886000","longitude":"26.40551000"},{"name":"Dulceşti","latitude":"46.96667000","longitude":"26.76667000"},{"name":"Dumbrava","latitude":"47.21620000","longitude":"26.46309000"},{"name":"Dumbrava Roşie","latitude":"46.88333000","longitude":"26.43333000"},{"name":"Dămuc","latitude":"46.80000000","longitude":"25.90000000"},{"name":"Filioara","latitude":"47.16040000","longitude":"26.27920000"},{"name":"Fărcaşa","latitude":"47.16667000","longitude":"25.83333000"},{"name":"Făurei","latitude":"46.91667000","longitude":"26.68333000"},{"name":"Gherăeşti","latitude":"47.01667000","longitude":"26.81667000"},{"name":"Ghindăoani","latitude":"47.10983000","longitude":"26.33909000"},{"name":"Girov","latitude":"46.95000000","longitude":"26.51667000"},{"name":"Goșmani","latitude":"46.83620000","longitude":"26.71522000"},{"name":"Grinţieş","latitude":"47.05000000","longitude":"25.86667000"},{"name":"Grumăzeşti","latitude":"47.13333000","longitude":"26.36667000"},{"name":"Gâdinţi","latitude":"46.93333000","longitude":"27.01667000"},{"name":"Gârcina","latitude":"46.97691000","longitude":"26.34573000"},{"name":"Hangu","latitude":"47.05000000","longitude":"26.03333000"},{"name":"Hlăpești","latitude":"47.03817000","longitude":"26.59842000"},{"name":"Hociungi","latitude":"46.81311000","longitude":"26.77596000"},{"name":"Horia","latitude":"46.90698000","longitude":"26.91919000"},{"name":"Humulești","latitude":"47.19846000","longitude":"26.35273000"},{"name":"Icuseşti","latitude":"46.80000000","longitude":"26.93333000"},{"name":"Ion Creangă","latitude":"46.87029000","longitude":"26.98023000"},{"name":"Izvoare","latitude":"46.74699000","longitude":"26.80221000"},{"name":"Luminiș","latitude":"46.81332000","longitude":"26.45275000"},{"name":"Lunca","latitude":"47.22765000","longitude":"26.29979000"},{"name":"Mastacăn","latitude":"46.78918000","longitude":"26.48677000"},{"name":"Miron Costin","latitude":"46.92030000","longitude":"26.80567000"},{"name":"Moldoveni","latitude":"46.83333000","longitude":"26.76667000"},{"name":"Municipiul Piatra-Neamţ","latitude":"46.92336000","longitude":"26.37380000"},{"name":"Municipiul Roman","latitude":"46.92973000","longitude":"26.93678000"},{"name":"Mărgineni","latitude":"46.90000000","longitude":"26.63333000"},{"name":"Negrești","latitude":"47.02938000","longitude":"26.37958000"},{"name":"Nemțișor","latitude":"47.23962000","longitude":"26.27209000"},{"name":"Nisiporești","latitude":"47.07720000","longitude":"26.73791000"},{"name":"Oanțu","latitude":"46.90970000","longitude":"26.19887000"},{"name":"Oglinzi","latitude":"47.25055000","longitude":"26.35026000"},{"name":"Oniceni","latitude":"46.81667000","longitude":"27.15000000"},{"name":"Oraş Bicaz","latitude":"46.94890000","longitude":"26.07982000"},{"name":"Oraş Roznov","latitude":"46.83850000","longitude":"26.51277000"},{"name":"Oraş Târgu Neamţ","latitude":"47.19698000","longitude":"26.36414000"},{"name":"Petricani","latitude":"47.16667000","longitude":"26.46667000"},{"name":"Piatra Neamţ","latitude":"46.91667000","longitude":"26.33333000"},{"name":"Piatra Şoimului","latitude":"46.83333000","longitude":"26.43333000"},{"name":"Pildești","latitude":"46.99675000","longitude":"26.82558000"},{"name":"Pipirig","latitude":"47.25000000","longitude":"26.06667000"},{"name":"Podoleni","latitude":"46.80000000","longitude":"26.61667000"},{"name":"Poiana Crăcăoani","latitude":"47.06667000","longitude":"26.31667000"},{"name":"Poiana Teiului","latitude":"47.10000000","longitude":"25.96667000"},{"name":"Poienari","latitude":"46.88777000","longitude":"27.12765000"},{"name":"Poieni","latitude":"46.83333000","longitude":"26.35000000"},{"name":"Poloboc","latitude":"46.76109000","longitude":"26.54975000"},{"name":"Pânceşti","latitude":"46.90296000","longitude":"27.15314000"},{"name":"Pângăraţi","latitude":"46.93333000","longitude":"26.15000000"},{"name":"Pângărăcior","latitude":"46.93333000","longitude":"26.21667000"},{"name":"Păstrăveni","latitude":"47.16667000","longitude":"26.56667000"},{"name":"Rediu","latitude":"46.75598000","longitude":"26.56254000"},{"name":"Roman","latitude":"46.92119000","longitude":"26.92646000"},{"name":"Români","latitude":"46.78333000","longitude":"26.68333000"},{"name":"Rotunda","latitude":"47.02210000","longitude":"26.96266000"},{"name":"Roznov","latitude":"46.83333000","longitude":"26.51667000"},{"name":"Ruginoasa","latitude":"46.98622000","longitude":"26.70635000"},{"name":"Ruseni","latitude":"46.79841000","longitude":"26.53943000"},{"name":"Rădeni","latitude":"47.14260000","longitude":"26.53703000"},{"name":"Răuceşti","latitude":"47.25000000","longitude":"26.41667000"},{"name":"Războienii de Jos","latitude":"47.06887000","longitude":"26.56374000"},{"name":"Sabasa","latitude":"47.20174000","longitude":"25.81760000"},{"name":"Sagna","latitude":"46.98333000","longitude":"27.01667000"},{"name":"Secuieni","latitude":"46.85000000","longitude":"26.83333000"},{"name":"Siliștea","latitude":"46.77781000","longitude":"26.69303000"},{"name":"Slobozia","latitude":"46.84892000","longitude":"26.53344000"},{"name":"Stejaru","latitude":"46.91888000","longitude":"26.18023000"},{"name":"Stânca","latitude":"47.23069000","longitude":"26.13139000"},{"name":"Stăniţa","latitude":"47.01667000","longitude":"27.10000000"},{"name":"Tupilaţi","latitude":"47.06667000","longitude":"26.63333000"},{"name":"Târgu Neamţ","latitude":"47.20000000","longitude":"26.36667000"},{"name":"Tămăşeni","latitude":"46.98333000","longitude":"26.93333000"},{"name":"Urecheni","latitude":"47.16667000","longitude":"26.51667000"},{"name":"Valea Arini","latitude":"47.12694000","longitude":"26.29377000"},{"name":"Valea Seacă","latitude":"47.13944000","longitude":"26.29956000"},{"name":"Valea Ursului","latitude":"46.81667000","longitude":"27.08333000"},{"name":"Viişoara","latitude":"46.93333000","longitude":"26.23333000"},{"name":"Vânători-Neamţ","latitude":"47.20000000","longitude":"26.31667000"},{"name":"Vădurele","latitude":"46.72958000","longitude":"26.57173000"},{"name":"Văleni","latitude":"46.90291000","longitude":"26.38945000"},{"name":"Zăneşti","latitude":"46.81667000","longitude":"26.55000000"},{"name":"Ştefan cel Mare","latitude":"46.98482000","longitude":"26.51070000"},{"name":"Ţibucani","latitude":"47.10000000","longitude":"26.53333000"},{"name":"Țolici","latitude":"47.11840000","longitude":"26.44841000"},{"name":"Săbăoani","latitude":"47.01667000","longitude":"26.85000000"},{"name":"Săvineşti","latitude":"46.85000000","longitude":"26.46667000"},{"name":"Tarcău","latitude":"46.86667000","longitude":"26.13333000"},{"name":"Tazlău","latitude":"46.71667000","longitude":"26.46667000"},{"name":"Taşca","latitude":"46.90000000","longitude":"26.01667000"},{"name":"Telec","latitude":"46.87979000","longitude":"25.87775000"},{"name":"Timişeşti","latitude":"47.23333000","longitude":"26.55000000"},{"name":"Topolița","latitude":"47.16787000","longitude":"26.38345000"},{"name":"Traian","latitude":"46.83335000","longitude":"26.57655000"},{"name":"Trifeşti","latitude":"46.91667000","longitude":"26.81667000"}]