[{"name":"Ben","latitude":"32.53556000","longitude":"50.75201000"},{"name":"Borūjen","latitude":"31.96523000","longitude":"51.28730000"},{"name":"Chelgard","latitude":"32.46720000","longitude":"50.12229000"},{"name":"Farrokh Shahr","latitude":"32.27174000","longitude":"50.98008000"},{"name":"Fārsān","latitude":"32.25694000","longitude":"50.56095000"},{"name":"Saman","latitude":"32.44980000","longitude":"50.91379000"},{"name":"Shahr-e Kord","latitude":"32.32612000","longitude":"50.85720000"},{"name":"Shahrekord","latitude":"32.31667000","longitude":"50.80000000"},{"name":"Shahrestān-e Borūjen","latitude":"31.90000000","longitude":"51.20000000"},{"name":"Shahrestān-e Fārsān","latitude":"32.25779000","longitude":"50.56235000"},{"name":"Shahrestān-e Kīār","latitude":"32.00000000","longitude":"50.76667000"},{"name":"Shahrestān-e Kūhrang","latitude":"32.41667000","longitude":"50.00000000"},{"name":"Shahrestān-e Lordegān","latitude":"31.43333000","longitude":"50.83333000"}]