[{"name":"Chunghwa","latitude":"38.86389000","longitude":"125.80000000"},{"name":"Kangdong-ŭp","latitude":"39.14250000","longitude":"126.09611000"},{"name":"Pyongyang","latitude":"39.03385000","longitude":"125.75432000"},{"name":"Sunan","latitude":"39.19833000","longitude":"125.69000000"},{"name":"Sŭngho 1-tong","latitude":"38.99139000","longitude":"125.97778000"}]