[{"name":"Alexandria","latitude":"43.98333000","longitude":"25.33333000"},{"name":"Baciu","latitude":"44.33152000","longitude":"25.44429000"},{"name":"Balaci","latitude":"44.35000000","longitude":"24.91667000"},{"name":"Beciu","latitude":"44.00429000","longitude":"24.66571000"},{"name":"Beiu","latitude":"43.87352000","longitude":"25.45548000"},{"name":"Beuca","latitude":"44.25200000","longitude":"24.96637000"},{"name":"Blejeşti","latitude":"44.30000000","longitude":"25.46667000"},{"name":"Bogdana","latitude":"43.93333000","longitude":"25.08333000"},{"name":"Botoroaga","latitude":"44.14833000","longitude":"25.54472000"},{"name":"Bragadiru","latitude":"43.76667000","longitude":"25.51667000"},{"name":"Brânceni","latitude":"43.88333000","longitude":"25.40000000"},{"name":"Brâncoveanca","latitude":"43.94075000","longitude":"24.69336000"},{"name":"Bujoreni","latitude":"44.11667000","longitude":"25.63333000"},{"name":"Bujoru","latitude":"43.71667000","longitude":"25.56667000"},{"name":"Buzescu","latitude":"44.01667000","longitude":"25.23333000"},{"name":"Bâscoveni","latitude":"44.24444000","longitude":"25.35998000"},{"name":"Băbăiţa","latitude":"44.16667000","longitude":"25.38333000"},{"name":"Băcălești","latitude":"44.05997000","longitude":"24.81636000"},{"name":"Băduleasa","latitude":"43.92286000","longitude":"24.98274000"},{"name":"Băneasa","latitude":"43.93975000","longitude":"24.94997000"},{"name":"Calomfirești","latitude":"43.91736000","longitude":"25.35801000"},{"name":"Cernetu","latitude":"43.90727000","longitude":"25.45688000"},{"name":"Cervenia","latitude":"43.83333000","longitude":"25.46667000"},{"name":"Ciuani","latitude":"44.23333000","longitude":"25.65000000"},{"name":"Ciuperceni","latitude":"43.76667000","longitude":"24.95000000"},{"name":"Comuna Balaci","latitude":"44.35188000","longitude":"24.90962000"},{"name":"Comuna Beciu","latitude":"44.01272000","longitude":"24.66163000"},{"name":"Comuna Beuca","latitude":"44.26595000","longitude":"24.97928000"},{"name":"Comuna Blejeşti","latitude":"44.30317000","longitude":"25.45269000"},{"name":"Comuna Bogdana","latitude":"43.92860000","longitude":"25.08358000"},{"name":"Comuna Botoroaga","latitude":"44.14997000","longitude":"25.55171000"},{"name":"Comuna Bragadiru","latitude":"43.76059000","longitude":"25.51984000"},{"name":"Comuna Brânceni","latitude":"43.87792000","longitude":"25.39711000"},{"name":"Comuna Bujoreni","latitude":"44.12054000","longitude":"25.65152000"},{"name":"Comuna Bujoru","latitude":"43.71092000","longitude":"25.56315000"},{"name":"Comuna Buzescu","latitude":"44.01081000","longitude":"25.22886000"},{"name":"Comuna Băbăiţa","latitude":"44.13909000","longitude":"25.39156000"},{"name":"Comuna Cervenia","latitude":"43.83585000","longitude":"25.46050000"},{"name":"Comuna Ciolăneşti","latitude":"44.31372000","longitude":"25.08333000"},{"name":"Comuna Ciuperceni","latitude":"43.75115000","longitude":"24.94397000"},{"name":"Comuna Conţeşti","latitude":"43.79183000","longitude":"25.49530000"},{"name":"Comuna Cosmeşti","latitude":"44.30661000","longitude":"25.38602000"},{"name":"Comuna Crevenicu","latitude":"44.24508000","longitude":"25.57385000"},{"name":"Comuna Crângeni","latitude":"44.01370000","longitude":"24.80845000"},{"name":"Comuna Crângu","latitude":"43.84490000","longitude":"25.08121000"},{"name":"Comuna Cãlmãţuiu","latitude":"43.96083000","longitude":"24.85612000"},{"name":"Comuna Cãlmãţuiu De Sus","latitude":"44.04404000","longitude":"24.81582000"},{"name":"Comuna Călineşti","latitude":"44.11002000","longitude":"25.21305000"},{"name":"Comuna Dideşti","latitude":"44.22331000","longitude":"24.88878000"},{"name":"Comuna Dobroteşti","latitude":"44.26466000","longitude":"24.88097000"},{"name":"Comuna Dracea","latitude":"43.87177000","longitude":"25.03182000"},{"name":"Comuna Drãcşenei","latitude":"44.20715000","longitude":"25.00370000"},{"name":"Comuna Drăgăneşti de Vede","latitude":"44.13081000","longitude":"25.04870000"},{"name":"Comuna Drăgăneşti-Vlaşca","latitude":"44.09517000","longitude":"25.54848000"},{"name":"Comuna Frumoasa","latitude":"43.80298000","longitude":"25.46311000"},{"name":"Comuna Frăsinet","latitude":"44.18808000","longitude":"25.37818000"},{"name":"Comuna Furculeşti","latitude":"43.86572000","longitude":"25.13980000"},{"name":"Comuna Fântânele","latitude":"43.72104000","longitude":"25.29265000"},{"name":"Comuna Gratia","latitude":"44.43382000","longitude":"25.44103000"},{"name":"Comuna Gălăţeni","latitude":"44.22491000","longitude":"25.36466000"},{"name":"Comuna Islaz","latitude":"43.75179000","longitude":"24.74381000"},{"name":"Comuna Izvoarele","latitude":"43.82717000","longitude":"25.39459000"},{"name":"Comuna Lisa","latitude":"43.77230000","longitude":"25.14919000"},{"name":"Comuna Liţa","latitude":"43.79545000","longitude":"24.82157000"},{"name":"Comuna Lunca","latitude":"43.85788000","longitude":"24.78610000"},{"name":"Comuna Mavrodin","latitude":"44.03559000","longitude":"25.24088000"},{"name":"Comuna Mereni","latitude":"44.22879000","longitude":"25.64434000"},{"name":"Comuna Moşteni","latitude":"44.19787000","longitude":"25.50854000"},{"name":"Comuna Mârzãneşti","latitude":"43.93154000","longitude":"25.46230000"},{"name":"Comuna Măgura","latitude":"44.04054000","longitude":"25.39590000"},{"name":"Comuna Măldăeni","latitude":"44.12658000","longitude":"24.92327000"},{"name":"Comuna Nanov","latitude":"43.99171000","longitude":"25.28894000"},{"name":"Comuna Necşeşti","latitude":"44.26085000","longitude":"25.13225000"},{"name":"Comuna Nenciuleşti","latitude":"44.03860000","longitude":"25.18551000"},{"name":"Comuna Năsturelu","latitude":"43.66634000","longitude":"25.43856000"},{"name":"Comuna Olteni","latitude":"44.18976000","longitude":"25.27800000"},{"name":"Comuna Orbeasca","latitude":"44.11606000","longitude":"25.32708000"},{"name":"Comuna Peretu","latitude":"44.04372000","longitude":"25.09285000"},{"name":"Comuna Piatra","latitude":"43.81058000","longitude":"25.16777000"},{"name":"Comuna Pietroşani","latitude":"43.71364000","longitude":"25.63998000"},{"name":"Comuna Plopii Slăviţeşti","latitude":"43.96098000","longitude":"24.68525000"},{"name":"Comuna Plosca","latitude":"44.02338000","longitude":"25.14920000"},{"name":"Comuna Poeni","latitude":"44.43297000","longitude":"25.33868000"},{"name":"Comuna Poroschia","latitude":"43.92887000","longitude":"25.35760000"},{"name":"Comuna Purani","latitude":"44.36509000","longitude":"25.41322000"},{"name":"Comuna Putineiu","latitude":"43.91429000","longitude":"24.96969000"},{"name":"Comuna Rãdoieşti","latitude":"44.14377000","longitude":"25.15357000"},{"name":"Comuna Răsmireşti","latitude":"43.99981000","longitude":"25.57118000"},{"name":"Comuna Saelele","latitude":"43.85274000","longitude":"24.73838000"},{"name":"Comuna Salcia","latitude":"43.94157000","longitude":"24.92663000"},{"name":"Comuna Scrioaştea","latitude":"44.16453000","longitude":"24.95299000"},{"name":"Comuna Scurtu Mare","latitude":"44.35259000","longitude":"25.25895000"},{"name":"Comuna Seaca","latitude":"43.74933000","longitude":"25.07423000"},{"name":"Comuna Segarcea Vale","latitude":"43.82417000","longitude":"24.81422000"},{"name":"Comuna Sfinţeşti","latitude":"44.18824000","longitude":"25.10389000"},{"name":"Comuna Siliştea","latitude":"44.37398000","longitude":"25.35104000"},{"name":"Comuna Siliștea Gumești","latitude":"44.38028000","longitude":"25.01389000"},{"name":"Comuna Slobozia-Mândra","latitude":"43.91576000","longitude":"24.69914000"},{"name":"Comuna Smârdioasa","latitude":"43.83939000","longitude":"25.44190000"},{"name":"Comuna Stejaru","latitude":"44.17715000","longitude":"24.88208000"},{"name":"Comuna Storobăneasa","latitude":"43.87974000","longitude":"25.45622000"},{"name":"Comuna Suhaia","latitude":"43.73953000","longitude":"25.25291000"},{"name":"Comuna Sârbeni","latitude":"44.46667000","longitude":"25.38333000"},{"name":"Comuna Săceni","latitude":"44.23310000","longitude":"25.06073000"},{"name":"Comuna Talpa","latitude":"44.28070000","longitude":"25.30919000"},{"name":"Comuna Traian","latitude":"43.76720000","longitude":"25.00494000"},{"name":"Comuna Trivalea-Moşteni","latitude":"44.26200000","longitude":"25.24082000"},{"name":"Comuna Troianul","latitude":"44.00415000","longitude":"25.02400000"},{"name":"Comuna Tătărăştii de Jos","latitude":"44.36960000","longitude":"25.19385000"},{"name":"Comuna Tătărăştii de Sus","latitude":"44.40857000","longitude":"25.13146000"},{"name":"Comuna Uda-Clocociov","latitude":"43.88385000","longitude":"24.71908000"},{"name":"Comuna Vedea","latitude":"44.09436000","longitude":"25.07495000"},{"name":"Comuna Viişoara","latitude":"43.77985000","longitude":"25.17520000"},{"name":"Comuna Vităneşti","latitude":"43.99272000","longitude":"25.45246000"},{"name":"Comuna Vârtoape","latitude":"44.19981000","longitude":"25.19797000"},{"name":"Comuna Zâmbreasca","latitude":"44.30350000","longitude":"24.99847000"},{"name":"Comuna Ţigăneşti","latitude":"43.90141000","longitude":"25.37804000"},{"name":"Conţeşti","latitude":"43.80000000","longitude":"25.48333000"},{"name":"Cosmeşti","latitude":"44.30000000","longitude":"25.38333000"},{"name":"Crevenicu","latitude":"44.24083000","longitude":"25.58861000"},{"name":"Crângeni","latitude":"44.03333000","longitude":"24.78333000"},{"name":"Crângu","latitude":"43.84611000","longitude":"25.07350000"},{"name":"Cucueți","latitude":"44.18432000","longitude":"24.94826000"},{"name":"Călineşti","latitude":"44.08333000","longitude":"25.23333000"},{"name":"Călmăţuiu","latitude":"43.96667000","longitude":"24.86667000"},{"name":"Călmățuiu de Sus","latitude":"44.02632000","longitude":"24.81230000"},{"name":"Deparați","latitude":"44.28116000","longitude":"25.22151000"},{"name":"Didești","latitude":"44.21667000","longitude":"24.88333000"},{"name":"Dobreni","latitude":"44.41667000","longitude":"25.11667000"},{"name":"Dobroteşti","latitude":"44.28333000","longitude":"24.88333000"},{"name":"Dracea","latitude":"43.84914000","longitude":"25.05194000"},{"name":"Drăcşani","latitude":"44.21667000","longitude":"24.98333000"},{"name":"Drăcșenei","latitude":"44.22676000","longitude":"24.98542000"},{"name":"Drăghinești","latitude":"44.43093000","longitude":"25.42608000"},{"name":"Drăgăneşti de Vede","latitude":"44.13333000","longitude":"25.05000000"},{"name":"Drăgăneşti-Vlaşca","latitude":"44.10139000","longitude":"25.59806000"},{"name":"Dudu","latitude":"43.97897000","longitude":"24.67786000"},{"name":"Frumoasa","latitude":"43.80000000","longitude":"25.46667000"},{"name":"Frăsinet","latitude":"44.18038000","longitude":"25.38238000"},{"name":"Furculești","latitude":"43.87202000","longitude":"25.14285000"},{"name":"Fântânele","latitude":"43.72104000","longitude":"25.29265000"},{"name":"Gratia","latitude":"44.43333000","longitude":"25.45000000"},{"name":"Guruieni","latitude":"44.05845000","longitude":"25.39656000"},{"name":"Gălăţeni","latitude":"44.21667000","longitude":"25.35000000"},{"name":"Gărăgău","latitude":"44.23186000","longitude":"25.18920000"},{"name":"Islaz","latitude":"43.72006000","longitude":"24.76436000"},{"name":"Izvoarele","latitude":"43.81667000","longitude":"25.38333000"},{"name":"Lisa","latitude":"43.80000000","longitude":"25.13333000"},{"name":"Liţa","latitude":"43.80000000","longitude":"24.81667000"},{"name":"Lunca","latitude":"43.83333000","longitude":"24.76667000"},{"name":"Lăceni","latitude":"44.08466000","longitude":"25.33270000"},{"name":"Mavrodin","latitude":"44.03333000","longitude":"25.25000000"},{"name":"Merenii de Jos","latitude":"44.23214000","longitude":"25.64346000"},{"name":"Merenii de Sus","latitude":"44.22839000","longitude":"25.62103000"},{"name":"Merișani","latitude":"44.25190000","longitude":"24.87550000"},{"name":"Moldoveni","latitude":"43.77772000","longitude":"24.72802000"},{"name":"Moșteni","latitude":"44.19787000","longitude":"25.50854000"},{"name":"Municipiul Alexandria","latitude":"43.96967000","longitude":"25.33272000"},{"name":"Municipiul Roșiorii de Vede","latitude":"44.11368000","longitude":"24.98722000"},{"name":"Municipiul Turnu Magurele","latitude":"43.74646000","longitude":"24.86893000"},{"name":"Mârzăneşti","latitude":"43.93333000","longitude":"25.46667000"},{"name":"Măgura","latitude":"44.03333000","longitude":"25.40000000"},{"name":"Măldăeni","latitude":"44.11667000","longitude":"24.93333000"},{"name":"Nanov","latitude":"44.00000000","longitude":"25.30000000"},{"name":"Necşeşti","latitude":"44.25000000","longitude":"25.15000000"},{"name":"Nenciulești","latitude":"44.03486000","longitude":"25.20061000"},{"name":"Năsturelu","latitude":"43.66667000","longitude":"25.46667000"},{"name":"Năvodari","latitude":"43.74208000","longitude":"25.09410000"},{"name":"Olteanca","latitude":"43.83047000","longitude":"24.79597000"},{"name":"Olteni","latitude":"44.18333000","longitude":"25.28333000"},{"name":"Oraş Videle","latitude":"44.27660000","longitude":"25.57844000"},{"name":"Oraş Zimnicea","latitude":"43.65660000","longitude":"25.36603000"},{"name":"Orbeasca de Jos","latitude":"44.12177000","longitude":"25.32952000"},{"name":"Orbeasca de Sus","latitude":"44.15000000","longitude":"25.31667000"},{"name":"Peretu","latitude":"44.05000000","longitude":"25.08333000"},{"name":"Perii Broșteni","latitude":"44.20336000","longitude":"25.26377000"},{"name":"Piatra","latitude":"43.81667000","longitude":"25.16667000"},{"name":"Pietroşani","latitude":"43.71383000","longitude":"25.64409000"},{"name":"Pleașov","latitude":"43.84971000","longitude":"24.74886000"},{"name":"Plopii Slăviţeştí","latitude":"43.96667000","longitude":"24.68333000"},{"name":"Plosca","latitude":"44.03333000","longitude":"25.13333000"},{"name":"Poeni","latitude":"44.40000000","longitude":"25.33333000"},{"name":"Poiana","latitude":"43.74192000","longitude":"24.95244000"},{"name":"Poporogi","latitude":"44.36667000","longitude":"25.18333000"},{"name":"Poroschia","latitude":"43.93333000","longitude":"25.36667000"},{"name":"Prundu","latitude":"43.82394000","longitude":"24.69196000"},{"name":"Purani","latitude":"43.97989000","longitude":"25.43656000"},{"name":"Putineiu","latitude":"43.90000000","longitude":"24.96667000"},{"name":"Roșiorii de Vede","latitude":"44.11667000","longitude":"24.98333000"},{"name":"Rădoiești-Deal","latitude":"44.15000000","longitude":"25.13333000"},{"name":"Răsmireşti","latitude":"43.98333000","longitude":"25.55000000"},{"name":"Saelele","latitude":"43.85577000","longitude":"24.72789000"},{"name":"Salcia","latitude":"43.95000000","longitude":"24.91667000"},{"name":"Scrioaştea","latitude":"44.15000000","longitude":"24.95000000"},{"name":"Scurtu Mare","latitude":"44.35000000","longitude":"25.26667000"},{"name":"Seaca","latitude":"43.75000000","longitude":"25.06667000"},{"name":"Segarcea Vale","latitude":"43.81667000","longitude":"24.80000000"},{"name":"Segarcea-Deal","latitude":"43.82548000","longitude":"24.84020000"},{"name":"Sfinţeşti","latitude":"44.18333000","longitude":"25.10000000"},{"name":"Siliştea","latitude":"44.38333000","longitude":"25.35000000"},{"name":"Siliștea Gumești","latitude":"44.38333000","longitude":"25.00000000"},{"name":"Slobozia-Mândra","latitude":"43.91667000","longitude":"24.70000000"},{"name":"Smârdioasa","latitude":"43.85000000","longitude":"25.43333000"},{"name":"Socetu","latitude":"44.19502000","longitude":"24.85421000"},{"name":"Spătărei","latitude":"43.88848000","longitude":"25.13650000"},{"name":"Stejaru","latitude":"44.18333000","longitude":"24.88333000"},{"name":"Storobăneasa","latitude":"43.88333000","longitude":"25.45000000"},{"name":"Suhaia","latitude":"43.73333000","longitude":"25.25000000"},{"name":"Turnu Măgurele","latitude":"43.74690000","longitude":"24.86846000"},{"name":"Târnava","latitude":"44.14440000","longitude":"25.56347000"},{"name":"Tătărăștii de Jos","latitude":"44.37501000","longitude":"25.17721000"},{"name":"Tătărăștii de Sus","latitude":"44.40768000","longitude":"25.12192000"},{"name":"Uda-Clocociov","latitude":"43.88791000","longitude":"24.71437000"},{"name":"Uda-Paciurea","latitude":"43.87979000","longitude":"24.72379000"},{"name":"Udupu","latitude":"44.39657000","longitude":"25.14488000"},{"name":"Valea Cireșului","latitude":"44.16699000","longitude":"25.56437000"},{"name":"Valea Părului","latitude":"43.91727000","longitude":"25.46589000"},{"name":"Vedea","latitude":"44.08333000","longitude":"25.06667000"},{"name":"Videle","latitude":"44.27806000","longitude":"25.52444000"},{"name":"Viişoara","latitude":"43.78333000","longitude":"25.16667000"},{"name":"Vităneşti","latitude":"44.00000000","longitude":"25.41667000"},{"name":"Vârtoapele de Jos","latitude":"44.18333000","longitude":"25.20000000"},{"name":"Vârtoapele de Sus","latitude":"44.19182000","longitude":"25.20025000"},{"name":"Zimnicea","latitude":"43.65638000","longitude":"25.36454000"},{"name":"Zimnicele","latitude":"43.66126000","longitude":"25.41291000"},{"name":"Zâmbreasca","latitude":"44.31667000","longitude":"24.98333000"},{"name":"Ţigăneşti","latitude":"43.90000000","longitude":"25.36667000"},{"name":"Sârbeni","latitude":"44.46667000","longitude":"25.38333000"},{"name":"Săceni","latitude":"44.23333000","longitude":"25.06667000"},{"name":"Talpa-Ogrăzile","latitude":"44.28726000","longitude":"25.29328000"},{"name":"Talpa-Trivalea","latitude":"44.28333000","longitude":"25.28333000"},{"name":"Tecuci","latitude":"44.34179000","longitude":"24.85966000"},{"name":"Teleormanu","latitude":"43.96271000","longitude":"25.45876000"},{"name":"Traian","latitude":"43.76667000","longitude":"25.00000000"},{"name":"Trivalea-Moşteni","latitude":"44.26667000","longitude":"25.23333000"},{"name":"Troianul","latitude":"44.00000000","longitude":"25.00000000"},{"name":"Tudor Vladimirescu","latitude":"43.94761000","longitude":"24.90616000"}]