[{"name":"Abim District","countryCode":"UG","fipsCode":"26","iso":"314","latitude":"2.70669800","longitude":"33.65953370"},{"name":"Adjumani District","countryCode":"UG","fipsCode":"65","iso":"301","latitude":"3.25485270","longitude":"31.71954590"},{"name":"Agago District","countryCode":"UG","fipsCode":"66","iso":"322","latitude":"2.92508200","longitude":"33.34861470"},{"name":"Alebtong District","countryCode":"UG","fipsCode":"47","iso":"323","latitude":"2.25457730","longitude":"33.34861470"},{"name":"Amolatar District","countryCode":"UG","fipsCode":"52","iso":"315","latitude":"1.60544020","longitude":"32.80844960"},{"name":"Amudat District","countryCode":"UG","fipsCode":"87","iso":"324","latitude":"1.79162240","longitude":"34.90655100"},{"name":"Amuria District","countryCode":"UG","fipsCode":"87","iso":"216","latitude":"2.03017000","longitude":"33.64275330"},{"name":"Amuru District","countryCode":"UG","fipsCode":"38","iso":"316","latitude":"2.96678780","longitude":"32.08374450"},{"name":"Apac District","countryCode":"UG","fipsCode":"26","iso":"302","latitude":"1.87302630","longitude":"32.62774550"},{"name":"Arua District","countryCode":"UG","fipsCode":"77","iso":"303","latitude":"2.99598460","longitude":"31.17103890"},{"name":"Budaka District","countryCode":"UG","fipsCode":"40","iso":"217","latitude":"1.10162770","longitude":"33.93039910"},{"name":"Bududa District","countryCode":"UG","fipsCode":"84","iso":"218","latitude":"1.00296930","longitude":"34.33381230"},{"name":"Bugiri District","countryCode":"UG","fipsCode":"66","iso":"201","latitude":"0.53161270","longitude":"33.75177230"},{"name":"Buhweju District","countryCode":"UG","fipsCode":"66","iso":"420","latitude":"-0.29113590","longitude":"30.29741990"},{"name":"Buikwe District","countryCode":"UG","fipsCode":"82","iso":"117","latitude":"0.31440460","longitude":"32.98883190"},{"name":"Bukedea District","countryCode":"UG","fipsCode":"47","iso":"219","latitude":"1.35568980","longitude":"34.10867930"},{"name":"Bukomansimbi District","countryCode":"UG","fipsCode":"82","iso":"118","latitude":"-0.14327520","longitude":"31.60548930"},{"name":"Bukwo District","countryCode":"UG","fipsCode":"37","iso":"220","latitude":"1.28186510","longitude":"34.72987650"},{"name":"Bulambuli District","countryCode":"UG","fipsCode":"74","iso":"225","latitude":"1.47988460","longitude":"34.37544140"},{"name":"Buliisa District","countryCode":"UG","fipsCode":"66","iso":"416","latitude":"2.02996070","longitude":"31.53700030"},{"name":"Bundibugyo District","countryCode":"UG","fipsCode":"28","iso":"401","latitude":"0.68517630","longitude":"30.02029640"},{"name":"Bunyangabu District","countryCode":"UG","fipsCode":"82","iso":"430","latitude":"0.48709180","longitude":"30.20510960"},{"name":"Bushenyi District","countryCode":"UG","fipsCode":"29","iso":"402","latitude":"-0.48709180","longitude":"30.20510960"},{"name":"Busia District","countryCode":"UG","fipsCode":"67","iso":"202","latitude":"0.40447310","longitude":"34.01958270"},{"name":"Butaleja District","countryCode":"UG","fipsCode":"72","iso":"221","latitude":"0.84749220","longitude":"33.84112880"},{"name":"Butambala District","countryCode":"UG","fipsCode":"37","iso":"119","latitude":"0.17425000","longitude":"32.10646680"},{"name":"Butebo District","countryCode":"UG","fipsCode":"66","iso":"233","latitude":"1.21411240","longitude":"33.90808960"},{"name":"Buvuma District","countryCode":"UG","fipsCode":"30","iso":"120","latitude":"-0.37649120","longitude":"33.25879300"},{"name":"Buyende District","countryCode":"UG","fipsCode":"82","iso":"226","latitude":"1.24136820","longitude":"33.12390490"},{"name":"Central Region","countryCode":"UG","fipsCode":"C","iso":"C","latitude":"44.29687500","longitude":"-94.74017330"},{"name":"Dokolo District","countryCode":"UG","fipsCode":"78","iso":"317","latitude":"1.96364210","longitude":"33.03387670"},{"name":"Eastern Region","countryCode":"UG","fipsCode":"E","iso":"E","latitude":"6.23740360","longitude":"-0.45023680"},{"name":"Gomba District","countryCode":"UG","fipsCode":"72","iso":"121","latitude":"0.22297910","longitude":"31.67393710"},{"name":"Gulu District","countryCode":"UG","fipsCode":"30","iso":"304","latitude":"2.81857760","longitude":"32.44672380"},{"name":"Ibanda District","countryCode":"UG","fipsCode":"80","iso":"417","latitude":"-0.09648900","longitude":"30.57395790"},{"name":"Iganga District","countryCode":"UG","fipsCode":"78","iso":"203","latitude":"0.66001370","longitude":"33.48319060"},{"name":"Isingiro District","countryCode":"UG","fipsCode":"37","iso":"418","latitude":"-0.84354300","longitude":"30.80394740"},{"name":"Jinja District","countryCode":"UG","fipsCode":"33","iso":"204","latitude":"0.53437430","longitude":"33.30371430"},{"name":"Kaabong District","countryCode":"UG","fipsCode":"70","iso":"318","latitude":"3.51262150","longitude":"33.97500180"},{"name":"Kabale District","countryCode":"UG","fipsCode":"34","iso":"404","latitude":"-1.24930840","longitude":"30.06652360"},{"name":"Kabarole District","countryCode":"UG","fipsCode":"79","iso":"405","latitude":"0.58507910","longitude":"30.25127280"},{"name":"Kaberamaido District","countryCode":"UG","fipsCode":"80","iso":"213","latitude":"1.69633220","longitude":"33.21385100"},{"name":"Kagadi District","countryCode":"UG","fipsCode":"85","iso":"427","latitude":"0.94007610","longitude":"30.81256380"},{"name":"Kakumiro District","countryCode":"UG","fipsCode":"C","iso":"428","latitude":"0.78080350","longitude":"31.32413890"},{"name":"Kalangala District","countryCode":"UG","fipsCode":"36","iso":"101","latitude":"-0.63505780","longitude":"32.53727410"},{"name":"Kaliro District","countryCode":"UG","fipsCode":"C","iso":"222","latitude":"1.04311070","longitude":"33.48319060"},{"name":"Kalungu District","countryCode":"UG","fipsCode":"91","iso":"122","latitude":"-0.09528310","longitude":"31.76513620"},{"name":"Kampala District","countryCode":"UG","fipsCode":"37","iso":"102","latitude":"0.34759640","longitude":"32.58251970"},{"name":"Kamuli District","countryCode":"UG","fipsCode":"38","iso":"205","latitude":"0.91871070","longitude":"33.12390490"},{"name":"Kamwenge District","countryCode":"UG","fipsCode":"81","iso":"413","latitude":"0.22579300","longitude":"30.48184460"},{"name":"Kanungu District","countryCode":"UG","fipsCode":"82","iso":"414","latitude":"-0.81952530","longitude":"29.74260400"},{"name":"Kapchorwa District","countryCode":"UG","fipsCode":"39","iso":"206","latitude":"1.33502050","longitude":"34.39763560"},{"name":"Kasese District","countryCode":"UG","fipsCode":"40","iso":"406","latitude":"0.06462850","longitude":"30.06652360"},{"name":"Katakwi District","countryCode":"UG","fipsCode":"69","iso":"207","latitude":"1.97310300","longitude":"34.06414190"},{"name":"Kayunga District","countryCode":"UG","fipsCode":"83","iso":"112","latitude":"0.98601820","longitude":"32.85357550"},{"name":"Kibaale District","countryCode":"UG","fipsCode":"41","iso":"407","latitude":"0.90668020","longitude":"31.07937050"},{"name":"Kiboga District","countryCode":"UG","fipsCode":"42","iso":"103","latitude":"0.96575900","longitude":"31.71954590"},{"name":"Kibuku District","countryCode":"UG","fipsCode":"80","iso":"227","latitude":"1.04528740","longitude":"33.79925360"},{"name":"Kiruhura District","countryCode":"UG","fipsCode":"50","iso":"419","latitude":"-0.19279980","longitude":"30.80394740"},{"name":"Kiryandongo District","countryCode":"UG","fipsCode":"47","iso":"421","latitude":"2.01799070","longitude":"32.08374450"},{"name":"Kisoro District","countryCode":"UG","fipsCode":"43","iso":"408","latitude":"-1.22094300","longitude":"29.64991620"},{"name":"Kitgum District","countryCode":"UG","fipsCode":"84","iso":"305","latitude":"3.33968290","longitude":"33.16888830"},{"name":"Koboko District","countryCode":"UG","fipsCode":"47","iso":"319","latitude":"3.52370580","longitude":"31.03351000"},{"name":"Kole District","countryCode":"UG","fipsCode":"C","iso":"325","latitude":"2.37010970","longitude":"32.76330360"},{"name":"Kotido District","countryCode":"UG","fipsCode":"45","iso":"306","latitude":"3.04156790","longitude":"33.88577470"},{"name":"Kumi District","countryCode":"UG","fipsCode":"46","iso":"208","latitude":"1.48769990","longitude":"33.93039910"},{"name":"Kween District","countryCode":"UG","fipsCode":"83","iso":"228","latitude":"1.44387900","longitude":"34.59713200"},{"name":"Kyankwanzi District","countryCode":"UG","fipsCode":"93","iso":"123","latitude":"1.09660370","longitude":"31.71954590"},{"name":"Kyegegwa District","countryCode":"UG","fipsCode":"41","iso":"422","latitude":"0.48181930","longitude":"31.05500930"},{"name":"Kyenjojo District","countryCode":"UG","fipsCode":"85","iso":"415","latitude":"0.60929230","longitude":"30.64012310"},{"name":"Kyotera District","countryCode":"UG","fipsCode":"77","iso":"125","latitude":"-0.63589880","longitude":"31.54556370"},{"name":"Lamwo District","countryCode":"UG","fipsCode":"90","iso":"326","latitude":"3.57075680","longitude":"32.53727410"},{"name":"Lira District","countryCode":"UG","fipsCode":"47","iso":"307","latitude":"2.23161690","longitude":"32.94376670"},{"name":"Luuka District","countryCode":"UG","fipsCode":"95","iso":"229","latitude":"0.72505990","longitude":"33.30371430"},{"name":"Luwero District","countryCode":"UG","fipsCode":"70","iso":"104","latitude":"0.82711180","longitude":"32.62774550"},{"name":"Lwengo District","countryCode":"UG","fipsCode":"52","iso":"124","latitude":"-0.41652880","longitude":"31.39989950"},{"name":"Lyantonde District","countryCode":"UG","fipsCode":"82","iso":"114","latitude":"-0.22406960","longitude":"31.21684660"},{"name":"Manafwa District","countryCode":"UG","fipsCode":"41","iso":"223","latitude":"0.90635990","longitude":"34.28660910"},{"name":"Maracha District","countryCode":"UG","fipsCode":"69","iso":"320","latitude":"3.28731270","longitude":"30.94030230"},{"name":"Masaka District","countryCode":"UG","fipsCode":"71","iso":"105","latitude":"-0.44636910","longitude":"31.90179540"},{"name":"Masindi District","countryCode":"UG","fipsCode":"50","iso":"409","latitude":"1.49203630","longitude":"31.71954590"},{"name":"Mayuge District","countryCode":"UG","fipsCode":"86","iso":"214","latitude":"-0.21829820","longitude":"33.57280270"},{"name":"Mbale District","countryCode":"UG","fipsCode":"87","iso":"209","latitude":"1.03442740","longitude":"34.19768820"},{"name":"Mbarara District","countryCode":"UG","fipsCode":"52","iso":"410","latitude":"-0.60715960","longitude":"30.65450220"},{"name":"Mitooma District","countryCode":"UG","fipsCode":"70","iso":"423","latitude":"-0.61932760","longitude":"30.02029640"},{"name":"Mityana District","countryCode":"UG","fipsCode":"72","iso":"115","latitude":"0.44548450","longitude":"32.08374450"},{"name":"Moroto District","countryCode":"UG","fipsCode":"88","iso":"308","latitude":"2.61685450","longitude":"34.59713200"},{"name":"Moyo District","countryCode":"UG","fipsCode":"72","iso":"309","latitude":"3.56964640","longitude":"31.67393710"},{"name":"Mpigi District","countryCode":"UG","fipsCode":"89","iso":"106","latitude":"0.22735280","longitude":"32.32492360"},{"name":"Mubende District","countryCode":"UG","fipsCode":"56","iso":"107","latitude":"0.57727580","longitude":"31.53700030"},{"name":"Mukono District","countryCode":"UG","fipsCode":"90","iso":"108","latitude":"0.28354760","longitude":"32.76330360"},{"name":"Nakapiripirit District","countryCode":"UG","fipsCode":"91","iso":"311","latitude":"1.96061730","longitude":"34.59713200"},{"name":"Nakaseke District","countryCode":"UG","fipsCode":"69","iso":"116","latitude":"1.22308480","longitude":"32.08374450"},{"name":"Nakasongola District","countryCode":"UG","fipsCode":"73","iso":"109","latitude":"1.34897210","longitude":"32.44672380"},{"name":"Namayingo District","countryCode":"UG","fipsCode":"87","iso":"230","latitude":"-0.28035750","longitude":"33.75177230"},{"name":"Namisindwa District","countryCode":"UG","fipsCode":"C","iso":"234","latitude":"0.90710100","longitude":"34.35740370"},{"name":"Namutumba District","countryCode":"UG","fipsCode":"80","iso":"224","latitude":"0.84926100","longitude":"33.66233010"},{"name":"Napak District","countryCode":"UG","fipsCode":"94","iso":"327","latitude":"2.36299450","longitude":"34.24215970"},{"name":"Nebbi District","countryCode":"UG","fipsCode":"58","iso":"310","latitude":"2.44093920","longitude":"31.35416310"},{"name":"Ngora District","countryCode":"UG","fipsCode":"69","iso":"231","latitude":"1.49081150","longitude":"33.75177230"},{"name":"Northern Region","countryCode":"UG","fipsCode":"N","iso":"N","latitude":"9.54392690","longitude":"-0.90566230"},{"name":"Ntoroko District","countryCode":"UG","fipsCode":"69","iso":"424","latitude":"1.07881780","longitude":"30.38966510"},{"name":"Ntungamo District","countryCode":"UG","fipsCode":"59","iso":"411","latitude":"-0.98073410","longitude":"30.25127280"},{"name":"Nwoya District","countryCode":"UG","fipsCode":"82","iso":"328","latitude":"2.56244400","longitude":"31.90179540"},{"name":"Omoro District","countryCode":"UG","fipsCode":"82","iso":"331","latitude":"2.71522300","longitude":"32.49200880"},{"name":"Otuke District","countryCode":"UG","fipsCode":"66","iso":"329","latitude":"2.52140590","longitude":"33.34861470"},{"name":"Oyam District","countryCode":"UG","fipsCode":"C","iso":"321","latitude":"2.27762810","longitude":"32.44672380"},{"name":"Pader District","countryCode":"UG","fipsCode":"92","iso":"312","latitude":"2.94306820","longitude":"32.80844960"},{"name":"Pakwach District","countryCode":"UG","fipsCode":"71","iso":"332","latitude":"2.46071410","longitude":"31.49417380"},{"name":"Pallisa District","countryCode":"UG","fipsCode":"60","iso":"210","latitude":"1.23242060","longitude":"33.75177230"},{"name":"Rakai District","countryCode":"UG","fipsCode":"61","iso":"110","latitude":"-0.70691350","longitude":"31.53700030"},{"name":"Rubanda District","countryCode":"UG","fipsCode":"71","iso":"429","latitude":"-1.18611900","longitude":"29.84535760"},{"name":"Rubirizi District","countryCode":"UG","fipsCode":"40","iso":"425","latitude":"-0.26424100","longitude":"30.10840330"},{"name":"Rukiga District","countryCode":"UG","fipsCode":"97","iso":"431","latitude":"-1.13263370","longitude":"30.04341200"},{"name":"Rukungiri District","countryCode":"UG","fipsCode":"93","iso":"412","latitude":"-0.75184900","longitude":"29.92779470"},{"name":"Sembabule District","countryCode":"UG","fipsCode":"74","iso":"111","latitude":"0.06377150","longitude":"31.35416310"},{"name":"Serere District","countryCode":"UG","fipsCode":"N","iso":"232","latitude":"1.49940330","longitude":"33.54900780"},{"name":"Sheema District","countryCode":"UG","fipsCode":"73","iso":"426","latitude":"-0.55152980","longitude":"30.38966510"},{"name":"Sironko District","countryCode":"UG","fipsCode":"94","iso":"215","latitude":"1.23022740","longitude":"34.24910640"},{"name":"Soroti District","countryCode":"UG","fipsCode":"95","iso":"211","latitude":"1.72291170","longitude":"33.52800720"},{"name":"Tororo District","countryCode":"UG","fipsCode":"76","iso":"212","latitude":"0.68709940","longitude":"34.06414190"},{"name":"Wakiso District","countryCode":"UG","fipsCode":"96","iso":"113","latitude":"0.06301900","longitude":"32.44672380"},{"name":"Western Region","countryCode":"UG","fipsCode":"W","iso":"W","latitude":"40.76672150","longitude":"-111.88772030"},{"name":"Yumbe District","countryCode":"UG","fipsCode":"97","iso":"313","latitude":"3.46980230","longitude":"31.24832910"},{"name":"Zombo District","countryCode":"UG","fipsCode":"82","iso":"330","latitude":"2.55442930","longitude":"30.94173680"}]