[{"name":"António Enes","latitude":"-16.23250000","longitude":"39.90861000"},{"name":"Ilha de Moçambique","latitude":"-15.03417000","longitude":"40.73583000"},{"name":"Mutuáli","latitude":"-14.87056000","longitude":"37.00444000"},{"name":"Nacala","latitude":"-14.56257000","longitude":"40.68538000"},{"name":"Nampula","latitude":"-15.11646000","longitude":"39.26660000"}]