[{"name":"Baldovinești","latitude":"45.32182000","longitude":"27.91107000"},{"name":"Berteştii de Jos","latitude":"44.83333000","longitude":"27.75000000"},{"name":"Bordei Verde","latitude":"45.08333000","longitude":"27.56667000"},{"name":"Brăila","latitude":"45.27152000","longitude":"27.97429000"},{"name":"Bărăganul","latitude":"44.80000000","longitude":"27.51667000"},{"name":"Cazasu","latitude":"45.27172000","longitude":"27.89011000"},{"name":"Chiscani","latitude":"45.18333000","longitude":"27.93333000"},{"name":"Ciocile","latitude":"44.81667000","longitude":"27.23333000"},{"name":"Cireşu","latitude":"44.95000000","longitude":"27.35000000"},{"name":"Comuna Berteştii de Jos","latitude":"44.83024000","longitude":"27.72008000"},{"name":"Comuna Bordei Verde","latitude":"45.03225000","longitude":"27.57088000"},{"name":"Comuna Bărăganul","latitude":"44.81068000","longitude":"27.51515000"},{"name":"Comuna Cazasu","latitude":"45.27172000","longitude":"27.89011000"},{"name":"Comuna Chiscani","latitude":"45.20880000","longitude":"27.91776000"},{"name":"Comuna Ciocile","latitude":"44.82211000","longitude":"27.25180000"},{"name":"Comuna Cireşu","latitude":"44.95368000","longitude":"27.37901000"},{"name":"Comuna Dudeşti","latitude":"44.87624000","longitude":"27.44325000"},{"name":"Comuna Frecãţei","latitude":"44.85977000","longitude":"28.08422000"},{"name":"Comuna Galbenu","latitude":"45.19252000","longitude":"27.16669000"},{"name":"Comuna Gemenele","latitude":"45.28931000","longitude":"27.65637000"},{"name":"Comuna Gropeni","latitude":"45.07328000","longitude":"27.88606000"},{"name":"Comuna Grădiştea","latitude":"45.24832000","longitude":"27.38192000"},{"name":"Comuna Jirlău","latitude":"45.15314000","longitude":"27.20900000"},{"name":"Comuna Mircea Vodă","latitude":"45.12889000","longitude":"27.38258000"},{"name":"Comuna Movila Miresii","latitude":"45.19574000","longitude":"27.60368000"},{"name":"Comuna Măraşu","latitude":"45.00807000","longitude":"27.98062000"},{"name":"Comuna Măxineni","latitude":"45.41803000","longitude":"27.66470000"},{"name":"Comuna Racoviţa","latitude":"45.30627000","longitude":"27.46720000"},{"name":"Comuna Romanu","latitude":"45.31818000","longitude":"27.74046000"},{"name":"Comuna Roşiori","latitude":"44.84097000","longitude":"27.34129000"},{"name":"Comuna Râmnicelu","latitude":"45.29786000","longitude":"27.51338000"},{"name":"Comuna Salcia Tudor","latitude":"45.40260000","longitude":"27.50380000"},{"name":"Comuna Scorţaru Nou","latitude":"45.34905000","longitude":"27.61478000"},{"name":"Comuna Siliştea","latitude":"45.35263000","longitude":"27.82592000"},{"name":"Comuna Stăncuţa","latitude":"44.88885000","longitude":"27.79614000"},{"name":"Comuna Surdila-Greci","latitude":"45.07288000","longitude":"27.26840000"},{"name":"Comuna Surdila-Găiseanca","latitude":"45.09893000","longitude":"27.33491000"},{"name":"Comuna Tichileşti","latitude":"45.14822000","longitude":"27.89059000"},{"name":"Comuna Traian","latitude":"45.15355000","longitude":"27.69170000"},{"name":"Comuna Tudor Vladimirescu","latitude":"45.22537000","longitude":"27.75299000"},{"name":"Comuna Tufeşti","latitude":"44.98719000","longitude":"27.80256000"},{"name":"Comuna Ulmu","latitude":"44.94821000","longitude":"27.29836000"},{"name":"Comuna Unirea","latitude":"45.10592000","longitude":"27.77613000"},{"name":"Comuna Victoria","latitude":"44.79568000","longitude":"27.67036000"},{"name":"Comuna Viziru","latitude":"45.02027000","longitude":"27.73217000"},{"name":"Comuna Vişani","latitude":"45.18495000","longitude":"27.30611000"},{"name":"Comuna Vădeni","latitude":"45.33745000","longitude":"27.90589000"},{"name":"Comuna Zăvoaia","latitude":"44.95276000","longitude":"27.45613000"},{"name":"Comuna Şuţeşti","latitude":"45.22101000","longitude":"27.47067000"},{"name":"Corbu Nou","latitude":"45.40996000","longitude":"27.59191000"},{"name":"Cuza Vodă","latitude":"44.92513000","longitude":"27.73273000"},{"name":"Dedulești","latitude":"45.14679000","longitude":"27.38907000"},{"name":"Dudeşti","latitude":"44.90000000","longitude":"27.43333000"},{"name":"Frecăţei","latitude":"44.90000000","longitude":"28.11667000"},{"name":"Făurei","latitude":"45.08333000","longitude":"27.26667000"},{"name":"Galbenu","latitude":"45.21667000","longitude":"27.16667000"},{"name":"Gemenele","latitude":"45.28333000","longitude":"27.61667000"},{"name":"Gropeni","latitude":"45.07547000","longitude":"27.87969000"},{"name":"Grădiştea","latitude":"45.26667000","longitude":"27.38333000"},{"name":"Ianca","latitude":"45.13333000","longitude":"27.45000000"},{"name":"Jirlău","latitude":"45.16667000","longitude":"27.16667000"},{"name":"Jugureanu","latitude":"44.94313000","longitude":"27.27878000"},{"name":"Lacu Sărat","latitude":"45.21867000","longitude":"27.88764000"},{"name":"Lanurile","latitude":"45.04149000","longitude":"27.74916000"},{"name":"Mihai Bravu","latitude":"44.78469000","longitude":"27.72144000"},{"name":"Mircea Vodă","latitude":"45.11667000","longitude":"27.38333000"},{"name":"Movila Miresii","latitude":"45.21667000","longitude":"27.60000000"},{"name":"Municipiul Brãila","latitude":"45.27190000","longitude":"27.97500000"},{"name":"Măraşu","latitude":"44.85000000","longitude":"27.96667000"},{"name":"Măxineni","latitude":"45.40000000","longitude":"27.63333000"},{"name":"Oraş Fãurei","latitude":"45.08534000","longitude":"27.27155000"},{"name":"Oraş Ianca","latitude":"45.11446000","longitude":"27.50205000"},{"name":"Oraş Însurãţei","latitude":"44.91928000","longitude":"27.64433000"},{"name":"Perișoru","latitude":"45.11268000","longitude":"27.49817000"},{"name":"Plopu","latitude":"45.14847000","longitude":"27.51387000"},{"name":"Racoviţa","latitude":"45.30000000","longitude":"27.45000000"},{"name":"Romanu","latitude":"45.28333000","longitude":"27.73333000"},{"name":"Roşiori","latitude":"44.80000000","longitude":"27.38333000"},{"name":"Râmnicelu","latitude":"45.28333000","longitude":"27.53333000"},{"name":"Salcia Tudor","latitude":"45.36667000","longitude":"27.51667000"},{"name":"Scorţaru Nou","latitude":"45.31667000","longitude":"27.60000000"},{"name":"Scorțaru Vechi","latitude":"45.21886000","longitude":"27.75489000"},{"name":"Siliştea","latitude":"45.30000000","longitude":"27.85000000"},{"name":"Spiru Haret","latitude":"44.86715000","longitude":"27.74463000"},{"name":"Stăncuţa","latitude":"44.90000000","longitude":"27.83333000"},{"name":"Surdila-Greci","latitude":"45.06667000","longitude":"27.26667000"},{"name":"Surdila-Găiseanca","latitude":"45.06667000","longitude":"27.33333000"},{"name":"Tătaru","latitude":"44.84482000","longitude":"27.43376000"},{"name":"Ulmu","latitude":"44.95000000","longitude":"27.31667000"},{"name":"Unirea","latitude":"45.11667000","longitude":"27.81667000"},{"name":"Urleasca","latitude":"45.13697000","longitude":"27.64736000"},{"name":"Valea Cânepii","latitude":"45.08333000","longitude":"27.81667000"},{"name":"Victoria","latitude":"44.81667000","longitude":"27.61667000"},{"name":"Viziru","latitude":"45.01667000","longitude":"27.70000000"},{"name":"Vişani","latitude":"45.15000000","longitude":"27.28333000"},{"name":"Vădeni","latitude":"45.36667000","longitude":"27.93333000"},{"name":"Zăvoaia","latitude":"44.95000000","longitude":"27.48333000"},{"name":"Însurăţei","latitude":"44.91667000","longitude":"27.60000000"},{"name":"Şuţeşti","latitude":"45.21667000","longitude":"27.43333000"},{"name":"Tichileşti","latitude":"45.11667000","longitude":"27.90000000"},{"name":"Traian","latitude":"45.18333000","longitude":"27.73333000"},{"name":"Tudor Vladimirescu","latitude":"45.21667000","longitude":"27.80000000"},{"name":"Tufeşti","latitude":"45.05000000","longitude":"27.81667000"}]