[{"name":"Bavigne","latitude":"49.92194000","longitude":"5.84944000"},{"name":"Boulaide","latitude":"49.88778000","longitude":"5.81639000"},{"name":"Esch-sur-Sûre","latitude":"49.91139000","longitude":"5.93639000"},{"name":"Goesdorf","latitude":"49.92131000","longitude":"5.96601000"},{"name":"Kiischpelt","latitude":"49.97835000","longitude":"6.00760000"},{"name":"Lac de la Haute-Sûre","latitude":"49.91667000","longitude":"5.83333000"},{"name":"Wiltz","latitude":"49.96547000","longitude":"5.93390000"},{"name":"Wilwerwiltz","latitude":"49.98889000","longitude":"5.99917000"},{"name":"Winseler","latitude":"49.96778000","longitude":"5.89028000"}]