[{"name":"Anlu","latitude":"31.25750000","longitude":"113.67833000"},{"name":"Buhe","latitude":"30.28757000","longitude":"112.22979000"},{"name":"Caidian","latitude":"30.58333000","longitude":"114.03333000"},{"name":"Caohe","latitude":"30.22970000","longitude":"115.43346000"},{"name":"Chengzhong","latitude":"30.94454000","longitude":"113.55284000"},{"name":"Danjiangkou","latitude":"32.54278000","longitude":"111.50861000"},{"name":"Daye","latitude":"30.08333000","longitude":"114.95000000"},{"name":"Duobao","latitude":"30.67000000","longitude":"112.68952000"},{"name":"Enshi","latitude":"30.30000000","longitude":"109.48333000"},{"name":"Enshi Tujiazu Miaozu Zizhizhou","latitude":"30.19810000","longitude":"109.67555000"},{"name":"Ezhou","latitude":"30.40000000","longitude":"114.83333000"},{"name":"Ezhou Shi","latitude":"30.48832000","longitude":"114.77979000"},{"name":"Fengkou","latitude":"30.08268000","longitude":"113.33346000"},{"name":"Guangshui","latitude":"31.61990000","longitude":"113.99780000"},{"name":"Gucheng Chengguanzhen","latitude":"32.26604000","longitude":"111.63476000"},{"name":"Hanchuan","latitude":"30.65000000","longitude":"113.76667000"},{"name":"Huanggang","latitude":"30.45143000","longitude":"114.87035000"},{"name":"Huangmei","latitude":"30.19235000","longitude":"116.02496000"},{"name":"Huangpi","latitude":"30.88453000","longitude":"114.37789000"},{"name":"Huangshi","latitude":"30.24706000","longitude":"115.04814000"},{"name":"Huangzhou","latitude":"30.45000000","longitude":"114.80000000"},{"name":"Jingling","latitude":"30.65000000","longitude":"113.10000000"},{"name":"Jingmen","latitude":"31.03361000","longitude":"112.20472000"},{"name":"Jingmen Shi","latitude":"31.11244000","longitude":"112.64310000"},{"name":"Jingzhou","latitude":"30.35028000","longitude":"112.19028000"},{"name":"Laohekou","latitude":"32.38583000","longitude":"111.66778000"},{"name":"Lichuan","latitude":"30.30000000","longitude":"108.85000000"},{"name":"Macheng","latitude":"31.18013000","longitude":"115.02213000"},{"name":"Nanzhang Chengguanzhen","latitude":"31.78394000","longitude":"111.82752000"},{"name":"Puqi","latitude":"29.71667000","longitude":"113.88333000"},{"name":"Qianjiang","latitude":"30.42100000","longitude":"112.89190000"},{"name":"Qingquan","latitude":"30.45113000","longitude":"115.25593000"},{"name":"Shashi","latitude":"30.30722000","longitude":"112.24472000"},{"name":"Shennongjia","latitude":"31.58339000","longitude":"110.49720000"},{"name":"Shiyan","latitude":"32.64750000","longitude":"110.77806000"},{"name":"Suizhou","latitude":"31.71111000","longitude":"113.36306000"},{"name":"Wuhan","latitude":"30.58333000","longitude":"114.26667000"},{"name":"Wuxue","latitude":"29.85058000","longitude":"115.55250000"},{"name":"Xiangyang","latitude":"32.04220000","longitude":"112.14479000"},{"name":"Xianning","latitude":"29.84347000","longitude":"114.32201000"},{"name":"Xianning Prefecture","latitude":"29.66609000","longitude":"114.26389000"},{"name":"Xiantao","latitude":"30.37080000","longitude":"113.44294000"},{"name":"Xiaogan","latitude":"30.92689000","longitude":"113.92221000"},{"name":"Xihe","latitude":"31.68635000","longitude":"113.46585000"},{"name":"Xindi","latitude":"29.81667000","longitude":"113.46667000"},{"name":"Xinshi","latitude":"31.04704000","longitude":"113.14098000"},{"name":"Xinzhou","latitude":"30.86667000","longitude":"114.80000000"},{"name":"Xiulin","latitude":"29.71667000","longitude":"112.40000000"},{"name":"Yichang","latitude":"30.71444000","longitude":"111.28472000"},{"name":"Yicheng","latitude":"31.70472000","longitude":"112.25611000"},{"name":"Yunmeng Chengguanzhen","latitude":"31.06251000","longitude":"113.76545000"},{"name":"Zaoyang","latitude":"32.12722000","longitude":"112.75417000"},{"name":"Zhicheng","latitude":"30.29556000","longitude":"111.50472000"},{"name":"Zhijiang","latitude":"30.42139000","longitude":"111.75333000"},{"name":"Zhongxiang","latitude":"31.16611000","longitude":"112.58306000"}]