[{"name":"Donaustadt","latitude":"48.23330000","longitude":"16.46002000"},{"name":"Favoriten","latitude":"48.16116000","longitude":"16.38233000"},{"name":"Floridsdorf","latitude":"48.25000000","longitude":"16.40000000"},{"name":"Hernals","latitude":"48.23333000","longitude":"16.26667000"},{"name":"Hietzing","latitude":"48.18623000","longitude":"16.29650000"},{"name":"Innere Stadt","latitude":"48.20906000","longitude":"16.37135000"},{"name":"Meidling","latitude":"48.16667000","longitude":"16.33333000"},{"name":"Ottakring","latitude":"48.21667000","longitude":"16.30000000"},{"name":"Simmering","latitude":"48.18333000","longitude":"16.43333000"},{"name":"Vienna","latitude":"48.20849000","longitude":"16.37208000"}]