[{"name":"Bük","latitude":"47.38486000","longitude":"16.75065000"},{"name":"Celldömölk","latitude":"47.25713000","longitude":"17.15027000"},{"name":"Celldömölki Járás","latitude":"47.25001000","longitude":"17.13209000"},{"name":"Csepreg","latitude":"47.40098000","longitude":"16.70881000"},{"name":"Gencsapáti","latitude":"47.28496000","longitude":"16.59575000"},{"name":"Ják","latitude":"47.14249000","longitude":"16.58148000"},{"name":"Jánosháza","latitude":"47.11937000","longitude":"17.16503000"},{"name":"Körmend","latitude":"47.01096000","longitude":"16.60596000"},{"name":"Körmendi Járás","latitude":"46.92164000","longitude":"16.53291000"},{"name":"Kőszeg","latitude":"47.38922000","longitude":"16.54100000"},{"name":"Kőszegi Járás","latitude":"47.37500000","longitude":"16.65650000"},{"name":"Répcelak","latitude":"47.42105000","longitude":"17.01795000"},{"name":"Szentgotthárd","latitude":"46.95261000","longitude":"16.27358000"},{"name":"Szentgotthárdi Járás","latitude":"46.93674000","longitude":"16.30362000"},{"name":"Szombathely","latitude":"47.23088000","longitude":"16.62155000"},{"name":"Szombathelyi Járás","latitude":"47.21037000","longitude":"16.63954000"},{"name":"Sárvár","latitude":"47.25395000","longitude":"16.93525000"},{"name":"Sárvári Járás","latitude":"47.23868000","longitude":"16.93299000"},{"name":"Táplánszentkereszt","latitude":"47.19496000","longitude":"16.69613000"},{"name":"Vasvár","latitude":"47.04928000","longitude":"16.79954000"},{"name":"Vasvári Járás","latitude":"47.03487000","longitude":"16.85939000"},{"name":"Vép","latitude":"47.23041000","longitude":"16.72248000"}]