[{"name":"Apolinario Saravia","latitude":"-24.43276000","longitude":"-63.99535000"},{"name":"Cachí","latitude":"-25.12033000","longitude":"-66.16519000"},{"name":"Cafayate","latitude":"-26.08333000","longitude":"-65.83333000"},{"name":"Campo Quijano","latitude":"-24.90982000","longitude":"-65.63656000"},{"name":"Chicoana","latitude":"-25.10502000","longitude":"-65.53473000"},{"name":"Departamento Capital","latitude":"-24.83333000","longitude":"-65.33333000"},{"name":"Departamento de Anta","latitude":"-24.91667000","longitude":"-64.00000000"},{"name":"Departamento de Cerrillos","latitude":"-25.00000000","longitude":"-65.41667000"},{"name":"Departamento de Chicoana","latitude":"-25.11583000","longitude":"-65.59466000"},{"name":"Departamento de General Güemes","latitude":"-24.79464000","longitude":"-64.94393000"},{"name":"Departamento de Guachipas","latitude":"-25.66667000","longitude":"-65.50000000"},{"name":"Departamento de Iruya","latitude":"-22.80000000","longitude":"-64.91667000"},{"name":"Departamento de La Poma","latitude":"-24.16667000","longitude":"-66.16667000"},{"name":"Departamento de La Viña","latitude":"-25.50000000","longitude":"-65.66667000"},{"name":"Departamento de Los Andes","latitude":"-24.50000000","longitude":"-67.33333000"},{"name":"Departamento de Metán","latitude":"-25.50000000","longitude":"-64.66667000"},{"name":"Departamento de Rivadavia","latitude":"-23.66667000","longitude":"-62.91667000"},{"name":"Departamento de Rosario de Lerma","latitude":"-24.58333000","longitude":"-65.83333000"},{"name":"Departamento de Rosario de la Frontera","latitude":"-25.91667000","longitude":"-64.83333000"},{"name":"Departamento de San Carlos","latitude":"-25.75000000","longitude":"-66.08333000"},{"name":"El Carril","latitude":"-25.07410000","longitude":"-65.49174000"},{"name":"El Galpón","latitude":"-25.38069000","longitude":"-64.65259000"},{"name":"El Quebrachal","latitude":"-25.28333000","longitude":"-64.06667000"},{"name":"Embarcación","latitude":"-23.21003000","longitude":"-64.09965000"},{"name":"General Enrique Mosconi","latitude":"-22.59588000","longitude":"-63.81255000"},{"name":"Joaquín V. González","latitude":"-25.11364000","longitude":"-64.12628000"},{"name":"La Caldera","latitude":"-24.58333000","longitude":"-65.41667000"},{"name":"Las Lajitas","latitude":"-24.72762000","longitude":"-64.19335000"},{"name":"Salta","latitude":"-24.78590000","longitude":"-65.41166000"},{"name":"San Antonio de los Cobres","latitude":"-24.21804000","longitude":"-66.31877000"},{"name":"San Ramón de la Nueva Orán","latitude":"-23.13705000","longitude":"-64.32426000"},{"name":"Santa Rosa de Tastil","latitude":"-24.45166000","longitude":"-65.97452000"},{"name":"Tartagal","latitude":"-22.51637000","longitude":"-63.80131000"}]