[{"name":"Jaffna","latitude":"9.66845000","longitude":"80.00742000"},{"name":"Jaffna District","latitude":"9.75000000","longitude":"80.08333000"},{"name":"Kilinochchi","latitude":"9.39610000","longitude":"80.39820000"},{"name":"Kilinochchi District","latitude":"9.39487000","longitude":"80.40894000"},{"name":"Point Pedro","latitude":"9.81667000","longitude":"80.23333000"},{"name":"Valvedditturai","latitude":"9.81667000","longitude":"80.16667000"},{"name":"Vavuniya","latitude":"8.75140000","longitude":"80.49710000"},{"name":"Vavuniya District","latitude":"8.86134000","longitude":"80.47576000"}]