[{"name":"Batak","latitude":"41.94225000","longitude":"24.21843000"},{"name":"Belovo","latitude":"42.21239000","longitude":"24.02081000"},{"name":"Bratsigovo","latitude":"42.01667000","longitude":"24.36667000"},{"name":"Lesichovo","latitude":"42.35626000","longitude":"24.11190000"},{"name":"Obshtina Batak","latitude":"41.86667000","longitude":"24.21667000"},{"name":"Obshtina Belovo","latitude":"42.20000000","longitude":"23.93333000"},{"name":"Obshtina Bratsigovo","latitude":"42.00000000","longitude":"24.40000000"},{"name":"Obshtina Lesichovo","latitude":"42.36667000","longitude":"24.15000000"},{"name":"Obshtina Panagyurishte","latitude":"42.50000000","longitude":"24.16667000"},{"name":"Obshtina Pazardzhik","latitude":"42.20000000","longitude":"24.33333000"},{"name":"Obshtina Peshtera","latitude":"42.03333000","longitude":"24.30000000"},{"name":"Obshtina Rakitovo","latitude":"41.99965000","longitude":"24.10877000"},{"name":"Obshtina Septemvri","latitude":"42.26667000","longitude":"24.13333000"},{"name":"Obshtina Strelcha","latitude":"42.46667000","longitude":"24.36667000"},{"name":"Obshtina Velingrad","latitude":"41.96667000","longitude":"23.93333000"},{"name":"Panagyurishte","latitude":"42.49518000","longitude":"24.19021000"},{"name":"Pazardzhik","latitude":"42.20000000","longitude":"24.33333000"},{"name":"Peshtera","latitude":"42.03372000","longitude":"24.29995000"},{"name":"Rakitovo","latitude":"41.99012000","longitude":"24.08730000"},{"name":"Sarnitsa","latitude":"41.73835000","longitude":"24.02435000"},{"name":"Sarnitsa Obshtina","latitude":"41.73333000","longitude":"24.03333000"},{"name":"Septemvri","latitude":"42.21138000","longitude":"24.12946000"},{"name":"Strelcha","latitude":"42.50000000","longitude":"24.31667000"},{"name":"Velingrad","latitude":"42.02754000","longitude":"23.99155000"}]