[{"name":"Alauca","latitude":"13.84020000","longitude":"-86.69526000"},{"name":"Araulí","latitude":"13.95000000","longitude":"-86.55000000"},{"name":"Cuyalí","latitude":"13.88333000","longitude":"-86.55000000"},{"name":"Danlí","latitude":"14.03333000","longitude":"-86.58333000"},{"name":"El Benque","latitude":"14.03333000","longitude":"-86.46667000"},{"name":"El Chichicaste","latitude":"14.06667000","longitude":"-86.30000000"},{"name":"El Obraje","latitude":"14.00000000","longitude":"-86.43333000"},{"name":"El Paraíso","latitude":"13.85381000","longitude":"-86.53094000"},{"name":"Güinope","latitude":"13.88333000","longitude":"-86.93333000"},{"name":"Jacaleapa","latitude":"14.01667000","longitude":"-86.66667000"},{"name":"Jutiapa","latitude":"13.98333000","longitude":"-86.40000000"},{"name":"Las Trojes","latitude":"14.06667000","longitude":"-85.98333000"},{"name":"Las Ánimas","latitude":"14.25000000","longitude":"-86.56667000"},{"name":"Liure","latitude":"13.53583000","longitude":"-87.09194000"},{"name":"Morocelí","latitude":"14.11667000","longitude":"-86.86667000"},{"name":"Municipio de Texiguat","latitude":"13.66372000","longitude":"-87.03479000"},{"name":"Ojo de Agua","latitude":"14.01667000","longitude":"-86.35000000"},{"name":"Oropolí","latitude":"13.81667000","longitude":"-86.81667000"},{"name":"Potrerillos","latitude":"14.04478000","longitude":"-86.76201000"},{"name":"Quebrada Larga","latitude":"14.10000000","longitude":"-86.36667000"},{"name":"San Antonio de Flores","latitude":"13.71089000","longitude":"-86.84226000"},{"name":"San Diego","latitude":"14.05000000","longitude":"-86.46667000"},{"name":"San Lucas","latitude":"13.74586000","longitude":"-86.95163000"},{"name":"San Matías","latitude":"13.95966000","longitude":"-86.64032000"},{"name":"Santa Cruz","latitude":"13.86667000","longitude":"-86.63333000"},{"name":"Soledad","latitude":"13.58333000","longitude":"-87.11667000"},{"name":"Teupasenti","latitude":"14.21667000","longitude":"-86.70000000"},{"name":"Texíguat","latitude":"13.64972000","longitude":"-87.02250000"},{"name":"Trojes","latitude":"14.05966000","longitude":"-86.00166000"},{"name":"Vado Ancho","latitude":"13.64355000","longitude":"-86.95546000"},{"name":"Yauyupe","latitude":"13.74867000","longitude":"-87.07610000"},{"name":"Yuscarán","latitude":"13.95708000","longitude":"-86.83170000"}]