[{"name":"Bale","latitude":"45.04056000","longitude":"13.78361000"},{"name":"Bale-Valle","latitude":"45.04089000","longitude":"13.78565000"},{"name":"Brtonigla","latitude":"45.38139000","longitude":"13.62944000"},{"name":"Brtonigla-Verteneglio","latitude":"45.37918000","longitude":"13.62554000"},{"name":"Buje","latitude":"45.41000000","longitude":"13.66194000"},{"name":"Buje-Buie","latitude":"45.40790000","longitude":"13.65914000"},{"name":"Buzet","latitude":"45.40944000","longitude":"13.96667000"},{"name":"Fažana","latitude":"44.92750000","longitude":"13.80361000"},{"name":"Fažana-Fasana","latitude":"44.92822000","longitude":"13.80548000"},{"name":"Funtana","latitude":"45.17472000","longitude":"13.60500000"},{"name":"Funtana-Fontane","latitude":"45.17483000","longitude":"13.60627000"},{"name":"Galižana","latitude":"44.93167000","longitude":"13.86861000"},{"name":"Grad Buzet","latitude":"45.41667000","longitude":"13.96667000"},{"name":"Grad Labin","latitude":"45.08333000","longitude":"14.13333000"},{"name":"Grad Pazin","latitude":"45.23333000","longitude":"13.93333000"},{"name":"Grožnjan","latitude":"45.37889000","longitude":"13.72389000"},{"name":"Grožnjan-Grisignana","latitude":"45.37728000","longitude":"13.72145000"},{"name":"Kanfanar","latitude":"45.12194000","longitude":"13.83917000"},{"name":"Karojba","latitude":"45.30083000","longitude":"13.82306000"},{"name":"Kaštelir-Labinci","latitude":"45.30277000","longitude":"13.68841000"},{"name":"Labin","latitude":"45.09500000","longitude":"14.11972000"},{"name":"Ližnjan","latitude":"44.82833000","longitude":"13.95694000"},{"name":"Ližnjan-Lisignano","latitude":"44.82765000","longitude":"13.96028000"},{"name":"Lupoglav","latitude":"45.35204000","longitude":"14.10846000"},{"name":"Marčana","latitude":"44.95528000","longitude":"13.95389000"},{"name":"Medulin","latitude":"44.82250000","longitude":"13.93500000"},{"name":"Motovun","latitude":"45.33667000","longitude":"13.82861000"},{"name":"Motovun-Montona","latitude":"45.33633000","longitude":"13.82977000"},{"name":"Novigrad","latitude":"45.31500000","longitude":"13.55806000"},{"name":"Novigrad-Cittanova","latitude":"45.31669000","longitude":"13.56155000"},{"name":"Oprtalj-Portole","latitude":"45.38226000","longitude":"13.82406000"},{"name":"Općina Lanišće","latitude":"45.43520000","longitude":"14.08196000"},{"name":"Pazin","latitude":"45.24028000","longitude":"13.93667000"},{"name":"Poreč","latitude":"45.22567000","longitude":"13.59511000"},{"name":"Poreč-Parenzo","latitude":"45.22717000","longitude":"13.59653000"},{"name":"Pula","latitude":"44.86833000","longitude":"13.84806000"},{"name":"Pula-Pola","latitude":"44.86711000","longitude":"13.84882000"},{"name":"Rabac","latitude":"45.07944000","longitude":"14.15750000"},{"name":"Raša","latitude":"45.08028000","longitude":"14.07889000"},{"name":"Rovinj","latitude":"45.08000000","longitude":"13.64000000"},{"name":"Rovinj-Rovigno","latitude":"45.08190000","longitude":"13.63970000"},{"name":"Sveta Nedelja","latitude":"45.14932000","longitude":"14.09889000"},{"name":"Sveti Lovreč","latitude":"45.17770000","longitude":"13.74317000"},{"name":"Tar","latitude":"45.30083000","longitude":"13.62528000"},{"name":"Tar-Vabriga-Torre Abrega","latitude":"45.29946000","longitude":"13.62489000"},{"name":"Umag","latitude":"45.43139000","longitude":"13.52389000"},{"name":"Umag-Umago","latitude":"45.43462000","longitude":"13.52589000"},{"name":"Valbandon","latitude":"44.91879000","longitude":"13.81344000"},{"name":"Vinež","latitude":"45.09806000","longitude":"14.10694000"},{"name":"Višnjan-Visignano","latitude":"45.27614000","longitude":"13.72128000"},{"name":"Vižinada-Visinada","latitude":"45.33126000","longitude":"13.75943000"},{"name":"Vodnjan","latitude":"44.95944000","longitude":"13.85167000"},{"name":"Vodnjan-Dignano","latitude":"44.96187000","longitude":"13.85041000"},{"name":"Vrsar","latitude":"45.14917000","longitude":"13.60528000"},{"name":"Vrsar-Orsera","latitude":"45.15074000","longitude":"13.60558000"},{"name":"Žminj","latitude":"45.14278000","longitude":"13.90889000"}]