[{"name":"Adunaţi","latitude":"45.13333000","longitude":"25.61667000"},{"name":"Albeşti-Paleologu","latitude":"44.95000000","longitude":"26.21667000"},{"name":"Albești-Muru","latitude":"44.94440000","longitude":"26.20899000"},{"name":"Aluniş","latitude":"45.20000000","longitude":"25.86667000"},{"name":"Apostolache","latitude":"45.13333000","longitude":"26.26667000"},{"name":"Ariceştii-Rahtivani","latitude":"44.95000000","longitude":"25.83333000"},{"name":"Ariceștii Zeletin","latitude":"45.22221000","longitude":"26.17957000"},{"name":"Azuga","latitude":"45.45000000","longitude":"25.55000000"},{"name":"Baba Ana","latitude":"44.96667000","longitude":"26.45000000"},{"name":"Balta Doamnei","latitude":"44.75000000","longitude":"26.16667000"},{"name":"Berceni","latitude":"44.93333000","longitude":"26.11667000"},{"name":"Bertea","latitude":"45.23333000","longitude":"25.86667000"},{"name":"Blejoi","latitude":"45.00000000","longitude":"26.01667000"},{"name":"Bobolia","latitude":"45.09395000","longitude":"25.74259000"},{"name":"Boldeşti","latitude":"44.86597000","longitude":"26.54906000"},{"name":"Boldeşti-Scăeni","latitude":"45.03333000","longitude":"26.03333000"},{"name":"Bordenii Mari","latitude":"45.08951000","longitude":"25.86964000"},{"name":"Brazii de Sus","latitude":"44.86667000","longitude":"26.01667000"},{"name":"Breaza","latitude":"45.18333000","longitude":"25.66667000"},{"name":"Breaza de Jos","latitude":"45.17125000","longitude":"25.67571000"},{"name":"Breaza de Sus","latitude":"45.19879000","longitude":"25.65578000"},{"name":"Brebu Megieșesc","latitude":"45.16774000","longitude":"25.77474000"},{"name":"Brebu Mânăstirei","latitude":"45.18333000","longitude":"25.76667000"},{"name":"Bucov","latitude":"44.96667000","longitude":"26.08333000"},{"name":"Buda","latitude":"44.82443000","longitude":"26.18522000"},{"name":"Bughea de Jos","latitude":"45.17985000","longitude":"26.02044000"},{"name":"Buşteni","latitude":"45.40000000","longitude":"25.53333000"},{"name":"Băicoi","latitude":"45.03333000","longitude":"25.85000000"},{"name":"Bălțești","latitude":"45.10965000","longitude":"26.12937000"},{"name":"Băneşti","latitude":"45.10000000","longitude":"25.76667000"},{"name":"Bărcăneşti","latitude":"44.88333000","longitude":"26.05000000"},{"name":"Bătești","latitude":"44.84830000","longitude":"26.04031000"},{"name":"Bătrâni","latitude":"45.31425000","longitude":"26.15091000"},{"name":"Ceptura de Jos","latitude":"45.02088000","longitude":"26.32722000"},{"name":"Ceptura de Sus","latitude":"45.01667000","longitude":"26.31667000"},{"name":"Ceraşu","latitude":"45.31667000","longitude":"26.03333000"},{"name":"Chiojdeanca","latitude":"45.16667000","longitude":"26.26667000"},{"name":"Chițorani","latitude":"44.97458000","longitude":"26.11895000"},{"name":"Cioranii de Jos","latitude":"44.81667000","longitude":"26.41667000"},{"name":"Cioranii de Sus","latitude":"44.83923000","longitude":"26.39473000"},{"name":"Coada Izvorului","latitude":"44.85766000","longitude":"25.81851000"},{"name":"Cocorăștii Colț","latitude":"44.83425000","longitude":"25.89937000"},{"name":"Cocorăștii Mislii","latitude":"45.08528000","longitude":"25.92206000"},{"name":"Colceag","latitude":"44.95000000","longitude":"26.35000000"},{"name":"Comarnic","latitude":"45.25000000","longitude":"25.63333000"},{"name":"Comuna Adunaţi","latitude":"45.18832000","longitude":"25.60181000"},{"name":"Comuna Albeşti-Paleologu","latitude":"44.93431000","longitude":"26.23302000"},{"name":"Comuna Aluniş","latitude":"45.20105000","longitude":"25.89661000"},{"name":"Comuna Apostolache","latitude":"45.12123000","longitude":"26.26537000"},{"name":"Comuna Ariceştii Zeletin","latitude":"45.21513000","longitude":"26.16879000"},{"name":"Comuna Ariceştii-Rahtivani","latitude":"44.94512000","longitude":"25.86208000"},{"name":"Comuna Baba Ana","latitude":"44.97508000","longitude":"26.48588000"},{"name":"Comuna Balta Doamnei","latitude":"44.75775000","longitude":"26.19465000"},{"name":"Comuna Berceni","latitude":"44.92376000","longitude":"26.10532000"},{"name":"Comuna Bertea","latitude":"45.24083000","longitude":"25.84545000"},{"name":"Comuna Blejoi","latitude":"44.98262000","longitude":"26.01881000"},{"name":"Comuna Boldeşti-Gradiştea","latitude":"44.87645000","longitude":"26.53482000"},{"name":"Comuna Brazi","latitude":"44.85425000","longitude":"26.00323000"},{"name":"Comuna Brebu","latitude":"45.19406000","longitude":"25.77737000"},{"name":"Comuna Bucov","latitude":"44.98443000","longitude":"26.10303000"},{"name":"Comuna Bălţeşti","latitude":"45.10390000","longitude":"26.13040000"},{"name":"Comuna Băneşti","latitude":"45.09491000","longitude":"25.77837000"},{"name":"Comuna Bărcăneşti","latitude":"44.87705000","longitude":"26.06672000"},{"name":"Comuna Bătrâni","latitude":"45.31425000","longitude":"26.15091000"},{"name":"Comuna Ceptura","latitude":"45.04633000","longitude":"26.31341000"},{"name":"Comuna Ceraşu","latitude":"45.32940000","longitude":"26.03874000"},{"name":"Comuna Chiojdeanca","latitude":"45.16695000","longitude":"26.27617000"},{"name":"Comuna Ciorani","latitude":"44.82997000","longitude":"26.40405000"},{"name":"Comuna Cocorãştii Mislii","latitude":"45.08525000","longitude":"25.94139000"},{"name":"Comuna Cocorăştii-Colţ","latitude":"44.83780000","longitude":"25.89752000"},{"name":"Comuna Colceag","latitude":"44.93743000","longitude":"26.36442000"},{"name":"Comuna Cornu","latitude":"45.16336000","longitude":"25.70295000"},{"name":"Comuna Cosminele","latitude":"45.16600000","longitude":"25.89523000"},{"name":"Comuna Călugăreni","latitude":"45.07998000","longitude":"26.39176000"},{"name":"Comuna Cărbuneşti","latitude":"45.23050000","longitude":"26.19703000"},{"name":"Comuna Drajna de Sus","latitude":"45.24352000","longitude":"26.07601000"},{"name":"Comuna Drăgăneşti","latitude":"44.82739000","longitude":"26.30273000"},{"name":"Comuna Dumbrava","latitude":"44.86266000","longitude":"26.21463000"},{"name":"Comuna Dumbrãveşti","latitude":"45.09234000","longitude":"25.99862000"},{"name":"Comuna Filipeştii de Pădure","latitude":"44.99423000","longitude":"25.73606000"},{"name":"Comuna Filipeştii de Târg","latitude":"44.94799000","longitude":"25.79812000"},{"name":"Comuna Floreşti","latitude":"45.02718000","longitude":"25.78536000"},{"name":"Comuna Fulga","latitude":"44.88905000","longitude":"26.44410000"},{"name":"Comuna Fântânele","latitude":"45.02536000","longitude":"26.36398000"},{"name":"Comuna Gherghiţa","latitude":"44.79902000","longitude":"26.27275000"},{"name":"Comuna Gorgota","latitude":"44.78404000","longitude":"26.07726000"},{"name":"Comuna Gornet","latitude":"45.13642000","longitude":"26.08054000"},{"name":"Comuna Gornet-Cricov","latitude":"45.09016000","longitude":"26.26009000"},{"name":"Comuna Gura Vadului","latitude":"45.05357000","longitude":"26.44168000"},{"name":"Comuna Gura Vitioarei","latitude":"45.14951000","longitude":"26.03308000"},{"name":"Comuna Iordãcheanu","latitude":"45.04671000","longitude":"26.22605000"},{"name":"Comuna Izvoarele","latitude":"45.27102000","longitude":"26.00931000"},{"name":"Comuna Jugureni","latitude":"45.10156000","longitude":"26.42231000"},{"name":"Comuna Lapoş","latitude":"45.15075000","longitude":"26.42796000"},{"name":"Comuna Lipăneşti","latitude":"45.05799000","longitude":"26.02213000"},{"name":"Comuna Măgurele","latitude":"45.09476000","longitude":"26.04955000"},{"name":"Comuna Măgureni","latitude":"45.05203000","longitude":"25.76233000"},{"name":"Comuna Măneciu","latitude":"45.33711000","longitude":"25.98547000"},{"name":"Comuna Măneşti","latitude":"44.86043000","longitude":"25.83461000"},{"name":"Comuna Olari","latitude":"44.79262000","longitude":"26.20498000"},{"name":"Comuna Plopu","latitude":"45.02686000","longitude":"26.14227000"},{"name":"Comuna Podenii Noi","latitude":"45.10423000","longitude":"26.19023000"},{"name":"Comuna Poiana Câmpina","latitude":"45.12079000","longitude":"25.71905000"},{"name":"Comuna Poienarii Burchii","latitude":"44.74995000","longitude":"25.99784000"},{"name":"Comuna Poseşti","latitude":"45.27519000","longitude":"26.14944000"},{"name":"Comuna Predeal-Sărari","latitude":"45.18891000","longitude":"26.10613000"},{"name":"Comuna Proviţa de Jos","latitude":"45.11190000","longitude":"25.67791000"},{"name":"Comuna Proviţa de Sus","latitude":"45.13604000","longitude":"25.63454000"},{"name":"Comuna Puchenii Mari","latitude":"44.82386000","longitude":"26.07697000"},{"name":"Comuna Păcureţi","latitude":"45.14696000","longitude":"26.13997000"},{"name":"Comuna Păuleşti","latitude":"45.00549000","longitude":"25.96991000"},{"name":"Comuna Râfov","latitude":"44.85001000","longitude":"26.20573000"},{"name":"Comuna Salcia","latitude":"45.18323000","longitude":"26.32600000"},{"name":"Comuna Scorţeni","latitude":"45.08876000","longitude":"25.84712000"},{"name":"Comuna Secăria","latitude":"45.27498000","longitude":"25.68457000"},{"name":"Comuna Starchiojd","latitude":"45.32851000","longitude":"26.17417000"},{"name":"Comuna Surani","latitude":"45.19425000","longitude":"26.17335000"},{"name":"Comuna Sângeru","latitude":"45.14325000","longitude":"26.35389000"},{"name":"Comuna Sălciile","latitude":"44.81651000","longitude":"26.49246000"},{"name":"Comuna Talea","latitude":"45.22413000","longitude":"25.56381000"},{"name":"Comuna Teişani","latitude":"45.22003000","longitude":"26.01022000"},{"name":"Comuna Telega","latitude":"45.14270000","longitude":"25.81441000"},{"name":"Comuna Tinosu","latitude":"44.81699000","longitude":"26.00982000"},{"name":"Comuna Tomşani","latitude":"44.94941000","longitude":"26.29586000"},{"name":"Comuna Târgşoru Vechi","latitude":"44.87977000","longitude":"25.93082000"},{"name":"Comuna Tătaru","latitude":"45.10405000","longitude":"26.31980000"},{"name":"Comuna Vadu Săpat","latitude":"45.04023000","longitude":"26.38868000"},{"name":"Comuna Valea Călugărească","latitude":"44.95527000","longitude":"26.16122000"},{"name":"Comuna Valea Doftanei","latitude":"45.32105000","longitude":"25.72546000"},{"name":"Comuna Vâlcăneşti","latitude":"45.12377000","longitude":"25.94382000"},{"name":"Comuna Vărbilău","latitude":"45.16492000","longitude":"25.95984000"},{"name":"Comuna Şirna","latitude":"44.80011000","longitude":"25.94156000"},{"name":"Comuna Şoimari","latitude":"45.16940000","longitude":"26.20968000"},{"name":"Comuna Şotrile","latitude":"45.21183000","longitude":"25.71909000"},{"name":"Comuna Ştefeşti","latitude":"45.24234000","longitude":"25.89879000"},{"name":"Conduratu","latitude":"44.97236000","longitude":"26.43365000"},{"name":"Corlătești","latitude":"44.91341000","longitude":"26.08726000"},{"name":"Cornu de Jos","latitude":"45.15665000","longitude":"25.70452000"},{"name":"Cornu de Sus","latitude":"45.16667000","longitude":"25.70000000"},{"name":"Cosmina de Jos","latitude":"45.15000000","longitude":"25.88333000"},{"name":"Crivina","latitude":"44.78636000","longitude":"26.05604000"},{"name":"Câmpina","latitude":"45.12619000","longitude":"25.73496000"},{"name":"Călugăreni","latitude":"45.08333000","longitude":"26.38333000"},{"name":"Cărbuneşti","latitude":"45.23333000","longitude":"26.20000000"},{"name":"Cătina","latitude":"45.00984000","longitude":"25.78395000"},{"name":"Dițești","latitude":"44.97990000","longitude":"25.72655000"},{"name":"Doftana","latitude":"45.15000000","longitude":"25.80000000"},{"name":"Drajna de Jos","latitude":"45.21667000","longitude":"26.05000000"},{"name":"Drajna de Sus","latitude":"45.25709000","longitude":"26.07388000"},{"name":"Drăgăneasa","latitude":"45.10467000","longitude":"25.68138000"},{"name":"Drăgăneşti","latitude":"44.81667000","longitude":"26.30000000"},{"name":"Dumbrava","latitude":"44.88333000","longitude":"26.18333000"},{"name":"Dumbrăveşti","latitude":"45.08333000","longitude":"26.00000000"},{"name":"Dâmbu","latitude":"45.04533000","longitude":"25.88854000"},{"name":"Filipeştii de Pădure","latitude":"45.00000000","longitude":"25.75000000"},{"name":"Filipeştii de Târg","latitude":"44.98333000","longitude":"25.78333000"},{"name":"Floreşti","latitude":"45.05000000","longitude":"25.78333000"},{"name":"Fulga de Jos","latitude":"44.88152000","longitude":"26.44258000"},{"name":"Fulga de Sus","latitude":"44.90000000","longitude":"26.45000000"},{"name":"Fântânele","latitude":"45.00700000","longitude":"26.37720000"},{"name":"Făgetu","latitude":"45.13668000","longitude":"26.02018000"},{"name":"Gheaba","latitude":"45.30916000","longitude":"26.00626000"},{"name":"Gherghiţa","latitude":"44.80000000","longitude":"26.26667000"},{"name":"Ghioșești","latitude":"45.24235000","longitude":"25.62671000"},{"name":"Gorgota","latitude":"44.78333000","longitude":"26.08333000"},{"name":"Gornet","latitude":"45.11667000","longitude":"26.06667000"},{"name":"Gornet-Cricov","latitude":"45.08333000","longitude":"26.26667000"},{"name":"Goruna","latitude":"45.08696000","longitude":"25.94202000"},{"name":"Gradiștea","latitude":"44.88803000","longitude":"26.51520000"},{"name":"Groșani","latitude":"45.24822000","longitude":"25.94795000"},{"name":"Gura Beliei","latitude":"45.21064000","longitude":"25.64946000"},{"name":"Gura Vadului","latitude":"45.05000000","longitude":"26.46667000"},{"name":"Gura Viţioarei","latitude":"45.15000000","longitude":"26.03333000"},{"name":"Găgeni","latitude":"45.02164000","longitude":"25.94585000"},{"name":"Homorâciu","latitude":"45.26940000","longitude":"26.01634000"},{"name":"Inotești","latitude":"44.96146000","longitude":"26.35782000"},{"name":"Iordăcheanu","latitude":"45.04392000","longitude":"26.23920000"},{"name":"Izvoarele","latitude":"45.28376000","longitude":"26.00119000"},{"name":"Jugureni","latitude":"45.10000000","longitude":"26.45000000"},{"name":"Lapoș","latitude":"45.15197000","longitude":"26.41911000"},{"name":"Liliești","latitude":"45.03458000","longitude":"25.88554000"},{"name":"Lipăneşti","latitude":"45.05000000","longitude":"26.01667000"},{"name":"Livadea","latitude":"45.18663000","longitude":"25.92805000"},{"name":"Loloiasca","latitude":"44.96808000","longitude":"26.29141000"},{"name":"Lunca Prahovei","latitude":"45.04714000","longitude":"25.77161000"},{"name":"Magula","latitude":"44.93185000","longitude":"26.30114000"},{"name":"Meri","latitude":"44.83366000","longitude":"26.30863000"},{"name":"Minieri","latitude":"44.98372000","longitude":"25.76083000"},{"name":"Mireșu Mare","latitude":"45.13508000","longitude":"26.37714000"},{"name":"Miroslăvești","latitude":"44.80383000","longitude":"26.08689000"},{"name":"Mislea","latitude":"45.09668000","longitude":"25.82444000"},{"name":"Mizil","latitude":"45.01667000","longitude":"26.45000000"},{"name":"Moceşti","latitude":"45.05000000","longitude":"26.25000000"},{"name":"Municipiul Câmpina","latitude":"45.12619000","longitude":"25.73496000"},{"name":"Municipiul Ploieşti","latitude":"44.94281000","longitude":"26.02116000"},{"name":"Măgurele","latitude":"45.10000000","longitude":"26.03333000"},{"name":"Măgureni","latitude":"45.06667000","longitude":"25.73333000"},{"name":"Măneciu-Ungureni","latitude":"45.31667000","longitude":"25.98333000"},{"name":"Măneşti","latitude":"44.86667000","longitude":"25.85000000"},{"name":"Mărginenii de Jos","latitude":"44.95910000","longitude":"25.75989000"},{"name":"Nedelea","latitude":"44.97191000","longitude":"25.81647000"},{"name":"Negoiești","latitude":"44.87393000","longitude":"25.98160000"},{"name":"Ocina de Sus","latitude":"45.20060000","longitude":"25.59882000"},{"name":"Ogretin","latitude":"45.26483000","longitude":"26.09169000"},{"name":"Olari","latitude":"44.78482000","longitude":"26.21728000"},{"name":"Ologeni","latitude":"44.73370000","longitude":"25.95059000"},{"name":"Oraş Azuga","latitude":"45.44512000","longitude":"25.55616000"},{"name":"Oraş Boldeşti-Scãeni","latitude":"45.02458000","longitude":"26.04574000"},{"name":"Oraş Breaza","latitude":"45.18710000","longitude":"25.65851000"},{"name":"Oraş Buşteni","latitude":"45.40570000","longitude":"25.53969000"},{"name":"Oraş Bãicoi","latitude":"45.04160000","longitude":"25.86964000"},{"name":"Oraş Comarnic","latitude":"45.24962000","longitude":"25.63859000"},{"name":"Oraş Mizil","latitude":"45.00844000","longitude":"26.44410000"},{"name":"Oraş Plopeni","latitude":"45.04406000","longitude":"25.95304000"},{"name":"Oraş Sinaia","latitude":"45.34842000","longitude":"25.54937000"},{"name":"Oraş Slãnic","latitude":"45.23029000","longitude":"25.94753000"},{"name":"Oraş Urlaţi","latitude":"44.99692000","longitude":"26.24377000"},{"name":"Oraş Vãlenii De Munte","latitude":"45.18771000","longitude":"26.03885000"},{"name":"Ostrovu","latitude":"45.20351000","longitude":"25.90345000"},{"name":"Palanca","latitude":"44.81562000","longitude":"26.19995000"},{"name":"Pantazi","latitude":"44.93492000","longitude":"26.14020000"},{"name":"Parepa-Rușani","latitude":"44.90577000","longitude":"26.35478000"},{"name":"Perșunari","latitude":"45.05682000","longitude":"26.44784000"},{"name":"Pietriceaua","latitude":"45.21910000","longitude":"25.80859000"},{"name":"Pietroșani","latitude":"44.83963000","longitude":"26.10382000"},{"name":"Pleașa","latitude":"45.00583000","longitude":"26.07211000"},{"name":"Ploieşti","latitude":"44.95000000","longitude":"26.01667000"},{"name":"Ploieștiori","latitude":"44.98157000","longitude":"26.01795000"},{"name":"Plopeni","latitude":"45.06552000","longitude":"25.98114000"},{"name":"Plopu","latitude":"45.01667000","longitude":"26.15000000"},{"name":"Podenii Noi","latitude":"45.11667000","longitude":"26.16667000"},{"name":"Podenii Vechi","latitude":"45.08939000","longitude":"26.11584000"},{"name":"Poiana","latitude":"45.24536000","longitude":"25.66302000"},{"name":"Poiana Copăceni","latitude":"45.16392000","longitude":"26.06918000"},{"name":"Poiana Câmpina","latitude":"45.13333000","longitude":"25.68333000"},{"name":"Poiana Țapului","latitude":"45.39344000","longitude":"25.54066000"},{"name":"Poienarii Apostoli","latitude":"44.77204000","longitude":"26.05388000"},{"name":"Poienarii Burchii","latitude":"44.75000000","longitude":"26.01667000"},{"name":"Popești","latitude":"44.86076000","longitude":"25.99557000"},{"name":"Posada","latitude":"45.28714000","longitude":"25.61882000"},{"name":"Poseștii-Pământeni","latitude":"45.26667000","longitude":"26.15000000"},{"name":"Potigrafu","latitude":"44.78504000","longitude":"26.10014000"},{"name":"Proviţa de Jos","latitude":"45.11667000","longitude":"25.65000000"},{"name":"Proviţa de Sus","latitude":"45.13333000","longitude":"25.63333000"},{"name":"Prăjani","latitude":"45.20422000","longitude":"25.95151000"},{"name":"Puchenii Mari","latitude":"44.81667000","longitude":"26.08333000"},{"name":"Puchenii Moșneni","latitude":"44.81213000","longitude":"26.08701000"},{"name":"Păcureţi","latitude":"45.15000000","longitude":"26.13333000"},{"name":"Păuleşti","latitude":"45.00000000","longitude":"25.98333000"},{"name":"Rachieri","latitude":"44.95438000","longitude":"26.12841000"},{"name":"Românești","latitude":"44.86667000","longitude":"26.06667000"},{"name":"Râfov","latitude":"44.86667000","longitude":"26.13333000"},{"name":"Salcia","latitude":"45.18333000","longitude":"26.33333000"},{"name":"Schiulești","latitude":"45.28471000","longitude":"25.95403000"},{"name":"Scorţeni","latitude":"45.10000000","longitude":"25.85000000"},{"name":"Scurtești","latitude":"45.23759000","longitude":"25.90264000"},{"name":"Seciu","latitude":"45.03275000","longitude":"26.06474000"},{"name":"Secăria","latitude":"45.28333000","longitude":"25.68333000"},{"name":"Sinaia","latitude":"45.35000000","longitude":"25.55000000"},{"name":"Slon","latitude":"45.35521000","longitude":"26.04189000"},{"name":"Slănic","latitude":"45.25000000","longitude":"25.93333000"},{"name":"Starchiojd","latitude":"45.31667000","longitude":"26.18333000"},{"name":"Stoenești","latitude":"44.92422000","longitude":"25.85881000"},{"name":"Strejnicu","latitude":"44.91676000","longitude":"25.95109000"},{"name":"Surani","latitude":"45.20000000","longitude":"26.16667000"},{"name":"Sângeru","latitude":"45.13333000","longitude":"26.35000000"},{"name":"Târgşoru Vechi","latitude":"44.86667000","longitude":"25.91667000"},{"name":"Tăriceni","latitude":"44.79624000","longitude":"25.96958000"},{"name":"Tătaru","latitude":"45.10000000","longitude":"26.33333000"},{"name":"Tătărani","latitude":"44.89763000","longitude":"26.03509000"},{"name":"Urlaţi","latitude":"44.98333000","longitude":"26.23333000"},{"name":"Urleta","latitude":"45.08732000","longitude":"25.79354000"},{"name":"Vadu Părului","latitude":"44.93132000","longitude":"26.20940000"},{"name":"Vadu Săpat","latitude":"45.03973000","longitude":"26.38700000"},{"name":"Valea Cucului","latitude":"45.06525000","longitude":"26.22793000"},{"name":"Valea Călugărească","latitude":"44.96667000","longitude":"26.15000000"},{"name":"Valea Dulce","latitude":"45.11428000","longitude":"26.20787000"},{"name":"Valea Târsei","latitude":"45.17711000","longitude":"25.63323000"},{"name":"Varnița","latitude":"44.80679000","longitude":"25.94530000"},{"name":"Vâlcăneşti","latitude":"45.11667000","longitude":"25.93333000"},{"name":"Vălenii de Munte","latitude":"45.18333000","longitude":"26.03333000"},{"name":"Vărbila","latitude":"45.04654000","longitude":"26.19691000"},{"name":"Vărbilău","latitude":"45.18333000","longitude":"25.95000000"},{"name":"Şirna","latitude":"44.80000000","longitude":"25.95000000"},{"name":"Şoimari","latitude":"45.18333000","longitude":"26.20000000"},{"name":"Şotrile","latitude":"45.21667000","longitude":"25.71667000"},{"name":"Ştefeşti","latitude":"45.21667000","longitude":"25.90000000"},{"name":"Șipotu","latitude":"45.04076000","longitude":"26.01714000"},{"name":"Țintea","latitude":"45.03403000","longitude":"25.90460000"},{"name":"Sălciile","latitude":"44.81667000","longitude":"26.48333000"},{"name":"Talea","latitude":"45.22564000","longitude":"25.56433000"},{"name":"Teişani","latitude":"45.23333000","longitude":"25.98333000"},{"name":"Telega","latitude":"45.13333000","longitude":"25.78333000"},{"name":"Teșila","latitude":"45.30352000","longitude":"25.72324000"},{"name":"Tinosu","latitude":"44.81667000","longitude":"26.01667000"},{"name":"Tomşani","latitude":"44.95000000","longitude":"26.28333000"},{"name":"Trăisteni","latitude":"45.33857000","longitude":"25.72767000"},{"name":"Tufeni","latitude":"45.05790000","longitude":"25.83976000"}]