[{"name":"Al Marsá","latitude":"36.87818000","longitude":"10.32466000"},{"name":"Carthage","latitude":"36.85961000","longitude":"10.32978000"},{"name":"La Goulette","latitude":"36.81825000","longitude":"10.30520000"},{"name":"La Mohammedia","latitude":"36.67446000","longitude":"10.15633000"},{"name":"Sidi Bou Saïd","latitude":"36.86870000","longitude":"10.34174000"},{"name":"Tunis","latitude":"36.81897000","longitude":"10.16579000"}]