[{"name":"Abong Mbang","latitude":"3.98333000","longitude":"13.18333000"},{"name":"Batouri","latitude":"4.43333000","longitude":"14.36667000"},{"name":"Bertoua","latitude":"4.57728000","longitude":"13.68459000"},{"name":"Bélabo","latitude":"4.93333000","longitude":"13.30000000"},{"name":"Bétaré Oya","latitude":"5.60000000","longitude":"14.08333000"},{"name":"Dimako","latitude":"4.38333000","longitude":"13.56667000"},{"name":"Doumé","latitude":"4.23333000","longitude":"13.45000000"},{"name":"Garoua Boulaï","latitude":"5.88333000","longitude":"14.55000000"},{"name":"Mbang","latitude":"4.58333000","longitude":"13.33333000"},{"name":"Ndelele","latitude":"4.04065000","longitude":"14.92501000"},{"name":"Yokadouma","latitude":"3.51667000","longitude":"15.05000000"}]