[{"name":"Central Province","countryCode":"SB","fipsCode":"10","iso":"CE","latitude":null,"longitude":null},{"name":"Choiseul Province","countryCode":"SB","fipsCode":"12","iso":"CH","latitude":"-7.05014940","longitude":"156.95114590"},{"name":"Guadalcanal Province","countryCode":"SB","fipsCode":"06","iso":"GU","latitude":"-9.57732840","longitude":"160.14558050"},{"name":"Honiara","countryCode":"SB","fipsCode":"14","iso":"CT","latitude":"-9.44563810","longitude":"159.97289990"},{"name":"Isabel Province","countryCode":"SB","fipsCode":"07","iso":"IS","latitude":"-8.05923530","longitude":"159.14470810"},{"name":"Makira-Ulawa Province","countryCode":"SB","fipsCode":"08","iso":"MK","latitude":"-10.57374470","longitude":"161.80969410"},{"name":"Malaita Province","countryCode":"SB","fipsCode":"03","iso":"ML","latitude":"-8.94461680","longitude":"160.90712360"},{"name":"Rennell and Bellona Province","countryCode":"SB","fipsCode":"13","iso":"RB","latitude":"-11.61314350","longitude":"160.16939490"},{"name":"Temotu Province","countryCode":"SB","fipsCode":"09","iso":"TE","latitude":"-10.68692900","longitude":"166.06239790"},{"name":"Western Province","countryCode":"SB","fipsCode":"11","iso":"WE","latitude":null,"longitude":null}]