[{"name":"Agnita","latitude":"45.96667000","longitude":"24.61667000"},{"name":"Agârbiciu","latitude":"46.06764000","longitude":"24.19386000"},{"name":"Alma","latitude":"46.21359000","longitude":"24.48037000"},{"name":"Alămor","latitude":"45.93003000","longitude":"23.99370000"},{"name":"Alțâna","latitude":"45.93333000","longitude":"24.46667000"},{"name":"Apoldu de Jos","latitude":"45.86667000","longitude":"23.85000000"},{"name":"Arpaşu de Jos","latitude":"45.78333000","longitude":"24.61667000"},{"name":"Arpașu de Sus","latitude":"45.73436000","longitude":"24.61906000"},{"name":"Avrig","latitude":"45.71667000","longitude":"24.38333000"},{"name":"Axente Sever","latitude":"46.10000000","longitude":"24.21667000"},{"name":"Aţel","latitude":"46.15000000","longitude":"24.46667000"},{"name":"Bazna","latitude":"46.20000000","longitude":"24.28333000"},{"name":"Biertan","latitude":"46.13333000","longitude":"24.51667000"},{"name":"Blăjel","latitude":"46.21667000","longitude":"24.31667000"},{"name":"Boian","latitude":"46.20159000","longitude":"24.22862000"},{"name":"Boița","latitude":"45.63454000","longitude":"24.26037000"},{"name":"Bradu","latitude":"45.72221000","longitude":"24.33234000"},{"name":"Brateiu","latitude":"46.16667000","longitude":"24.41667000"},{"name":"Bruiu","latitude":"45.86667000","longitude":"24.70000000"},{"name":"Brădeni","latitude":"46.08333000","longitude":"24.83333000"},{"name":"Bârghiş","latitude":"45.98333000","longitude":"24.53333000"},{"name":"Chirpăr","latitude":"45.90000000","longitude":"24.60000000"},{"name":"Cisnădie","latitude":"45.71667000","longitude":"24.15000000"},{"name":"Comuna Alma","latitude":"46.22726000","longitude":"24.46825000"},{"name":"Comuna Alțâna","latitude":"45.95534000","longitude":"24.46144000"},{"name":"Comuna Apoldu de Jos","latitude":"45.89598000","longitude":"23.85036000"},{"name":"Comuna Arpaşu de Jos","latitude":"45.77314000","longitude":"24.60870000"},{"name":"Comuna Axente Sever","latitude":"46.07315000","longitude":"24.22535000"},{"name":"Comuna Aţel","latitude":"46.15465000","longitude":"24.48297000"},{"name":"Comuna Bazna","latitude":"46.21384000","longitude":"24.26438000"},{"name":"Comuna Biertan","latitude":"46.12456000","longitude":"24.51945000"},{"name":"Comuna Blăjel","latitude":"46.22436000","longitude":"24.34108000"},{"name":"Comuna Boiţa","latitude":"45.57905000","longitude":"24.24651000"},{"name":"Comuna Brateiu","latitude":"46.15361000","longitude":"24.42007000"},{"name":"Comuna Bruiu","latitude":"45.86350000","longitude":"24.70341000"},{"name":"Comuna Brădeni","latitude":"46.06701000","longitude":"24.86289000"},{"name":"Comuna Bârghiş","latitude":"46.01126000","longitude":"24.50431000"},{"name":"Comuna Chirpăr","latitude":"45.90545000","longitude":"24.61093000"},{"name":"Comuna Cristian","latitude":"45.78444000","longitude":"24.02995000"},{"name":"Comuna Cârţa","latitude":"45.80033000","longitude":"24.56371000"},{"name":"Comuna Cârţişoara","latitude":"45.72704000","longitude":"24.57985000"},{"name":"Comuna Dârlos","latitude":"46.20795000","longitude":"24.39737000"},{"name":"Comuna Gura Râului","latitude":"45.73012000","longitude":"23.98417000"},{"name":"Comuna Hoghilag","latitude":"46.21941000","longitude":"24.61559000"},{"name":"Comuna Iacobeni","latitude":"46.04440000","longitude":"24.75456000"},{"name":"Comuna Jina","latitude":"45.78593000","longitude":"23.67793000"},{"name":"Comuna Laslea","latitude":"46.14966000","longitude":"24.63839000"},{"name":"Comuna Loamneş","latitude":"45.95467000","longitude":"24.04197000"},{"name":"Comuna Ludoş","latitude":"45.93336000","longitude":"23.90070000"},{"name":"Comuna Marpod","latitude":"45.87101000","longitude":"24.51544000"},{"name":"Comuna Merghindeal","latitude":"45.97533000","longitude":"24.71324000"},{"name":"Comuna Micăsasa","latitude":"46.10607000","longitude":"24.13264000"},{"name":"Comuna Mihăileni","latitude":"45.99998000","longitude":"24.36621000"},{"name":"Comuna Moşna","latitude":"46.07534000","longitude":"24.42509000"},{"name":"Comuna Nocrich","latitude":"45.87075000","longitude":"24.43314000"},{"name":"Comuna Orlat","latitude":"45.75550000","longitude":"23.96855000"},{"name":"Comuna Poiana Sibiului","latitude":"45.80920000","longitude":"23.73095000"},{"name":"Comuna Poplaca","latitude":"45.72815000","longitude":"24.05380000"},{"name":"Comuna Porumbacu de Jos","latitude":"45.75078000","longitude":"24.49551000"},{"name":"Comuna Păuca","latitude":"46.00209000","longitude":"23.91696000"},{"name":"Comuna Racoviţa","latitude":"45.66604000","longitude":"24.35142000"},{"name":"Comuna Roşia","latitude":"45.80385000","longitude":"24.31786000"},{"name":"Comuna Râu Sadului","latitude":"45.62401000","longitude":"24.06132000"},{"name":"Comuna Răşinari","latitude":"45.69761000","longitude":"24.07378000"},{"name":"Comuna Sadu","latitude":"45.67199000","longitude":"24.18393000"},{"name":"Comuna Slimnic","latitude":"45.94465000","longitude":"24.19777000"},{"name":"Comuna Tilişca","latitude":"45.80131000","longitude":"23.81411000"},{"name":"Comuna Turnu Roşu","latitude":"45.64667000","longitude":"24.31762000"},{"name":"Comuna Târnava","latitude":"46.13752000","longitude":"24.29756000"},{"name":"Comuna Valea Viilor","latitude":"46.07141000","longitude":"24.31223000"},{"name":"Comuna Vurpăr","latitude":"45.89672000","longitude":"24.34315000"},{"name":"Comuna Şeica Mare","latitude":"45.99998000","longitude":"24.23909000"},{"name":"Comuna Şeica Mică","latitude":"46.04202000","longitude":"24.09567000"},{"name":"Comuna Şelimbăr","latitude":"45.75141000","longitude":"24.21985000"},{"name":"Comuna Şura Mare","latitude":"45.85917000","longitude":"24.18477000"},{"name":"Comuna Şura Mică","latitude":"45.82485000","longitude":"24.04210000"},{"name":"Copşa Mică","latitude":"46.11667000","longitude":"24.25000000"},{"name":"Cristian","latitude":"45.78333000","longitude":"24.03333000"},{"name":"Cârţa","latitude":"45.78333000","longitude":"24.56667000"},{"name":"Cârţişoara","latitude":"45.71667000","longitude":"24.58333000"},{"name":"Dumbrăveni","latitude":"46.23333000","longitude":"24.56667000"},{"name":"Dârlos","latitude":"46.18333000","longitude":"24.40000000"},{"name":"Gura Râului","latitude":"45.73333000","longitude":"23.98333000"},{"name":"Hoghilag","latitude":"46.23333000","longitude":"24.61667000"},{"name":"Iacobeni","latitude":"46.05000000","longitude":"24.71667000"},{"name":"Ighișu Nou","latitude":"46.11121000","longitude":"24.34920000"},{"name":"Jina","latitude":"45.78333000","longitude":"23.68333000"},{"name":"Laslea","latitude":"46.21667000","longitude":"24.65000000"},{"name":"Loamneş","latitude":"45.93333000","longitude":"24.10000000"},{"name":"Ludoş","latitude":"45.91667000","longitude":"23.90000000"},{"name":"Marpod","latitude":"45.86667000","longitude":"24.50000000"},{"name":"Mediaş","latitude":"46.16667000","longitude":"24.35000000"},{"name":"Merghindeal","latitude":"45.96667000","longitude":"24.73333000"},{"name":"Micăsasa","latitude":"46.08333000","longitude":"24.11667000"},{"name":"Miercurea Sibiului","latitude":"45.88333000","longitude":"23.80000000"},{"name":"Mihăileni","latitude":"45.98333000","longitude":"24.35000000"},{"name":"Moşna","latitude":"46.08333000","longitude":"24.40000000"},{"name":"Municipiul Mediaş","latitude":"46.13663000","longitude":"24.35377000"},{"name":"Municipiul Sibiu","latitude":"45.79383000","longitude":"24.13533000"},{"name":"Mârșa","latitude":"45.70002000","longitude":"24.37046000"},{"name":"Mălâncrav","latitude":"46.11003000","longitude":"24.64810000"},{"name":"Nocrich","latitude":"45.90000000","longitude":"24.45000000"},{"name":"Nou","latitude":"45.83333000","longitude":"24.28333000"},{"name":"Ocna Sibiului","latitude":"45.88333000","longitude":"24.05000000"},{"name":"Oraş Agnita","latitude":"45.98952000","longitude":"24.61458000"},{"name":"Oraş Avrig","latitude":"45.73797000","longitude":"24.38713000"},{"name":"Oraş Cisnãdie","latitude":"45.70924000","longitude":"24.13284000"},{"name":"Oraş Copşa Micã","latitude":"46.11651000","longitude":"24.25517000"},{"name":"Oraş Dumbrãveni","latitude":"46.22258000","longitude":"24.55274000"},{"name":"Oraş Miercurea Sibiului","latitude":"45.86247000","longitude":"23.79766000"},{"name":"Oraş Ocna Sibiului","latitude":"45.88311000","longitude":"24.00095000"},{"name":"Oraş Sãlişte","latitude":"45.78967000","longitude":"23.89532000"},{"name":"Oraş Tãlmaciu","latitude":"45.66751000","longitude":"24.25357000"},{"name":"Orlat","latitude":"45.75000000","longitude":"23.96667000"},{"name":"Poiana Sibiului","latitude":"45.80000000","longitude":"23.73333000"},{"name":"Poplaca","latitude":"45.71667000","longitude":"24.05000000"},{"name":"Porumbacu de Jos","latitude":"45.75000000","longitude":"24.45000000"},{"name":"Păuca","latitude":"46.01667000","longitude":"23.90000000"},{"name":"Racoviţa","latitude":"45.68333000","longitude":"24.35000000"},{"name":"Roşia","latitude":"45.81667000","longitude":"24.31667000"},{"name":"Ruja","latitude":"46.01175000","longitude":"24.65048000"},{"name":"Râu Sadului","latitude":"45.61667000","longitude":"24.06667000"},{"name":"Răşinari","latitude":"45.70000000","longitude":"24.06667000"},{"name":"Sadu","latitude":"45.66667000","longitude":"24.18333000"},{"name":"Sibiu","latitude":"45.80000000","longitude":"24.15000000"},{"name":"Slimnic","latitude":"45.91667000","longitude":"24.16667000"},{"name":"Turnu Roşu","latitude":"45.63333000","longitude":"24.30000000"},{"name":"Târnava","latitude":"46.13975000","longitude":"24.28926000"},{"name":"Tălmaciu","latitude":"45.66714000","longitude":"24.26464000"},{"name":"Tălmăcel","latitude":"45.64712000","longitude":"24.24270000"},{"name":"Valea Viilor","latitude":"46.08333000","longitude":"24.28333000"},{"name":"Veștem","latitude":"45.71752000","longitude":"24.23958000"},{"name":"Vurpăr","latitude":"45.90000000","longitude":"24.35000000"},{"name":"Şeica Mică","latitude":"46.05000000","longitude":"24.13333000"},{"name":"Şelimbăr","latitude":"45.76667000","longitude":"24.20000000"},{"name":"Şeíca Mare","latitude":"46.01667000","longitude":"24.15000000"},{"name":"Şura Mare","latitude":"45.85000000","longitude":"24.16667000"},{"name":"Şura Mică","latitude":"45.83333000","longitude":"24.06667000"},{"name":"Șaroș pe Târnave","latitude":"46.20000000","longitude":"24.55000000"},{"name":"Sălişte","latitude":"45.79633000","longitude":"23.88677000"},{"name":"Tilişca","latitude":"45.80000000","longitude":"23.85000000"}]