[{"name":"Acachuén","latitude":"19.84715000","longitude":"-102.09272000"},{"name":"Acalpican de Morelos","latitude":"18.01854000","longitude":"-102.34033000"},{"name":"Acambay","latitude":"19.95522000","longitude":"-99.84428000"},{"name":"Acatzingo (Acatzingo de la Piedra)","latitude":"18.92389000","longitude":"-99.58861000"},{"name":"Acolman de Netzahualcóyotl","latitude":"19.63976000","longitude":"-98.90777000"},{"name":"Acuitlapilco","latitude":"18.90873000","longitude":"-99.78464000"},{"name":"Aculco de Espinoza","latitude":"20.09867000","longitude":"-99.82757000"},{"name":"Agua Blanca","latitude":"19.22056000","longitude":"-99.47056000"},{"name":"Agua Caliente","latitude":"19.90011000","longitude":"-100.17186000"},{"name":"Agua Escondida","latitude":"19.97893000","longitude":"-99.57829000"},{"name":"Ahuacatitlán","latitude":"18.89414000","longitude":"-99.70867000"},{"name":"Ahuacatitlán Cuarto y Quinto Cuartel","latitude":"19.96222000","longitude":"-99.98694000"},{"name":"Alborada Jaltenco","latitude":"19.66194000","longitude":"-99.06889000"},{"name":"Almoloya de Alquisiras","latitude":"18.84217000","longitude":"-99.86416000"},{"name":"Almoloya del Río","latitude":"19.16046000","longitude":"-99.48740000"},{"name":"Amanalco de Becerra","latitude":"19.31667000","longitude":"-100.01667000"},{"name":"Amatepec","latitude":"18.68222000","longitude":"-100.18583000"},{"name":"Amecameca","latitude":"19.12384000","longitude":"-98.76649000"},{"name":"Ampliación San Mateo (Colonia Solidaridad)","latitude":"19.61639000","longitude":"-99.14722000"},{"name":"Ampliación Tezoyuca","latitude":"19.58057000","longitude":"-98.92053000"},{"name":"Apaxco de Ocampo","latitude":"19.97512000","longitude":"-99.17112000"},{"name":"Arbolada los Sauces","latitude":"19.81583000","longitude":"-99.04417000"},{"name":"Arenal","latitude":"19.38111000","longitude":"-98.94278000"},{"name":"Atenguillo","latitude":"19.56361000","longitude":"-98.87639000"},{"name":"Atizapán","latitude":"19.25000000","longitude":"-99.55000000"},{"name":"Atlacomulco de Fabela","latitude":"19.79919000","longitude":"-99.87500000"},{"name":"Atlatongo","latitude":"19.66776000","longitude":"-98.90402000"},{"name":"Atlautla","latitude":"19.02188000","longitude":"-98.77859000"},{"name":"Axapusco","latitude":"19.72456000","longitude":"-98.75863000"},{"name":"Axotlán","latitude":"19.69417000","longitude":"-99.23944000"},{"name":"Ayapango","latitude":"19.12692000","longitude":"-98.79988000"},{"name":"Barrio Bordo Nuevo","latitude":"19.37917000","longitude":"-99.67333000"},{"name":"Barrio Chiquichuca","latitude":"19.32139000","longitude":"-100.21278000"},{"name":"Barrio Cuarto (La Loma)","latitude":"19.76861000","longitude":"-99.67694000"},{"name":"Barrio San Joaquín el Junco","latitude":"19.56417000","longitude":"-99.77333000"},{"name":"Barrio San Miguel Dorami","latitude":"19.44622000","longitude":"-99.34296000"},{"name":"Barrio Santa Cruz","latitude":"19.35139000","longitude":"-99.66278000"},{"name":"Barrio Tepetitlán Emilio Portes Gil","latitude":"19.65306000","longitude":"-99.88667000"},{"name":"Barrio Tlatenco","latitude":"19.73917000","longitude":"-99.19167000"},{"name":"Barrio de Arriba de San Juan Xoconusco","latitude":"19.32040000","longitude":"-100.27020000"},{"name":"Barrio de Boyecha","latitude":"19.70778000","longitude":"-99.68444000"},{"name":"Barrio de Canales","latitude":"19.37333000","longitude":"-99.37556000"},{"name":"Barrio de Centro del Cerrillo","latitude":"19.53694000","longitude":"-99.95417000"},{"name":"Barrio de Ensido","latitude":"19.49389000","longitude":"-99.37444000"},{"name":"Barrio de España","latitude":"19.86139000","longitude":"-99.08167000"},{"name":"Barrio de Guadalupe","latitude":"19.23054000","longitude":"-98.93090000"},{"name":"Barrio de Jesús Fracción Primera","latitude":"19.36778000","longitude":"-99.68694000"},{"name":"Barrio de México","latitude":"19.28250000","longitude":"-99.82833000"},{"name":"Barrio de Puentecillas","latitude":"19.53558000","longitude":"-99.98463000"},{"name":"Barrio de San Isidro","latitude":"19.52139000","longitude":"-99.95861000"},{"name":"Barrio de San Juan","latitude":"19.41420000","longitude":"-99.53717000"},{"name":"Barrio de San Miguel","latitude":"19.51232000","longitude":"-99.95467000"},{"name":"Barrio de San Pedro la Cabecera","latitude":"19.56528000","longitude":"-99.75000000"},{"name":"Barrio de San Ramón","latitude":"19.37361000","longitude":"-99.33111000"},{"name":"Barrio de la Barranca","latitude":"19.43583000","longitude":"-99.55833000"},{"name":"Barrio del Cajón","latitude":"19.39139000","longitude":"-99.65806000"},{"name":"Barrio el Boncho","latitude":"19.42611000","longitude":"-100.10639000"},{"name":"Barrio el Vivero","latitude":"19.45306000","longitude":"-100.03528000"},{"name":"Barrio la Joya","latitude":"19.42000000","longitude":"-100.09972000"},{"name":"Barrio la Tenería","latitude":"19.69361000","longitude":"-99.79194000"},{"name":"Barrio los Tules","latitude":"19.42917000","longitude":"-100.07472000"},{"name":"Bejucos","latitude":"18.77802000","longitude":"-100.42778000"},{"name":"Belem","latitude":"19.63334000","longitude":"-98.79664000"},{"name":"Benito Juárez","latitude":"19.43765000","longitude":"-99.85384000"},{"name":"Bobashi de Guadalupe","latitude":"19.87583000","longitude":"-99.91167000"},{"name":"Boshindó","latitude":"19.91922000","longitude":"-99.84075000"},{"name":"Bosques de la Magdalena","latitude":"19.35778000","longitude":"-98.94750000"},{"name":"Buenavista","latitude":"19.60833000","longitude":"-99.16944000"},{"name":"Buenos Aires","latitude":"19.61745000","longitude":"-99.66790000"},{"name":"Cabecera de Indígenas","latitude":"19.37213000","longitude":"-100.13667000"},{"name":"Cacalomacan","latitude":"19.25311000","longitude":"-99.70623000"},{"name":"Caja de Agua","latitude":"19.64329000","longitude":"-99.36497000"},{"name":"Calimaya","latitude":"19.16324000","longitude":"-99.61810000"},{"name":"Calixtlahuaca","latitude":"19.33651000","longitude":"-99.68923000"},{"name":"Calvario Buenavista","latitude":"19.70387000","longitude":"-99.95674000"},{"name":"Calvario del Carmen","latitude":"19.63562000","longitude":"-100.01030000"},{"name":"Canalejas","latitude":"19.97867000","longitude":"-99.60548000"},{"name":"Capula","latitude":"18.87018000","longitude":"-99.96075000"},{"name":"Capulhuac de Mirafuentes","latitude":"19.19354000","longitude":"-99.46585000"},{"name":"Carapán","latitude":"19.86003000","longitude":"-102.03644000"},{"name":"Casa Nueva","latitude":"19.83333000","longitude":"-99.20944000"},{"name":"Casas Viejas","latitude":"19.15167000","longitude":"-100.10778000"},{"name":"Caserío de Cortés","latitude":"19.19861000","longitude":"-98.95444000"},{"name":"Cañada de Cisneros","latitude":"19.69534000","longitude":"-99.33570000"},{"name":"Cañada de Guadarrama","latitude":"19.31272000","longitude":"-99.78972000"},{"name":"Cedro de la Manzana","latitude":"19.69213000","longitude":"-100.11656000"},{"name":"Celayita","latitude":"20.24113000","longitude":"-99.86142000"},{"name":"Cerritos del Pilar","latitude":"19.44508000","longitude":"-100.01909000"},{"name":"Cerro La Calera","latitude":"19.18333000","longitude":"-99.81667000"},{"name":"Cerro de San Francisco","latitude":"19.37038000","longitude":"-99.35162000"},{"name":"Cerro del Murciélago","latitude":"19.28194000","longitude":"-99.75472000"},{"name":"Chalchihuapan","latitude":"18.97694000","longitude":"-99.57472000"},{"name":"Chalco","latitude":"19.26174000","longitude":"-98.89775000"},{"name":"Chalma","latitude":"18.93048000","longitude":"-99.43505000"},{"name":"Chalmita","latitude":"18.93433000","longitude":"-99.42325000"},{"name":"Chapa de Mota","latitude":"19.82420000","longitude":"-99.55252000"},{"name":"Chaparaco","latitude":"19.96061000","longitude":"-102.26092000"},{"name":"Chapultepec","latitude":"19.20216000","longitude":"-99.56176000"},{"name":"Chiautla","latitude":"19.54895000","longitude":"-98.88236000"},{"name":"Chicoloapan","latitude":"19.41687000","longitude":"-98.90202000"},{"name":"Chiconcuac","latitude":"19.55939000","longitude":"-98.89884000"},{"name":"Chilchota","latitude":"19.84654000","longitude":"-102.11716000"},{"name":"Chiltepec de Hidalgo","latitude":"18.91266000","longitude":"-99.83450000"},{"name":"Chimalpa Viejo","latitude":"19.44956000","longitude":"-99.34435000"},{"name":"Chosto de los Jarros","latitude":"19.86333000","longitude":"-99.91000000"},{"name":"Ciudad López Mateos","latitude":"19.55793000","longitude":"-99.25675000"},{"name":"Ciudad Nezahualcoyotl","latitude":"19.40061000","longitude":"-99.01483000"},{"name":"Coacalco","latitude":"19.62923000","longitude":"-99.10689000"},{"name":"Coamilpa de Juárez","latitude":"19.19778000","longitude":"-99.44361000"},{"name":"Coatepec","latitude":"19.38485000","longitude":"-98.84546000"},{"name":"Coatepec Harinas","latitude":"18.89492000","longitude":"-99.72153000"},{"name":"Cocotitlán","latitude":"19.23336000","longitude":"-98.86596000"},{"name":"Colonia 2 de Septiembre","latitude":"19.70056000","longitude":"-99.11667000"},{"name":"Colonia 3 de Mayo","latitude":"18.82726000","longitude":"-99.69304000"},{"name":"Colonia 3 de Mayo (La Cruz)","latitude":"19.98083000","longitude":"-99.16361000"},{"name":"Colonia Adolfo López Mateos","latitude":"19.40056000","longitude":"-99.45944000"},{"name":"Colonia Agrícola Analco","latitude":"19.34972000","longitude":"-99.47500000"},{"name":"Colonia Agrícola Álvaro Obregón","latitude":"19.22806000","longitude":"-99.55583000"},{"name":"Colonia Arboledas (San Andrés)","latitude":"19.20250000","longitude":"-99.58083000"},{"name":"Colonia Aviación Autopan","latitude":"19.37917000","longitude":"-99.69278000"},{"name":"Colonia Azteca","latitude":"19.07806000","longitude":"-99.65417000"},{"name":"Colonia Bellavista","latitude":"19.29820000","longitude":"-99.80879000"},{"name":"Colonia Cuauhtémoc","latitude":"19.25122000","longitude":"-99.79717000"},{"name":"Colonia Doctor Gustavo Baz","latitude":"19.41056000","longitude":"-99.92167000"},{"name":"Colonia Emiliano Zapata","latitude":"19.39111000","longitude":"-99.52528000"},{"name":"Colonia Emiliano Zapata Ejido de Tenancingo","latitude":"18.95361000","longitude":"-99.55889000"},{"name":"Colonia Guadalupe","latitude":"19.71306000","longitude":"-99.24972000"},{"name":"Colonia Guadalupe Victoria","latitude":"19.49917000","longitude":"-98.91917000"},{"name":"Colonia Guadalupe Victoria (La Capilla)","latitude":"19.40222000","longitude":"-99.45417000"},{"name":"Colonia Gustavo Baz Prada","latitude":"19.42139000","longitude":"-99.01361000"},{"name":"Colonia Isidro Fabela","latitude":"19.30056000","longitude":"-99.52278000"},{"name":"Colonia Juárez","latitude":"19.99583000","longitude":"-99.14944000"},{"name":"Colonia Lindavista","latitude":"19.49156000","longitude":"-99.12475000"},{"name":"Colonia Lázaro Cárdenas","latitude":"19.51306000","longitude":"-98.92000000"},{"name":"Colonia Lázaro Cárdenas (Los Hornos)","latitude":"19.63167000","longitude":"-99.15333000"},{"name":"Colonia Morelos","latitude":"19.63778000","longitude":"-99.33917000"},{"name":"Colonia Palma","latitude":"19.56444000","longitude":"-99.42417000"},{"name":"Colonia Reforma Tlalmimilolpan","latitude":"19.38806000","longitude":"-99.48889000"},{"name":"Colonia Ricardo Flores Magón","latitude":"19.26833000","longitude":"-99.75833000"},{"name":"Colonia Rincón Villa del Valle","latitude":"19.20966000","longitude":"-100.11917000"},{"name":"Colonia Río Lerma (Tic Ti)","latitude":"19.80556000","longitude":"-99.89722000"},{"name":"Colonia San Francisco de Asís","latitude":"19.57861000","longitude":"-99.75444000"},{"name":"Colonia San Ramón","latitude":"18.96833000","longitude":"-99.57222000"},{"name":"Colonia Tulteca Teopan","latitude":"19.56139000","longitude":"-98.84417000"},{"name":"Colonia Wenceslao Labra","latitude":"19.82773000","longitude":"-99.12435000"},{"name":"Colonia el Mirador","latitude":"19.67167000","longitude":"-99.35722000"},{"name":"Colonia el Pirame","latitude":"19.24083000","longitude":"-99.47194000"},{"name":"Colonia el Refugio","latitude":"19.22694000","longitude":"-99.69417000"},{"name":"Colonia el Salado","latitude":"19.58389000","longitude":"-98.99139000"},{"name":"Colonia la Asunción","latitude":"19.69083000","longitude":"-99.06417000"},{"name":"Colonia la Libertad","latitude":"19.18528000","longitude":"-99.50278000"},{"name":"Colonia los Aguiluchos","latitude":"19.72611000","longitude":"-99.09028000"},{"name":"Colonia los Cedros","latitude":"19.31167000","longitude":"-99.54111000"},{"name":"Colonia los Remedios","latitude":"19.73444000","longitude":"-98.79111000"},{"name":"Colonia Álvaro Obregón","latitude":"19.37691000","longitude":"-99.49484000"},{"name":"Colorines","latitude":"19.17829000","longitude":"-100.21817000"},{"name":"Concepción Caro","latitude":"19.77139000","longitude":"-99.90917000"},{"name":"Concepción Jolalpan","latitude":"19.58399000","longitude":"-98.84643000"},{"name":"Concepción del Monte","latitude":"19.65128000","longitude":"-100.15440000"},{"name":"Concepción la Venta","latitude":"19.69144000","longitude":"-100.15181000"},{"name":"Conejeras","latitude":"20.01271000","longitude":"-99.96202000"},{"name":"Conjunto Habitacional Ecológico SUTEYM","latitude":"19.36889000","longitude":"-99.77861000"},{"name":"Conjunto Urbano la Loma I","latitude":"19.32639000","longitude":"-99.73194000"},{"name":"Contepec","latitude":"19.95432000","longitude":"-100.16385000"},{"name":"Coscomate del Progreso","latitude":"19.93416000","longitude":"-99.51902000"},{"name":"Coyotepec","latitude":"19.77722000","longitude":"-99.21295000"},{"name":"Cozotlán Norte","latitude":"19.70833000","longitude":"-98.86000000"},{"name":"Cuadrilla Vieja","latitude":"19.51205000","longitude":"-99.98692000"},{"name":"Cuadrilla de Dolores","latitude":"19.14000000","longitude":"-100.06944000"},{"name":"Cuautitlán","latitude":"19.67052000","longitude":"-99.17989000"},{"name":"Cuautlacingo","latitude":"19.69405000","longitude":"-98.78385000"},{"name":"Cuecuecuatitla","latitude":"19.01349000","longitude":"-98.84351000"},{"name":"Cuendo","latitude":"19.80028000","longitude":"-99.94778000"},{"name":"Denjhi","latitude":"19.92116000","longitude":"-99.53561000"},{"name":"Detiña (San Antonio Detiña)","latitude":"19.97028000","longitude":"-99.88389000"},{"name":"Dios Padre","latitude":"19.61474000","longitude":"-100.06499000"},{"name":"Dolores","latitude":"20.06059000","longitude":"-100.32211000"},{"name":"Dolores Hidalgo","latitude":"19.65528000","longitude":"-99.92639000"},{"name":"Dongu","latitude":"19.84295000","longitude":"-99.58651000"},{"name":"Dotegiare","latitude":"19.70705000","longitude":"-100.04354000"},{"name":"Doxhicho","latitude":"19.89999000","longitude":"-99.55727000"},{"name":"Doxteje Barrio Primero","latitude":"19.95972000","longitude":"-99.95861000"},{"name":"Doxteje Centro","latitude":"19.97528000","longitude":"-99.95472000"},{"name":"Ecatepec de Morelos","latitude":"19.60378000","longitude":"-99.05514000"},{"name":"Ecatzingo de Hidalgo","latitude":"18.95508000","longitude":"-98.75198000"},{"name":"Ejido Loma de Malacota","latitude":"19.65753000","longitude":"-99.67122000"},{"name":"Ejido Miraflores","latitude":"19.57000000","longitude":"-99.39750000"},{"name":"Ejido Palma (Ejido San Francisco)","latitude":"19.56889000","longitude":"-99.40889000"},{"name":"Ejido San Cristóbal","latitude":"19.54250000","longitude":"-98.89417000"},{"name":"Ejido San Diego","latitude":"19.41329000","longitude":"-99.82537000"},{"name":"Ejido San Lorenzo Cuauhtenco","latitude":"19.30139000","longitude":"-99.75028000"},{"name":"Ejido de Coscomate del Progreso","latitude":"19.93379000","longitude":"-99.54720000"},{"name":"Ejido de Dolores","latitude":"19.43083000","longitude":"-99.61278000"},{"name":"Ejido de Guadalupe","latitude":"19.63765000","longitude":"-99.27178000"},{"name":"Ejido de Mozoquilpan","latitude":"19.42417000","longitude":"-99.52833000"},{"name":"Ejido de San Mateo Coapexco","latitude":"18.94889000","longitude":"-99.64249000"},{"name":"Ejido de la Finca","latitude":"18.88635000","longitude":"-99.62693000"},{"name":"Ejido del Tejocote","latitude":"19.48474000","longitude":"-99.27847000"},{"name":"Ejido del Tunal Nenaxi","latitude":"19.74389000","longitude":"-99.90889000"},{"name":"Ejido el Castillo","latitude":"19.43583000","longitude":"-99.30583000"},{"name":"Ejido la Soledad","latitude":"19.64500000","longitude":"-100.10639000"},{"name":"El Arco","latitude":"19.22528000","longitude":"-100.13167000"},{"name":"El Cabi","latitude":"19.18986000","longitude":"-98.85371000"},{"name":"El Carmen (El Desierto del Carmen)","latitude":"18.92028000","longitude":"-99.55667000"},{"name":"El Carmen Ocotepec","latitude":"19.68722000","longitude":"-99.97417000"},{"name":"El Cerrillo Vista Hermosa","latitude":"19.32337000","longitude":"-99.54250000"},{"name":"El Cerrito","latitude":"19.35528000","longitude":"-99.34833000"},{"name":"El Colorado","latitude":"20.09639000","longitude":"-99.76278000"},{"name":"El Coloso","latitude":"19.09778000","longitude":"-99.59778000"},{"name":"El Contadero de Matamoros","latitude":"19.23734000","longitude":"-99.80990000"},{"name":"El Curtidor","latitude":"19.29167000","longitude":"-99.83500000"},{"name":"El Cóporo","latitude":"19.28306000","longitude":"-99.83528000"},{"name":"El Esclavo","latitude":"19.67667000","longitude":"-99.37139000"},{"name":"El Espinal","latitude":"19.46756000","longitude":"-100.06051000"},{"name":"El Habillal","latitude":"18.00699000","longitude":"-102.37263000"},{"name":"El Hielo","latitude":"19.42583000","longitude":"-99.35556000"},{"name":"El Jacal","latitude":"19.40500000","longitude":"-100.08944000"},{"name":"El Llano Santa María","latitude":"19.78389000","longitude":"-99.08639000"},{"name":"El Llano del Compromiso","latitude":"19.25472000","longitude":"-99.47917000"},{"name":"El Magueyal","latitude":"19.94250000","longitude":"-99.57462000"},{"name":"El Mogote","latitude":"20.16583000","longitude":"-99.91444000"},{"name":"El Obraje","latitude":"19.72269000","longitude":"-99.96259000"},{"name":"El Ocotal","latitude":"19.67983000","longitude":"-99.47008000"},{"name":"El Oro de Hidalgo","latitude":"19.80272000","longitude":"-100.13081000"},{"name":"El Palacio","latitude":"19.35139000","longitude":"-99.35667000"},{"name":"El Palmito","latitude":"19.91733000","longitude":"-99.68127000"},{"name":"El Pedregal de Guadalupe Hidalgo","latitude":"19.25278000","longitude":"-99.46500000"},{"name":"El Pilar","latitude":"20.24201000","longitude":"-101.40209000"},{"name":"El Pino","latitude":"19.35139000","longitude":"-98.94833000"},{"name":"El Plan","latitude":"19.37452000","longitude":"-99.80049000"},{"name":"El Porvenir I","latitude":"19.31694000","longitude":"-99.72889000"},{"name":"El Potrero","latitude":"19.30625000","longitude":"-99.99393000"},{"name":"El Potrero de San Diego","latitude":"19.48899000","longitude":"-100.08210000"},{"name":"El Progreso Hidalgo","latitude":"18.84639000","longitude":"-99.61417000"},{"name":"El Puerto Magú","latitude":"19.68846000","longitude":"-99.37290000"},{"name":"El Recodo de San José Axalco","latitude":"19.20278000","longitude":"-98.90278000"},{"name":"El Rincón de la Candelaria","latitude":"19.79000000","longitude":"-99.84306000"},{"name":"El Rincón de los Perales","latitude":"19.54222000","longitude":"-99.82806000"},{"name":"El Rosal","latitude":"20.10126000","longitude":"-99.68555000"},{"name":"El Salitre","latitude":"18.95250000","longitude":"-99.58972000"},{"name":"El Tepetatal","latitude":"19.34581000","longitude":"-99.77086000"},{"name":"El Terrero","latitude":"18.79028000","longitude":"-99.64528000"},{"name":"El Águila (La Mesa)","latitude":"19.16694000","longitude":"-99.40639000"},{"name":"Emiliano Zapata","latitude":"19.34361000","longitude":"-98.97472000"},{"name":"Emiliano Zapata (San José Bata)","latitude":"19.91111000","longitude":"-99.00667000"},{"name":"Emiliano Zapata (Santo Domingo)","latitude":"19.57972000","longitude":"-99.78806000"},{"name":"Emilio Portes Gil","latitude":"19.64444000","longitude":"-99.91667000"},{"name":"Epitacio Huerta","latitude":"20.13493000","longitude":"-100.29321000"},{"name":"Etúcuaro","latitude":"19.89286000","longitude":"-102.12945000"},{"name":"Ex-Hacienda Santa Inés","latitude":"19.70667000","longitude":"-99.07250000"},{"name":"Ex-Hacienda de Guadalupe","latitude":"19.80889000","longitude":"-98.97250000"},{"name":"Ex-Rancho San Dimas","latitude":"19.17389000","longitude":"-99.56528000"},{"name":"Ex-hacienda de Xalpa","latitude":"19.82150000","longitude":"-99.18275000"},{"name":"Fraccionamiento Colinas del Sol","latitude":"19.37222000","longitude":"-99.74028000"},{"name":"Fraccionamiento Hacienda del Bosque","latitude":"19.72667000","longitude":"-98.96861000"},{"name":"Fraccionamiento Real de San Pablo","latitude":"19.38944000","longitude":"-99.64861000"},{"name":"Fraccionamiento Rinconada del Valle","latitude":"19.41111000","longitude":"-99.57417000"},{"name":"Fraccionamiento la Trinidad","latitude":"19.82917000","longitude":"-99.08278000"},{"name":"Fraccionamiento y Club de Golf los Encinos","latitude":"19.28917000","longitude":"-99.48000000"},{"name":"Fracción San Roque (El Prieto)","latitude":"19.68722000","longitude":"-99.17222000"},{"name":"Fresno Nichi","latitude":"19.56694000","longitude":"-99.94889000"},{"name":"Fuentes del Valle","latitude":"19.63250000","longitude":"-99.13861000"},{"name":"Fábrica Concepción","latitude":"19.63445000","longitude":"-100.13596000"},{"name":"Galaxias Toluca","latitude":"19.39806000","longitude":"-99.65000000"},{"name":"Galeana","latitude":"20.03585000","longitude":"-101.57150000"},{"name":"Ganzda","latitude":"19.99000000","longitude":"-99.84750000"},{"name":"Granjas Ampliación Santa Rosa","latitude":"19.59278000","longitude":"-98.96667000"},{"name":"Guadalupe Buenavista","latitude":"19.61194000","longitude":"-100.12720000"},{"name":"Guadalupe Cachi","latitude":"19.60111000","longitude":"-99.82500000"},{"name":"Guadalupe Coté","latitude":"19.61075000","longitude":"-99.98499000"},{"name":"Guadalupe Totoltepec","latitude":"19.34833000","longitude":"-99.56417000"},{"name":"Gunyo Poniente (San José Gunyo)","latitude":"20.11149000","longitude":"-99.83861000"},{"name":"Huancito","latitude":"19.84889000","longitude":"-102.06784000"},{"name":"Huehuetoca","latitude":"19.82819000","longitude":"-99.20370000"},{"name":"Huemetla","latitude":"19.71500000","longitude":"-99.73583000"},{"name":"Hueypoxtla","latitude":"19.91301000","longitude":"-99.07384000"},{"name":"Huilango","latitude":"19.68056000","longitude":"-99.25639000"},{"name":"Huitzoltepec","latitude":"18.76737000","longitude":"-99.80014000"},{"name":"Huixquilucan","latitude":"19.35985000","longitude":"-99.35016000"},{"name":"Huixquilucan de Degollado","latitude":"19.36028000","longitude":"-99.34980000"},{"name":"Ignacio Allende","latitude":"19.34426000","longitude":"-99.36146000"},{"name":"Ixtapaluca","latitude":"19.31556000","longitude":"-98.88284000"},{"name":"Ixtapan de la Sal","latitude":"18.84369000","longitude":"-99.67671000"},{"name":"Ixtapan del Oro","latitude":"19.26303000","longitude":"-100.26459000"},{"name":"Ixtlahuaca de Cuauhtémoc","latitude":"19.88139000","longitude":"-98.86028000"},{"name":"Ixtlahuaca de Rayón","latitude":"19.56889000","longitude":"-99.76694000"},{"name":"Jacona de Plancarte","latitude":"19.95232000","longitude":"-102.30781000"},{"name":"Jalmolonga (La Hacienda)","latitude":"18.91835000","longitude":"-99.49407000"},{"name":"Jalpa de los Baños","latitude":"19.67833000","longitude":"-99.87389000"},{"name":"Jaltenco","latitude":"19.75298000","longitude":"-99.09390000"},{"name":"Janambo","latitude":"20.20642000","longitude":"-101.52644000"},{"name":"Janamuato","latitude":"20.09961000","longitude":"-101.58540000"},{"name":"Jesús Carranza (Rancho de Jesús)","latitude":"18.94528000","longitude":"-99.63056000"},{"name":"Jesús María","latitude":"19.41773000","longitude":"-99.99696000"},{"name":"Jesús del Monte","latitude":"19.37500000","longitude":"-99.29444000"},{"name":"Jicaltepec Autopan","latitude":"19.37167000","longitude":"-99.64083000"},{"name":"Jicaltepec Cuexcontitlán","latitude":"19.37306000","longitude":"-99.62750000"},{"name":"Jilotepec de Molina Enríquez","latitude":"19.95194000","longitude":"-99.53278000"},{"name":"Jilotzingo","latitude":"19.86889000","longitude":"-99.06194000"},{"name":"Jiquipilco","latitude":"19.55644000","longitude":"-99.60833000"},{"name":"Jocotitlán","latitude":"19.70991000","longitude":"-99.78867000"},{"name":"Joquicingo","latitude":"19.05032000","longitude":"-99.53375000"},{"name":"Jorge Jiménez Cantú","latitude":"19.30972000","longitude":"-98.84667000"},{"name":"Jorobas","latitude":"19.82389000","longitude":"-99.24833000"},{"name":"Juchitepec","latitude":"19.10059000","longitude":"-98.87880000"},{"name":"La Albarrada (San Francisco la Albarrada)","latitude":"19.06750000","longitude":"-100.07528000"},{"name":"La Cabecera","latitude":"19.35611000","longitude":"-99.74806000"},{"name":"La Cabecera Concepción","latitude":"19.70361000","longitude":"-99.94111000"},{"name":"La Calle","latitude":"20.28628000","longitude":"-101.63679000"},{"name":"La Campanilla","latitude":"19.50983000","longitude":"-99.94230000"},{"name":"La Candelaria Tlapala","latitude":"19.24042000","longitude":"-98.84766000"},{"name":"La Cantera","latitude":"19.86375000","longitude":"-102.40838000"},{"name":"La Caridad","latitude":"19.94778000","longitude":"-99.83694000"},{"name":"La Cañada","latitude":"19.48639000","longitude":"-99.59889000"},{"name":"La Ciénega","latitude":"18.95611000","longitude":"-99.58139000"},{"name":"La Colonia","latitude":"19.14444000","longitude":"-98.78667000"},{"name":"La Compañía","latitude":"19.16460000","longitude":"-100.07966000"},{"name":"La Comunidad","latitude":"20.02111000","longitude":"-99.57611000"},{"name":"La Concepción","latitude":"19.69611000","longitude":"-99.30028000"},{"name":"La Concepción Coatipac (La Conchita)","latitude":"19.18188000","longitude":"-99.56833000"},{"name":"La Concepción Enyege","latitude":"19.56472000","longitude":"-99.84139000"},{"name":"La Concepción Xochicuautla","latitude":"19.38226000","longitude":"-99.44050000"},{"name":"La Concepción de Hidalgo","latitude":"19.45054000","longitude":"-99.53139000"},{"name":"La Concepción de los Baños","latitude":"19.68249000","longitude":"-99.86104000"},{"name":"La Constitución Toltepec","latitude":"19.34861000","longitude":"-99.54917000"},{"name":"La Cruz y Carrizal","latitude":"19.83021000","longitude":"-99.42168000"},{"name":"La Esperanza","latitude":"19.68377000","longitude":"-99.51575000"},{"name":"La Estancia Sector Uno (La Estancia)","latitude":"19.87056000","longitude":"-99.79167000"},{"name":"La Finca","latitude":"18.89047000","longitude":"-99.64028000"},{"name":"La Glorieta","latitude":"19.41154000","longitude":"-99.38562000"},{"name":"La Guadalupana","latitude":"19.55414000","longitude":"-99.90922000"},{"name":"La Herradura","latitude":"19.04000000","longitude":"-99.58472000"},{"name":"La Joya","latitude":"19.27639000","longitude":"-99.75889000"},{"name":"La Loma","latitude":"20.01966000","longitude":"-100.01027000"},{"name":"La Loma Cuexcontitlán","latitude":"19.38000000","longitude":"-99.64889000"},{"name":"La Magdalena","latitude":"19.94796000","longitude":"-99.99947000"},{"name":"La Magdalena Chichicaspa","latitude":"19.41237000","longitude":"-99.32555000"},{"name":"La Magdalena Tenexpan","latitude":"19.46333000","longitude":"-99.58861000"},{"name":"La Magdalena de los Reyes (La Magdalena)","latitude":"19.18972000","longitude":"-99.41000000"},{"name":"La Mesa","latitude":"19.58748000","longitude":"-100.17373000"},{"name":"La Mesa de Chosto","latitude":"19.85250000","longitude":"-99.89028000"},{"name":"La Pastoría","latitude":"19.54306000","longitude":"-98.91111000"},{"name":"La Planada","latitude":"19.78129000","longitude":"-99.18267000"},{"name":"La Planada (El Arenal)","latitude":"19.33333000","longitude":"-99.67694000"},{"name":"La Presita Segundo Cuartel","latitude":"20.16278000","longitude":"-99.87278000"},{"name":"La Providencia","latitude":"19.75833000","longitude":"-99.14667000"},{"name":"La Puerta del Pilar","latitude":"19.46018000","longitude":"-100.01577000"},{"name":"La Purificación","latitude":"19.52441000","longitude":"-98.81731000"},{"name":"La Rosa","latitude":"19.48519000","longitude":"-99.32984000"},{"name":"La Soledad Barrio","latitude":"20.09194000","longitude":"-99.82306000"},{"name":"La Trinidad","latitude":"18.96639000","longitude":"-99.58083000"},{"name":"La Y","latitude":"19.39806000","longitude":"-99.58972000"},{"name":"Laguna de Tabernillas (El Resbaloso)","latitude":"19.46139000","longitude":"-99.87833000"},{"name":"Las Huertas","latitude":"19.97222000","longitude":"-99.55611000"},{"name":"Las Manzanas","latitude":"19.95069000","longitude":"-99.56109000"},{"name":"Las Peñas","latitude":"19.44972000","longitude":"-99.99944000"},{"name":"Las Pintas","latitude":"19.89667000","longitude":"-98.88694000"},{"name":"Las Ranas","latitude":"20.20860000","longitude":"-101.47810000"},{"name":"Las Rosas","latitude":"19.54631000","longitude":"-100.15986000"},{"name":"Lerma de Villada","latitude":"19.28881000","longitude":"-99.51163000"},{"name":"Llano Grande","latitude":"18.82733000","longitude":"-99.76774000"},{"name":"Llano de Zacapexco","latitude":"19.70405000","longitude":"-99.48507000"},{"name":"Llano de la Y","latitude":"19.40278000","longitude":"-99.61639000"},{"name":"Llano de las Flores (Barrio del Hueso)","latitude":"19.43583000","longitude":"-99.32250000"},{"name":"Loma Alta","latitude":"19.68944000","longitude":"-99.44917000"},{"name":"Loma Alta Taxhimay","latitude":"19.84222000","longitude":"-99.40806000"},{"name":"Loma Bonita","latitude":"19.18722000","longitude":"-100.21500000"},{"name":"Loma Larga","latitude":"19.62750000","longitude":"-99.34611000"},{"name":"Loma Larga (Barrio de Loma Larga)","latitude":"19.86722000","longitude":"-99.11611000"},{"name":"Loma de Guadalupe (La Biznaga)","latitude":"19.65219000","longitude":"-99.36873000"},{"name":"Loma de Juárez","latitude":"19.43523000","longitude":"-100.09020000"},{"name":"Loma de San Francisco","latitude":"19.28333000","longitude":"-99.80917000"},{"name":"Loma de San José","latitude":"19.64222000","longitude":"-99.32778000"},{"name":"Loma de San Miguel","latitude":"19.34194000","longitude":"-99.79167000"},{"name":"Loma del Río","latitude":"19.60056000","longitude":"-99.35056000"},{"name":"Lomas de Altavista","latitude":"19.36139000","longitude":"-98.94472000"},{"name":"Lomas de San Pablo","latitude":"19.20250000","longitude":"-98.91778000"},{"name":"Lomas de San Sebastián","latitude":"19.38206000","longitude":"-98.93320000"},{"name":"Lomas de Tenopalco","latitude":"19.70232000","longitude":"-99.11237000"},{"name":"Los Arana","latitude":"19.70981000","longitude":"-99.50222000"},{"name":"Los Berros","latitude":"19.39771000","longitude":"-100.04840000"},{"name":"Los Hucuares","latitude":"19.89916000","longitude":"-102.49759000"},{"name":"Los Nogales","latitude":"19.85734000","longitude":"-102.15612000"},{"name":"Los Remedios","latitude":"19.97810000","longitude":"-102.67954000"},{"name":"Los Reyes","latitude":"19.68524000","longitude":"-99.76450000"},{"name":"Los Reyes Acaquilpan","latitude":"19.36357000","longitude":"-98.97707000"},{"name":"Los Reyes Acatlixhuayán","latitude":"19.20889000","longitude":"-98.88242000"},{"name":"Los Saucos","latitude":"19.16520000","longitude":"-99.99895000"},{"name":"Luvianos","latitude":"18.94554000","longitude":"-100.42448000"},{"name":"Magdalena Atlicpac","latitude":"19.36906000","longitude":"-98.94935000"},{"name":"Malinalco","latitude":"18.94847000","longitude":"-99.49619000"},{"name":"Manto del Río Ejido","latitude":"19.84008000","longitude":"-99.92729000"},{"name":"Manzana Quinta (La Cañada)","latitude":"19.54222000","longitude":"-99.60250000"},{"name":"Manzana Segunda","latitude":"19.56722000","longitude":"-99.59389000"},{"name":"Manzana Sexta Parte Centro","latitude":"19.52750000","longitude":"-99.60528000"},{"name":"Manzana Tercera de Santa Cruz Tepexpan","latitude":"19.56917000","longitude":"-99.70361000"},{"name":"Mavoro","latitude":"19.70417000","longitude":"-99.82222000"},{"name":"Maxtleca de Galeana","latitude":"19.02889000","longitude":"-99.55722000"},{"name":"Mayorazgo de León","latitude":"19.46889000","longitude":"-99.74365000"},{"name":"Melchor Ocampo","latitude":"19.70186000","longitude":"-99.14485000"},{"name":"Metepec","latitude":"19.25934000","longitude":"-99.60175000"},{"name":"Mexicaltzingo","latitude":"19.21130000","longitude":"-99.58469000"},{"name":"Mextepec","latitude":"19.46118000","longitude":"-99.89126000"},{"name":"Mezapa la Fábrica","latitude":"19.17556000","longitude":"-99.44528000"},{"name":"Mina México","latitude":"19.41014000","longitude":"-99.72771000"},{"name":"Mina Vieja","latitude":"19.55250000","longitude":"-99.94389000"},{"name":"Miraflores","latitude":"19.22210000","longitude":"-98.80741000"},{"name":"Molino Abajo","latitude":"19.44972000","longitude":"-99.60222000"},{"name":"Monte Calvario","latitude":"19.10444000","longitude":"-99.59528000"},{"name":"Montecillo","latitude":"19.45711000","longitude":"-98.90835000"},{"name":"Morelos","latitude":"19.74542000","longitude":"-99.64687000"},{"name":"Naucalpan de Juárez","latitude":"19.47851000","longitude":"-99.23963000"},{"name":"Nepantla de Sor Juana Inés de la Cruz","latitude":"18.98028000","longitude":"-98.84083000"},{"name":"Nicolás Romero","latitude":"19.64177000","longitude":"-99.30680000"},{"name":"Nopaltepec","latitude":"19.77829000","longitude":"-98.71046000"},{"name":"Nueva Ameyalco","latitude":"19.29790000","longitude":"-99.50483000"},{"name":"Nueva Santa Rosa","latitude":"19.59028000","longitude":"-98.96000000"},{"name":"Ocopulco","latitude":"19.58972000","longitude":"-98.89694000"},{"name":"Ocoyoacac","latitude":"19.27127000","longitude":"-99.45787000"},{"name":"Octeyuco Dos Mil","latitude":"19.96333000","longitude":"-99.58806000"},{"name":"Ocuilan","latitude":"18.99043000","longitude":"-99.40910000"},{"name":"Ocuilan de Arteaga","latitude":"18.97784000","longitude":"-99.41986000"},{"name":"Ocumicho","latitude":"19.79654000","longitude":"-102.22169000"},{"name":"Ojo de Agua","latitude":"19.68028000","longitude":"-99.01000000"},{"name":"Otumba","latitude":"19.69985000","longitude":"-98.75638000"},{"name":"Otzoloapan","latitude":"19.11728000","longitude":"-100.29684000"},{"name":"Otzolotepec","latitude":"19.43526000","longitude":"-99.54407000"},{"name":"Oxtotipac","latitude":"19.65521000","longitude":"-98.79319000"},{"name":"Ozumba de Alzate","latitude":"19.03689000","longitude":"-98.79516000"},{"name":"Palizada","latitude":"19.50611000","longitude":"-100.10033000"},{"name":"Palmar Chico","latitude":"18.69593000","longitude":"-100.36852000"},{"name":"Palmillas","latitude":"19.69361000","longitude":"-99.95028000"},{"name":"Palos Amarillos (Palos Amarillos Yebuciví)","latitude":"19.53944000","longitude":"-99.91667000"},{"name":"Papalotla","latitude":"19.56341000","longitude":"-98.85681000"},{"name":"Paraje Trejo (El Chaparral)","latitude":"19.40556000","longitude":"-99.31222000"},{"name":"Paraje el Mirador","latitude":"19.39944000","longitude":"-99.32694000"},{"name":"Paraje la Pera","latitude":"19.38056000","longitude":"-99.34500000"},{"name":"Paseos de San Juan","latitude":"19.78194000","longitude":"-99.01750000"},{"name":"Pathé","latitude":"19.92695000","longitude":"-99.83957000"},{"name":"Playa Azul","latitude":"17.98170000","longitude":"-102.34761000"},{"name":"Plaza Nueva","latitude":"18.92944000","longitude":"-99.43444000"},{"name":"Polotitlán","latitude":"20.21988000","longitude":"-99.82205000"},{"name":"Polotitlán de la Ilustración","latitude":"20.22530000","longitude":"-99.81537000"},{"name":"Polvillos (San Bartolo Quinta Sección)","latitude":"19.23611000","longitude":"-100.08000000"},{"name":"Polígonos","latitude":"19.41612000","longitude":"-98.99091000"},{"name":"Popo Park","latitude":"19.06510000","longitude":"-98.78087000"},{"name":"Porfirío Díaz","latitude":"18.92875000","longitude":"-99.72684000"},{"name":"Pothé","latitude":"19.47417000","longitude":"-99.60306000"},{"name":"Potreros","latitude":"20.25414000","longitude":"-101.65747000"},{"name":"Prados San Francisco","latitude":"19.72154000","longitude":"-99.08366000"},{"name":"Prados de San Juan","latitude":"19.63998000","longitude":"-98.97519000"},{"name":"Primera de Analco","latitude":"18.90250000","longitude":"-99.77556000"},{"name":"Profesor Carlos Hank González","latitude":"19.37222000","longitude":"-98.93889000"},{"name":"Progreso Industrial","latitude":"19.63635000","longitude":"-99.35687000"},{"name":"Pueblo Nuevo","latitude":"19.67419000","longitude":"-99.61750000"},{"name":"Pueblo Nuevo Tlalmimilolpan","latitude":"19.39222000","longitude":"-99.50167000"},{"name":"Puentecillas","latitude":"20.02568000","longitude":"-99.97806000"},{"name":"Puerto Escondido (Tepeolulco Puerto Escondido)","latitude":"19.55194000","longitude":"-99.09806000"},{"name":"Purísima Concepción Mayorazgo","latitude":"19.69159000","longitude":"-100.00211000"},{"name":"Quetzalapa","latitude":"18.94056000","longitude":"-99.59694000"},{"name":"Quinto Barrio (Ejido Cahuacán)","latitude":"19.62222000","longitude":"-99.41806000"},{"name":"Rancho Alegre","latitude":"19.62528000","longitude":"-99.68361000"},{"name":"Rincón Verde","latitude":"19.49639000","longitude":"-99.29083000"},{"name":"Rincón de Aguirre","latitude":"18.89947000","longitude":"-100.13659000"},{"name":"Rincón de Guadalupe","latitude":"19.27404000","longitude":"-99.99648000"},{"name":"Rincón de Jaimes","latitude":"18.89844000","longitude":"-100.16536000"},{"name":"Rincón de los Pirules","latitude":"19.73932000","longitude":"-100.03022000"},{"name":"Río Frío de Juárez","latitude":"19.35336000","longitude":"-98.67057000"},{"name":"Salitrillo","latitude":"19.43333000","longitude":"-99.85000000"},{"name":"San Agustín","latitude":"18.94224000","longitude":"-99.93913000"},{"name":"San Agustín Berros","latitude":"19.40272000","longitude":"-100.01048000"},{"name":"San Agustín Buenavista","latitude":"20.04337000","longitude":"-99.48960000"},{"name":"San Agustín Citlali","latitude":"19.48025000","longitude":"-99.80222000"},{"name":"San Agustín Huitzizilapan","latitude":"19.42000000","longitude":"-99.46360000"},{"name":"San Agustín Mextepec","latitude":"19.63292000","longitude":"-99.92654000"},{"name":"San Agustín Mimbres","latitude":"19.45069000","longitude":"-99.55626000"},{"name":"San Agustín de las Palmas","latitude":"19.32607000","longitude":"-100.14911000"},{"name":"San Alejo","latitude":"18.83857000","longitude":"-99.72922000"},{"name":"San Andrés Metla","latitude":"19.21695000","longitude":"-98.84167000"},{"name":"San Andrés Nicolás Bravo","latitude":"18.76778000","longitude":"-99.46528000"},{"name":"San Andrés Ocotepec","latitude":"18.90361000","longitude":"-100.04667000"},{"name":"San Andrés Tepetitlán","latitude":"18.89833000","longitude":"-99.91972000"},{"name":"San Andrés Timilpan","latitude":"19.87610000","longitude":"-99.73375000"},{"name":"San Andrés Tlalamac","latitude":"18.96694000","longitude":"-98.80778000"},{"name":"San Andrés de las Peras","latitude":"19.55653000","longitude":"-98.79202000"},{"name":"San Andrés de los Gama","latitude":"19.03766000","longitude":"-99.97403000"},{"name":"San Andrés del Pedregal","latitude":"19.58104000","longitude":"-99.86860000"},{"name":"San Antonio Acahualco","latitude":"19.27400000","longitude":"-99.77169000"},{"name":"San Antonio Bonixi","latitude":"19.49226000","longitude":"-99.72686000"},{"name":"San Antonio Buenavista","latitude":"19.26083000","longitude":"-99.71194000"},{"name":"San Antonio Enchisi","latitude":"19.75472000","longitude":"-99.81667000"},{"name":"San Antonio Guaracha","latitude":"19.94592000","longitude":"-102.55590000"},{"name":"San Antonio Nixini","latitude":"19.67472000","longitude":"-99.68472000"},{"name":"San Antonio Solís","latitude":"19.99965000","longitude":"-100.08622000"},{"name":"San Antonio Tlaltecahuacán","latitude":"19.15795000","longitude":"-98.76895000"},{"name":"San Antonio Xahuento","latitude":"19.69167000","longitude":"-99.10722000"},{"name":"San Antonio de la Laguna","latitude":"19.30134000","longitude":"-100.07179000"},{"name":"San Antonio de las Huertas","latitude":"19.56222000","longitude":"-99.97111000"},{"name":"San Antonio de las Palmas","latitude":"19.71806000","longitude":"-98.85684000"},{"name":"San Antonio del Rosario","latitude":"18.40012000","longitude":"-100.30874000"},{"name":"San Antonio el Llanito","latitude":"19.27750000","longitude":"-99.49500000"},{"name":"San Antonio la Isla","latitude":"19.17317000","longitude":"-99.55400000"},{"name":"San Bartolito Tlaltelolco","latitude":"19.19170000","longitude":"-99.56136000"},{"name":"San Bartolo","latitude":"19.24496000","longitude":"-100.05329000"},{"name":"San Bartolo Cuautlalpan","latitude":"19.81510000","longitude":"-99.01044000"},{"name":"San Bartolo Lanzados","latitude":"19.86639000","longitude":"-99.89389000"},{"name":"San Bartolo Morelos","latitude":"19.78643000","longitude":"-99.66879000"},{"name":"San Bartolo Oxtotitlán","latitude":"19.61902000","longitude":"-99.61347000"},{"name":"San Bartolo del Llano","latitude":"19.59069000","longitude":"-99.74099000"},{"name":"San Bartolo del Llano (San Isidro)","latitude":"19.30528000","longitude":"-99.82750000"},{"name":"San Bartolo del Progreso","latitude":"19.10156000","longitude":"-99.40409000"},{"name":"San Bartolo el Viejo","latitude":"19.29889000","longitude":"-99.82389000"},{"name":"San Bartolomé","latitude":"19.00944000","longitude":"-99.67856000"},{"name":"San Bartolomé Atlatlahuca","latitude":"19.06963000","longitude":"-99.60981000"},{"name":"San Bartolomé Coatepec","latitude":"19.39776000","longitude":"-99.31211000"},{"name":"San Bernardino","latitude":"19.47667000","longitude":"-98.89635000"},{"name":"San Bernardo Tlalmimilolpan","latitude":"19.56179000","longitude":"-98.79288000"},{"name":"San Buenaventura","latitude":"19.30250000","longitude":"-98.86306000"},{"name":"San Carlos Autopan","latitude":"19.38583000","longitude":"-99.68722000"},{"name":"San Cristóbal Nexquipayac","latitude":"19.58010000","longitude":"-98.93053000"},{"name":"San Diego","latitude":"18.97291000","longitude":"-99.58530000"},{"name":"San Diego Huehuecalco","latitude":"19.09276000","longitude":"-98.76336000"},{"name":"San Diego del Cerrito","latitude":"19.50795000","longitude":"-100.00684000"},{"name":"San Diego la Huerta","latitude":"19.14472000","longitude":"-99.63333000"},{"name":"San Diego los Padres Cuexcontitlán Sección 5 B","latitude":"19.37611000","longitude":"-99.61222000"},{"name":"San Felipe Coamango","latitude":"19.85902000","longitude":"-99.60675000"},{"name":"San Felipe Pueblo Nuevo","latitude":"19.76778000","longitude":"-99.75833000"},{"name":"San Felipe Santiago","latitude":"19.39039000","longitude":"-100.10639000"},{"name":"San Felipe Tlalmimilolpan","latitude":"19.23934000","longitude":"-99.64215000"},{"name":"San Felipe del Progreso","latitude":"19.71440000","longitude":"-99.95197000"},{"name":"San Felipe el Mirasol","latitude":"19.20266000","longitude":"-99.42113000"},{"name":"San Francisco","latitude":"18.94931000","longitude":"-99.64723000"},{"name":"San Francisco Acuautla","latitude":"19.34564000","longitude":"-98.86034000"},{"name":"San Francisco Ayotuzco","latitude":"19.36583000","longitude":"-99.35694000"},{"name":"San Francisco Chalchihuapan","latitude":"19.77000000","longitude":"-99.82167000"},{"name":"San Francisco Chejé","latitude":"19.68044000","longitude":"-99.74877000"},{"name":"San Francisco Cuaxusco","latitude":"19.26755000","longitude":"-99.61925000"},{"name":"San Francisco Magú","latitude":"19.68540000","longitude":"-99.34800000"},{"name":"San Francisco Mazapa","latitude":"19.69142000","longitude":"-98.83442000"},{"name":"San Francisco Mihualtepec","latitude":"19.24507000","longitude":"-100.09830000"},{"name":"San Francisco Oxtotilpan","latitude":"19.16926000","longitude":"-99.90273000"},{"name":"San Francisco Putla","latitude":"19.12778000","longitude":"-99.63556000"},{"name":"San Francisco Solis","latitude":"19.92969000","longitude":"-100.04506000"},{"name":"San Francisco Tenopalco","latitude":"19.71259000","longitude":"-99.11616000"},{"name":"San Francisco Tepeolulco","latitude":"19.83291000","longitude":"-99.98834000"},{"name":"San Francisco Tepexoxica","latitude":"19.06043000","longitude":"-99.54783000"},{"name":"San Francisco Tlalcilalcalpan","latitude":"19.29474000","longitude":"-99.76771000"},{"name":"San Francisco Tlaltica","latitude":"19.65833000","longitude":"-98.77500000"},{"name":"San Francisco Xochicuautla","latitude":"19.37291000","longitude":"-99.44530000"},{"name":"San Francisco de Guzmán","latitude":"19.62028000","longitude":"-99.77472000"},{"name":"San Gabriel Ixtla","latitude":"19.25782000","longitude":"-100.12400000"},{"name":"San Gabriel Zepayautla","latitude":"19.01306000","longitude":"-99.55194000"},{"name":"San Gaspar","latitude":"18.77750000","longitude":"-99.54861000"},{"name":"San Gaspar Tonatico","latitude":"18.80671000","longitude":"-99.66917000"},{"name":"San Gregorio Cuautzingo","latitude":"19.25962000","longitude":"-98.85742000"},{"name":"San Ildefonso","latitude":"19.56111000","longitude":"-99.78583000"},{"name":"San Isidro","latitude":"19.33972000","longitude":"-98.95056000"},{"name":"San Isidro (El Reservado)","latitude":"19.30694000","longitude":"-99.77889000"},{"name":"San Isidro Boxipe","latitude":"19.60111000","longitude":"-99.89083000"},{"name":"San Jacinto","latitude":"19.36288000","longitude":"-99.32308000"},{"name":"San Jerónimo","latitude":"19.24255000","longitude":"-100.02224000"},{"name":"San Jerónimo Amanalco","latitude":"19.51791000","longitude":"-98.75673000"},{"name":"San Jerónimo Bonchete","latitude":"19.63106000","longitude":"-99.94949000"},{"name":"San Jerónimo Cuatro Vientos","latitude":"19.29306000","longitude":"-98.84167000"},{"name":"San Jerónimo Ixtapantongo","latitude":"19.53872000","longitude":"-99.76779000"},{"name":"San Jerónimo Totoltepec","latitude":"19.31494000","longitude":"-100.20290000"},{"name":"San Jerónimo de los Jarros","latitude":"19.87861000","longitude":"-99.92333000"},{"name":"San Joaquín Coapango","latitude":"19.54043000","longitude":"-98.82739000"},{"name":"San Joaquín del Monte","latitude":"19.41967000","longitude":"-99.90161000"},{"name":"San Jorge Pueblo Nuevo","latitude":"19.25417000","longitude":"-99.62778000"},{"name":"San José Barbabosa","latitude":"19.27583000","longitude":"-99.72000000"},{"name":"San José Boqui","latitude":"19.70167000","longitude":"-99.72861000"},{"name":"San José Chalmita","latitude":"18.85862000","longitude":"-99.54831000"},{"name":"San José Guadalupe Otzacatipan","latitude":"19.34472000","longitude":"-99.59194000"},{"name":"San José Mezapa Sección I","latitude":"19.16306000","longitude":"-99.45500000"},{"name":"San José Pathé","latitude":"19.43528000","longitude":"-99.63111000"},{"name":"San José Tejamanil","latitude":"19.43139000","longitude":"-99.35889000"},{"name":"San José Tenería (Tenería)","latitude":"18.95028000","longitude":"-99.54306000"},{"name":"San José Tlacotitlán","latitude":"18.98583000","longitude":"-98.80611000"},{"name":"San José Toxi","latitude":"19.86803000","longitude":"-99.93736000"},{"name":"San José Villa de Allende","latitude":"19.37521000","longitude":"-100.14850000"},{"name":"San José del Progreso","latitude":"18.93443000","longitude":"-99.79230000"},{"name":"San José del Puente","latitude":"19.72056000","longitude":"-99.19667000"},{"name":"San José del Rincón Centro","latitude":"19.66216000","longitude":"-100.15315000"},{"name":"San José del Sitio","latitude":"19.60263000","longitude":"-99.66627000"},{"name":"San José del Tunal","latitude":"19.79056000","longitude":"-99.84000000"},{"name":"San José el Cuartel","latitude":"18.95972000","longitude":"-99.57722000"},{"name":"San José el Vidrio","latitude":"19.65333000","longitude":"-99.38417000"},{"name":"San José las Lomas","latitude":"19.47936000","longitude":"-99.67052000"},{"name":"San José las Palmas","latitude":"19.36724000","longitude":"-98.93368000"},{"name":"San Juan","latitude":"19.24677000","longitude":"-100.03040000"},{"name":"San Juan Atezcapan","latitude":"19.16736000","longitude":"-100.18491000"},{"name":"San Juan Coajomulco","latitude":"19.75306000","longitude":"-99.96861000"},{"name":"San Juan Cote Ejido","latitude":"19.60516000","longitude":"-99.95913000"},{"name":"San Juan Coxtocan","latitude":"19.13932000","longitude":"-98.84728000"},{"name":"San Juan Daxthi","latitude":"20.09838000","longitude":"-99.52599000"},{"name":"San Juan Jalpa Centro","latitude":"19.69806000","longitude":"-99.93000000"},{"name":"San Juan Tehuixtitlán","latitude":"19.05428000","longitude":"-98.76718000"},{"name":"San Juan Tepecoculco","latitude":"18.98306000","longitude":"-98.78750000"},{"name":"San Juan Tlacotompa (Tlacotompa)","latitude":"18.94111000","longitude":"-98.79056000"},{"name":"San Juan Tomasquillo Herradura","latitude":"19.17222000","longitude":"-99.40389000"},{"name":"San Juan Totolapan","latitude":"19.53093000","longitude":"-98.72691000"},{"name":"San Juan Tuxtepec","latitude":"19.85865000","longitude":"-99.63289000"},{"name":"San Juan Xoconusco","latitude":"19.31159000","longitude":"-100.25930000"},{"name":"San Juan de las Huertas","latitude":"19.24755000","longitude":"-99.75834000"},{"name":"San Juan de las Manzanas","latitude":"19.55111000","longitude":"-99.83833000"},{"name":"San Juan de los Jarros","latitude":"19.86194000","longitude":"-99.91611000"},{"name":"San Juan y San Pedro Tezompa","latitude":"19.20680000","longitude":"-98.96073000"},{"name":"San Juanico Sector Uno","latitude":"19.93458000","longitude":"-99.76778000"},{"name":"San Lorenzo Huehuetitlán","latitude":"19.13417000","longitude":"-99.48222000"},{"name":"San Lorenzo Malacota","latitude":"19.64950000","longitude":"-99.61363000"},{"name":"San Lorenzo Tlacotepec","latitude":"19.81250000","longitude":"-99.91222000"},{"name":"San Lorenzo Tlalmimilolpan","latitude":"19.66731000","longitude":"-98.87221000"},{"name":"San Lorenzo Toxico","latitude":"19.50917000","longitude":"-99.76278000"},{"name":"San Lucas","latitude":"18.97806000","longitude":"-99.66056000"},{"name":"San Lucas Amalinalco","latitude":"19.27046000","longitude":"-98.86403000"},{"name":"San Lucas Huitzilhuacán","latitude":"19.58694000","longitude":"-98.88362000"},{"name":"San Lucas Ocotepec","latitude":"19.67833000","longitude":"-99.97194000"},{"name":"San Lucas Texcaltitlán","latitude":"19.30065000","longitude":"-100.17163000"},{"name":"San Lucas Totolmaloya","latitude":"20.16333000","longitude":"-99.89722000"},{"name":"San Lucas del Pulque","latitude":"19.10139000","longitude":"-100.02806000"},{"name":"San Luis Anáhuac (Toriles)","latitude":"19.79679000","longitude":"-99.40029000"},{"name":"San Luis Boro","latitude":"19.81316000","longitude":"-99.85580000"},{"name":"San Luis Taxhimay","latitude":"19.83972000","longitude":"-99.39861000"},{"name":"San Marcos Huixtoco","latitude":"19.29668000","longitude":"-98.86369000"},{"name":"San Marcos Nepantla","latitude":"19.66930000","longitude":"-98.93198000"},{"name":"San Marcos Tecomaxusco","latitude":"18.98152000","longitude":"-98.76035000"},{"name":"San Marcos Tlazalpan","latitude":"19.80611000","longitude":"-99.71750000"},{"name":"San Marcos Yachihuacaltepec","latitude":"19.32319000","longitude":"-99.67910000"},{"name":"San Marcos de la Loma","latitude":"19.50112000","longitude":"-99.96041000"},{"name":"San Martín","latitude":"20.21570000","longitude":"-101.61140000"},{"name":"San Martín Ahuatepec","latitude":"19.68139000","longitude":"-98.72806000"},{"name":"San Martín Azcatepec","latitude":"19.68667000","longitude":"-98.97278000"},{"name":"San Martín Cachihuapan","latitude":"19.70789000","longitude":"-99.43124000"},{"name":"San Martín Coapaxtongo","latitude":"18.99417000","longitude":"-99.57000000"},{"name":"San Martín Cuautlalpan","latitude":"19.27618000","longitude":"-98.83167000"},{"name":"San Martín Ejido","latitude":"20.07156000","longitude":"-99.69393000"},{"name":"San Martín Obispo (San Martín San Pedro)","latitude":"19.31944000","longitude":"-100.07472000"},{"name":"San Martín Tequesquipan (Tequesquipan)","latitude":"19.05806000","longitude":"-99.94667000"},{"name":"San Martín Toltepec","latitude":"19.35194000","longitude":"-99.70583000"},{"name":"San Martín Tuchicuitlapilco","latitude":"20.09397000","longitude":"-99.64669000"},{"name":"San Martín de las Pirámides","latitude":"19.70582000","longitude":"-98.83554000"},{"name":"San Mateo","latitude":"19.27950000","longitude":"-100.01510000"},{"name":"San Mateo Almomoloha","latitude":"19.14590000","longitude":"-99.93478000"},{"name":"San Mateo Atenco","latitude":"19.26757000","longitude":"-99.53214000"},{"name":"San Mateo Capulhuac","latitude":"19.47028000","longitude":"-99.52611000"},{"name":"San Mateo Coapexco","latitude":"18.96163000","longitude":"-99.68346000"},{"name":"San Mateo Huitzilzingo","latitude":"19.22906000","longitude":"-98.92504000"},{"name":"San Mateo Ixtacalco","latitude":"19.69920000","longitude":"-99.17159000"},{"name":"San Mateo Ixtlahuaca","latitude":"19.60651000","longitude":"-99.80098000"},{"name":"San Mateo Mozoquilpan","latitude":"19.43414000","longitude":"-99.55466000"},{"name":"San Mateo Tecalco","latitude":"19.05315000","longitude":"-98.79576000"},{"name":"San Mateo Texcalyacac","latitude":"19.16667000","longitude":"-99.46667000"},{"name":"San Mateo Tlalchichilpan","latitude":"19.34277000","longitude":"-99.75769000"},{"name":"San Mateo Xoloc","latitude":"19.70650000","longitude":"-99.24818000"},{"name":"San Mateo el Viejo","latitude":"19.91441000","longitude":"-99.91080000"},{"name":"San Matías Cuijingo","latitude":"19.08487000","longitude":"-98.85307000"},{"name":"San Miguel","latitude":"18.99105000","longitude":"-99.66555000"},{"name":"San Miguel Agua Bendita","latitude":"19.63037000","longitude":"-100.07933000"},{"name":"San Miguel Almoloyan","latitude":"19.35500000","longitude":"-99.79932000"},{"name":"San Miguel Atlamajac","latitude":"19.74884000","longitude":"-98.93335000"},{"name":"San Miguel Coatlinchán","latitude":"19.44999000","longitude":"-98.87274000"},{"name":"San Miguel Enyege","latitude":"19.56984000","longitude":"-99.85962000"},{"name":"San Miguel Hila","latitude":"19.59361000","longitude":"-99.32528000"},{"name":"San Miguel Ixtapan","latitude":"18.80728000","longitude":"-100.15245000"},{"name":"San Miguel Jaltocan","latitude":"19.72306000","longitude":"-99.05028000"},{"name":"San Miguel Laderas","latitude":"18.88319000","longitude":"-99.69686000"},{"name":"San Miguel Mimlapan","latitude":"19.44829000","longitude":"-99.46328000"},{"name":"San Miguel Oxtotilpan","latitude":"19.14380000","longitude":"-99.89590000"},{"name":"San Miguel Tecomatlán","latitude":"18.97833000","longitude":"-99.52861000"},{"name":"San Miguel Tecpan","latitude":"19.53213000","longitude":"-99.39803000"},{"name":"San Miguel Tenochtitlán","latitude":"19.76028000","longitude":"-99.92250000"},{"name":"San Miguel Tlaixpan","latitude":"19.50958000","longitude":"-98.81083000"},{"name":"San Miguel Totocuitlapilco","latitude":"19.22889000","longitude":"-99.59417000"},{"name":"San Miguel Xoltepec","latitude":"19.25265000","longitude":"-100.08320000"},{"name":"San Miguel Yuxtepec","latitude":"19.54056000","longitude":"-99.71250000"},{"name":"San Miguel del Centro","latitude":"19.72067000","longitude":"-100.10875000"},{"name":"San Nicolás","latitude":"18.93333000","longitude":"-99.56833000"},{"name":"San Nicolás Amealco","latitude":"19.32599000","longitude":"-99.87146000"},{"name":"San Nicolás Guadalupe","latitude":"19.61412000","longitude":"-100.03080000"},{"name":"San Nicolás Tolentino","latitude":"19.35889000","longitude":"-99.57167000"},{"name":"San Nicolás el Oro","latitude":"19.80593000","longitude":"-100.11753000"},{"name":"San Pablo Atlazalpan","latitude":"19.21742000","longitude":"-98.90763000"},{"name":"San Pablo Atotonilco","latitude":"19.79627000","longitude":"-99.82301000"},{"name":"San Pablo Huantepec","latitude":"19.98216000","longitude":"-99.49126000"},{"name":"San Pablo Ixayoc","latitude":"19.47317000","longitude":"-98.79522000"},{"name":"San Pablo Ixquitlán","latitude":"19.70944000","longitude":"-98.78833000"},{"name":"San Pablo Tecalco","latitude":"19.67309000","longitude":"-98.95837000"},{"name":"San Pablo Tejalpa","latitude":"18.86667000","longitude":"-99.59111000"},{"name":"San Pablo de las Salinas","latitude":"19.66658000","longitude":"-99.09477000"},{"name":"San Pablo de los Gallos","latitude":"19.67722000","longitude":"-99.24611000"},{"name":"San Pablo de los Remedios","latitude":"19.64111000","longitude":"-99.83833000"},{"name":"San Pedro Abajo","latitude":"19.48093000","longitude":"-99.56700000"},{"name":"San Pedro Arriba","latitude":"19.48641000","longitude":"-99.56253000"},{"name":"San Pedro Arriba 3ra. Sección","latitude":"19.50083000","longitude":"-99.55722000"},{"name":"San Pedro Chiautzingo","latitude":"19.57111000","longitude":"-98.78878000"},{"name":"San Pedro Cholula","latitude":"19.26444000","longitude":"-99.48639000"},{"name":"San Pedro Denxhi Centro","latitude":"20.25026000","longitude":"-99.96731000"},{"name":"San Pedro Huitzizilapan","latitude":"19.40573000","longitude":"-99.47813000"},{"name":"San Pedro Limón","latitude":"18.58200000","longitude":"-100.30707000"},{"name":"San Pedro Los Baños","latitude":"19.62537000","longitude":"-99.82170000"},{"name":"San Pedro Nexapa","latitude":"19.08365000","longitude":"-98.73724000"},{"name":"San Pedro Tarímbaro","latitude":"19.80799000","longitude":"-100.22541000"},{"name":"San Pedro Tejalpa","latitude":"19.25809000","longitude":"-99.79232000"},{"name":"San Pedro Tenayac","latitude":"19.04667000","longitude":"-100.17694000"},{"name":"San Pedro Tepetitlán","latitude":"19.62839000","longitude":"-98.88839000"},{"name":"San Pedro de la Hortaliza (Ejido Almoloyán)","latitude":"19.38806000","longitude":"-99.81778000"},{"name":"San Pedro de los Baños","latitude":"19.66873000","longitude":"-99.83533000"},{"name":"San Pedro de los Metates","latitude":"19.89907000","longitude":"-99.85827000"},{"name":"San Pedro del Rincón","latitude":"19.43515000","longitude":"-100.01353000"},{"name":"San Pedro del Rosal","latitude":"19.77806000","longitude":"-99.81250000"},{"name":"San Pedro el Alto","latitude":"19.58429000","longitude":"-99.88050000"},{"name":"San Rafael","latitude":"19.20959000","longitude":"-98.75636000"},{"name":"San Roque","latitude":"19.48028000","longitude":"-99.96056000"},{"name":"San Salvador Atenco","latitude":"19.55170000","longitude":"-98.91867000"},{"name":"San Salvador Tizatlalli","latitude":"19.26028000","longitude":"-99.59083000"},{"name":"San Sebastián","latitude":"19.75101000","longitude":"-99.21441000"},{"name":"San Sebastián Buenos Aires","latitude":"19.72722000","longitude":"-99.60361000"},{"name":"San Sebastián Chimalpa","latitude":"19.38151000","longitude":"-98.95505000"},{"name":"San Sebastián Xolalpa","latitude":"19.67653000","longitude":"-98.84529000"},{"name":"San Simonito","latitude":"18.99139000","longitude":"-99.54000000"},{"name":"San Simón de Guerrero","latitude":"19.02276000","longitude":"-100.00645000"},{"name":"San Simón de la Laguna","latitude":"19.29273000","longitude":"-100.08070000"},{"name":"San Simón el Alto","latitude":"18.99653000","longitude":"-99.50344000"},{"name":"San Vicente (Calpulalpan Tercera Manzana)","latitude":"20.03722000","longitude":"-99.64167000"},{"name":"San Vicente Chimalhuacán","latitude":"19.02381000","longitude":"-98.80176000"},{"name":"Sanata Lucía","latitude":"19.74807000","longitude":"-98.98069000"},{"name":"Santa Ana","latitude":"18.98750000","longitude":"-99.41333000"},{"name":"Santa Ana Ixtlahuaca (Santa Ana Ixtlahuacingo)","latitude":"19.58472000","longitude":"-99.88750000"},{"name":"Santa Ana Ixtlahuatzingo (Santa Ana)","latitude":"18.97056000","longitude":"-99.62361000"},{"name":"Santa Ana Jilotzingo","latitude":"19.54116000","longitude":"-99.39477000"},{"name":"Santa Ana Mayorazgo","latitude":"19.42951000","longitude":"-99.51270000"},{"name":"Santa Ana Nextlalpan","latitude":"19.74171000","longitude":"-99.07496000"},{"name":"Santa Ana Nichi Ejido","latitude":"19.58441000","longitude":"-99.98905000"},{"name":"Santa Ana Zicatecoyan","latitude":"18.57167000","longitude":"-100.22000000"},{"name":"Santa Ana la Ladera","latitude":"19.59583000","longitude":"-99.87000000"},{"name":"Santa Catarina","latitude":"19.63659000","longitude":"-98.92651000"},{"name":"Santa Catarina Ayotzingo","latitude":"19.20948000","longitude":"-98.92985000"},{"name":"Santa Catarina del Monte","latitude":"19.48404000","longitude":"-98.77239000"},{"name":"Santa Clara de Juárez","latitude":"19.71909000","longitude":"-99.60695000"},{"name":"Santa Cruz","latitude":"18.83333000","longitude":"-99.98333000"},{"name":"Santa Cruz Atizapán","latitude":"19.17692000","longitude":"-99.48852000"},{"name":"Santa Cruz Bombatevi","latitude":"19.80500000","longitude":"-99.88667000"},{"name":"Santa Cruz Cuauhtenco","latitude":"19.24907000","longitude":"-99.72939000"},{"name":"Santa Cruz Huitzizilapan","latitude":"19.39694000","longitude":"-99.44806000"},{"name":"Santa Cruz Mextepec","latitude":"19.65972000","longitude":"-99.95306000"},{"name":"Santa Cruz Pueblo Nuevo (Pueblo Nuevo)","latitude":"19.10000000","longitude":"-99.65806000"},{"name":"Santa Cruz del Monte","latitude":"19.76702000","longitude":"-99.22867000"},{"name":"Santa Gertrudis","latitude":"19.73333000","longitude":"-99.36667000"},{"name":"Santa Isabel Chalma","latitude":"19.15712000","longitude":"-98.76533000"},{"name":"Santa Isabel Ixtapan","latitude":"19.58655000","longitude":"-98.94667000"},{"name":"Santa Juana Centro","latitude":"19.42406000","longitude":"-99.75063000"},{"name":"Santa Juana Primera Sección","latitude":"19.39018000","longitude":"-99.75186000"},{"name":"Santa Lucía","latitude":"19.02749000","longitude":"-99.38683000"},{"name":"Santa Martha","latitude":"19.43145000","longitude":"-98.91744000"},{"name":"Santa María","latitude":"19.85704000","longitude":"-99.55486000"},{"name":"Santa María Ajoloapan","latitude":"19.97694000","longitude":"-99.04472000"},{"name":"Santa María Aranzazú (Santa María)","latitude":"18.98833000","longitude":"-99.65056000"},{"name":"Santa María Canchesdá","latitude":"19.85521000","longitude":"-100.05592000"},{"name":"Santa María Chimalhuacán","latitude":"19.42155000","longitude":"-98.95038000"},{"name":"Santa María Citendejé","latitude":"19.78190000","longitude":"-99.92863000"},{"name":"Santa María Cuevas","latitude":"19.86611000","longitude":"-99.09875000"},{"name":"Santa María Endare","latitude":"19.72556000","longitude":"-99.81583000"},{"name":"Santa María Huecatitla","latitude":"19.72511000","longitude":"-99.16911000"},{"name":"Santa María Huexoculco","latitude":"19.25804000","longitude":"-98.82050000"},{"name":"Santa María Jajalpa","latitude":"19.11167000","longitude":"-99.53583000"},{"name":"Santa María Magdalena Cahuacán","latitude":"19.63804000","longitude":"-99.41349000"},{"name":"Santa María Mazatla","latitude":"19.51528000","longitude":"-99.38694000"},{"name":"Santa María Nativitas","latitude":"19.21139000","longitude":"-99.62944000"},{"name":"Santa María Palapa","latitude":"19.73589000","longitude":"-98.84834000"},{"name":"Santa María Pipioltepec (Pipioltepec)","latitude":"19.24056000","longitude":"-100.09750000"},{"name":"Santa María Rayón","latitude":"19.14808000","longitude":"-99.57974000"},{"name":"Santa María Tecuanulco","latitude":"19.50660000","longitude":"-98.76211000"},{"name":"Santa María Tlalmimilolpan","latitude":"19.39130000","longitude":"-99.47088000"},{"name":"Santa María Totoltepec","latitude":"19.30653000","longitude":"-99.59279000"},{"name":"Santa María Zolotepec","latitude":"19.41728000","longitude":"-99.49327000"},{"name":"Santa María de Guadalupe","latitude":"19.82111000","longitude":"-99.12778000"},{"name":"Santa María del Llano","latitude":"19.63444000","longitude":"-99.72500000"},{"name":"Santa María del Monte","latitude":"19.28973000","longitude":"-99.82355000"},{"name":"Santa María la Asunción","latitude":"19.26750000","longitude":"-99.55250000"},{"name":"Santa Mónica","latitude":"18.99306000","longitude":"-99.42361000"},{"name":"Santa Rosa de Lima","latitude":"19.78587000","longitude":"-100.09606000"},{"name":"Santa Teresa","latitude":"19.84500000","longitude":"-99.23333000"},{"name":"Santiago Acutzilapan","latitude":"19.78640000","longitude":"-99.76569000"},{"name":"Santiago Casandeje","latitude":"19.76972000","longitude":"-99.96917000"},{"name":"Santiago Chimalpa (Chimalpa)","latitude":"19.56917000","longitude":"-98.89167000"},{"name":"Santiago Citendejé","latitude":"19.78139000","longitude":"-99.92917000"},{"name":"Santiago Coachochitlan","latitude":"19.86289000","longitude":"-100.03455000"},{"name":"Santiago Cuautenco","latitude":"19.14803000","longitude":"-98.74685000"},{"name":"Santiago Cuautlalpan","latitude":"19.68417000","longitude":"-99.28870000"},{"name":"Santiago Huitlapaltepec","latitude":"19.28676000","longitude":"-100.20649000"},{"name":"Santiago Mamalhuazuca","latitude":"18.99659000","longitude":"-98.79602000"},{"name":"Santiago Oxtempan","latitude":"19.78034000","longitude":"-100.12191000"},{"name":"Santiago Oxtotitlán","latitude":"18.96146000","longitude":"-99.66827000"},{"name":"Santiago Tejocotillos","latitude":"19.43308000","longitude":"-99.45155000"},{"name":"Santiago Tepetitlán","latitude":"19.63807000","longitude":"-98.81841000"},{"name":"Santiago Tepopula","latitude":"19.14399000","longitude":"-98.85692000"},{"name":"Santiago Teyahualco","latitude":"19.65985000","longitude":"-99.12493000"},{"name":"Santiago Tianguistenco de Galeana","latitude":"19.18024000","longitude":"-99.46644000"},{"name":"Santiago Tlacotepec","latitude":"19.22708000","longitude":"-99.67083000"},{"name":"Santiago Tolman","latitude":"19.72781000","longitude":"-98.79011000"},{"name":"Santiago Yancuitlalpan","latitude":"19.38404000","longitude":"-99.30471000"},{"name":"Santiago Yeché","latitude":"19.70853000","longitude":"-99.71190000"},{"name":"Santiago Zacualuca","latitude":"19.70038000","longitude":"-98.92908000"},{"name":"Santiago del Monte","latitude":"19.40141000","longitude":"-99.94186000"},{"name":"Santiaguito Tlalcilalcalli","latitude":"19.34032000","longitude":"-99.72717000"},{"name":"Santo Domingo Shomege (Shomege)","latitude":"19.84524000","longitude":"-99.90166000"},{"name":"Santo Domingo de Guzmán","latitude":"19.59306000","longitude":"-99.77972000"},{"name":"Santo Tomás","latitude":"19.84524000","longitude":"-102.08571000"},{"name":"Santo Tomás Atzingo","latitude":"19.17270000","longitude":"-98.77873000"},{"name":"Santo Tomás Chiconautla","latitude":"19.63894000","longitude":"-99.00755000"},{"name":"Santo Tomás de los Plátanos","latitude":"19.18310000","longitude":"-100.25999000"},{"name":"Sebastián Lerdo de Tejada","latitude":"19.38972000","longitude":"-99.72528000"},{"name":"Sección del Cerrito","latitude":"19.55889000","longitude":"-99.67833000"},{"name":"Sierra de Guadalupe","latitude":"19.59250000","longitude":"-99.15944000"},{"name":"Sitio Ejido","latitude":"19.45334000","longitude":"-99.90069000"},{"name":"Solalpan 1ra. Sección","latitude":"19.49278000","longitude":"-99.57444000"},{"name":"Soyaniquilpan","latitude":"20.01488000","longitude":"-99.53022000"},{"name":"Sultepec","latitude":"18.85855000","longitude":"-99.96588000"},{"name":"Tamándaro","latitude":"19.94941000","longitude":"-102.28416000"},{"name":"Tanaquillo","latitude":"19.84611000","longitude":"-102.09797000"},{"name":"Tangancícuaro de Arista","latitude":"19.88733000","longitude":"-102.20636000"},{"name":"Tarécuato","latitude":"19.84359000","longitude":"-102.46485000"},{"name":"Tecamachalco","latitude":"19.35992000","longitude":"-98.95957000"},{"name":"Tecaxic","latitude":"19.32270000","longitude":"-99.71524000"},{"name":"Techachaltitla","latitude":"19.36500000","longitude":"-98.94056000"},{"name":"Techichili","latitude":"19.17139000","longitude":"-99.42222000"},{"name":"Tecoac (Santa María Nativitas)","latitude":"19.78917000","longitude":"-99.85306000"},{"name":"Tecomatepec","latitude":"18.83903000","longitude":"-99.70363000"},{"name":"Tecámac","latitude":"19.71288000","longitude":"-98.96895000"},{"name":"Tecámac de Felipe Villanueva","latitude":"19.71306000","longitude":"-98.96833000"},{"name":"Tejalpa","latitude":"19.25167000","longitude":"-99.76580000"},{"name":"Tejupilco","latitude":"18.86162000","longitude":"-100.23277000"},{"name":"Tejupilco de Hidalgo","latitude":"18.90475000","longitude":"-100.15275000"},{"name":"Temamatla","latitude":"19.20306000","longitude":"-98.86921000"},{"name":"Temascalapa","latitude":"19.82766000","longitude":"-98.90171000"},{"name":"Temascalcingo","latitude":"19.91635000","longitude":"-100.00369000"},{"name":"Temascaltepec","latitude":"19.06561000","longitude":"-99.98379000"},{"name":"Temascaltepec de González","latitude":"19.04409000","longitude":"-100.04236000"},{"name":"Temoaya","latitude":"19.46747000","longitude":"-99.59407000"},{"name":"Tenancingo","latitude":"18.96057000","longitude":"-99.57561000"},{"name":"Tenancingo de Degollado","latitude":"18.96136000","longitude":"-99.59030000"},{"name":"Tenango de Arista","latitude":"19.10446000","longitude":"-99.58980000"},{"name":"Tenango del Aire","latitude":"19.15774000","longitude":"-98.85687000"},{"name":"Tenería","latitude":"18.97322000","longitude":"-100.09299000"},{"name":"Tengüecho","latitude":"19.83836000","longitude":"-102.34347000"},{"name":"Tenjay","latitude":"19.80768000","longitude":"-99.55221000"},{"name":"Teoloyucan","latitude":"19.74423000","longitude":"-99.18113000"},{"name":"Teotihuacán","latitude":"19.68862000","longitude":"-98.86110000"},{"name":"Teotihuacán de Arista","latitude":"19.68972000","longitude":"-98.86083000"},{"name":"Tepalcatepec","latitude":"18.93556000","longitude":"-99.59917000"},{"name":"Tepetitlán","latitude":"19.57266000","longitude":"-98.87053000"},{"name":"Tepetlaoxtoc","latitude":"19.57495000","longitude":"-98.81910000"},{"name":"Tepetlaoxtoc de Hidalgo","latitude":"19.57437000","longitude":"-98.81835000"},{"name":"Tepetlixpa","latitude":"19.03007000","longitude":"-98.82125000"},{"name":"Tepetongo","latitude":"19.90877000","longitude":"-100.13356000"},{"name":"Tepetzingo","latitude":"18.93806000","longitude":"-99.61250000"},{"name":"Tepexpan","latitude":"19.61387000","longitude":"-98.93640000"},{"name":"Tepotzotlán","latitude":"19.72116000","longitude":"-99.22391000"},{"name":"Tepoxtepec","latitude":"18.96278000","longitude":"-99.55639000"},{"name":"Tequexquináhuac","latitude":"19.47757000","longitude":"-98.82485000"},{"name":"Tequisistlán","latitude":"19.59642000","longitude":"-98.94105000"},{"name":"Tequisistlán Primero","latitude":"19.60002000","longitude":"-98.95689000"},{"name":"Tequixquiac","latitude":"19.90944000","longitude":"-99.14472000"},{"name":"Tercera Manzana de Zaragoza","latitude":"19.89556000","longitude":"-99.75278000"},{"name":"Teremendo","latitude":"19.78530000","longitude":"-101.47980000"},{"name":"Texcaltitlán","latitude":"18.93997000","longitude":"-99.93763000"},{"name":"Texcalyacac","latitude":"19.13253000","longitude":"-99.50163000"},{"name":"Texcapilla","latitude":"18.94574000","longitude":"-99.89535000"},{"name":"Texcoco de Mora","latitude":"19.51194000","longitude":"-98.88293000"},{"name":"Tezoyuca","latitude":"19.59283000","longitude":"-98.91084000"},{"name":"Tierra Blanca","latitude":"19.50667000","longitude":"-99.58389000"},{"name":"Timilpan","latitude":"19.88017000","longitude":"-99.72552000"},{"name":"Tixmadeje Chiquito","latitude":"19.96556000","longitude":"-99.91444000"},{"name":"Tlacomulco","latitude":"19.12111000","longitude":"-99.44750000"},{"name":"Tlalmanalco","latitude":"19.20521000","longitude":"-98.80115000"},{"name":"Tlalnepantla","latitude":"19.54005000","longitude":"-99.19538000"},{"name":"Tlalnepantla de Baz","latitude":"19.54054000","longitude":"-99.19341000"},{"name":"Tlaltecahuacán","latitude":"19.57896000","longitude":"-98.88067000"},{"name":"Tlaminca","latitude":"19.13571000","longitude":"-99.43999000"},{"name":"Tlatlaya","latitude":"18.61773000","longitude":"-100.20779000"},{"name":"Tlazala de Fabela","latitude":"19.55857000","longitude":"-99.41469000"},{"name":"Tlazazalca","latitude":"19.97085000","longitude":"-102.05842000"},{"name":"Toluca","latitude":"19.32780000","longitude":"-99.66024000"},{"name":"Tonanitla","latitude":"19.68794000","longitude":"-99.05342000"},{"name":"Tonatico","latitude":"18.78199000","longitude":"-99.64363000"},{"name":"Totolmajac","latitude":"18.92694000","longitude":"-99.68593000"},{"name":"Transfiguración","latitude":"19.57712000","longitude":"-99.41951000"},{"name":"Tres Estrellas","latitude":"19.58697000","longitude":"-100.02281000"},{"name":"Tres Mezquites","latitude":"20.26203000","longitude":"-101.62735000"},{"name":"Tulantongo","latitude":"19.53159000","longitude":"-98.87464000"},{"name":"Tultepec","latitude":"19.68500000","longitude":"-99.12806000"},{"name":"Tultitlán de Mariano Escobedo","latitude":"19.64655000","longitude":"-99.16787000"},{"name":"Tupátaro","latitude":"19.81375000","longitude":"-100.30543000"},{"name":"Turcio Segunda Sección","latitude":"19.36527000","longitude":"-99.96009000"},{"name":"Unidad Acaquilpan","latitude":"19.36694000","longitude":"-98.93917000"},{"name":"Unidad Habitacional Santa Teresa","latitude":"19.21611000","longitude":"-99.55222000"},{"name":"Unidad San Miguel Jagüeyes","latitude":"19.82361000","longitude":"-99.28889000"},{"name":"Urén","latitude":"19.84564000","longitude":"-102.10524000"},{"name":"Valle de Bravo","latitude":"19.19501000","longitude":"-100.13132000"},{"name":"Vare Chiquichuca","latitude":"19.35539000","longitude":"-100.19493000"},{"name":"Veintidós de Febrero","latitude":"19.61139000","longitude":"-99.34667000"},{"name":"Venta de Bravo","latitude":"19.86376000","longitude":"-100.17323000"},{"name":"Venta de Ocotillos","latitude":"19.47141000","longitude":"-99.95879000"},{"name":"Villa Cuauhtémoc","latitude":"19.41676000","longitude":"-99.55872000"},{"name":"Villa Guerrero","latitude":"18.96211000","longitude":"-99.64061000"},{"name":"Villa Luvianos","latitude":"18.91667000","longitude":"-100.40000000"},{"name":"Villa Morelos","latitude":"20.00335000","longitude":"-101.41360000"},{"name":"Villa URBI del Rey","latitude":"19.84132000","longitude":"-99.25719000"},{"name":"Villa Victoria","latitude":"19.43693000","longitude":"-99.99589000"},{"name":"Villa de Almoloya de Juárez","latitude":"19.36915000","longitude":"-99.75836000"},{"name":"Villa del Carbón","latitude":"19.72875000","longitude":"-99.46362000"},{"name":"Villachuato","latitude":"20.14848000","longitude":"-101.63460000"},{"name":"Villas de la Laguna","latitude":"19.83611000","longitude":"-99.09000000"},{"name":"Villas del Campo","latitude":"19.18028000","longitude":"-99.61222000"},{"name":"Vista Hermosa","latitude":"19.51616000","longitude":"-99.22335000"},{"name":"Xalatlaco","latitude":"19.18314000","longitude":"-99.41844000"},{"name":"Xhimojay","latitude":"19.92144000","longitude":"-99.64232000"},{"name":"Xhitey","latitude":"19.98163000","longitude":"-99.52779000"},{"name":"Xhixhata","latitude":"19.97056000","longitude":"-99.54611000"},{"name":"Xico","latitude":"19.27032000","longitude":"-98.95088000"},{"name":"Xochimanca","latitude":"19.49052000","longitude":"-98.82433000"},{"name":"Xocotlán","latitude":"19.51633000","longitude":"-98.84633000"},{"name":"Xometla","latitude":"19.64281000","longitude":"-98.88171000"},{"name":"Xonacatlan","latitude":"19.40000000","longitude":"-99.53300000"},{"name":"Zacamulpa","latitude":"19.35565000","longitude":"-99.33145000"},{"name":"Zacamulpa Tlalmimilolpan","latitude":"19.38934000","longitude":"-99.44615000"},{"name":"Zacango","latitude":"18.95611000","longitude":"-99.69806000"},{"name":"Zacazonapan","latitude":"19.07317000","longitude":"-100.25515000"},{"name":"Zacualpan","latitude":"18.71895000","longitude":"-99.77605000"},{"name":"Zapotlán","latitude":"19.54667000","longitude":"-98.90306000"},{"name":"Zentlalpan","latitude":"19.15003000","longitude":"-98.78494000"},{"name":"Zinacantepec","latitude":"19.28428000","longitude":"-99.73394000"},{"name":"Zipiajo","latitude":"19.79445000","longitude":"-101.55250000"},{"name":"Zopoco","latitude":"19.84029000","longitude":"-102.07483000"},{"name":"Zoquiapan","latitude":"19.31769000","longitude":"-98.84967000"},{"name":"Zoyatzingo","latitude":"19.09023000","longitude":"-98.78359000"},{"name":"Zula","latitude":"19.22011000","longitude":"-98.88950000"},{"name":"Zumpahuacán","latitude":"18.91642000","longitude":"-99.56568000"},{"name":"Zumpango","latitude":"19.79670000","longitude":"-99.09946000"}]