[{"name":"Aïn el Bya","latitude":"35.80389000","longitude":"-0.30178000"},{"name":"Bir el Djir","latitude":"35.72000000","longitude":"-0.54500000"},{"name":"Bou Tlelis","latitude":"35.57272000","longitude":"-0.89960000"},{"name":"Es Senia","latitude":"35.64779000","longitude":"-0.62397000"},{"name":"Mers el Kebir","latitude":"35.72790000","longitude":"-0.70810000"},{"name":"Oran","latitude":"35.69906000","longitude":"-0.63588000"},{"name":"Sidi ech Chahmi","latitude":"35.65903000","longitude":"-0.52168000"},{"name":"’Aïn el Turk","latitude":"35.74381000","longitude":"-0.76930000"}]