[{"name":"Aizu-wakamatsu Shi","latitude":"37.45071000","longitude":"139.96814000"},{"name":"Date-shi","latitude":"37.81667000","longitude":"140.51667000"},{"name":"Fukushima","latitude":"37.75000000","longitude":"140.46667000"},{"name":"Fukushima Shi","latitude":"37.78643000","longitude":"140.38849000"},{"name":"Funehikimachi-funehiki","latitude":"37.44722000","longitude":"140.57710000"},{"name":"Hobaramachi","latitude":"37.81667000","longitude":"140.55000000"},{"name":"Inawashiro","latitude":"37.56667000","longitude":"140.11667000"},{"name":"Ishikawa","latitude":"37.15000000","longitude":"140.45000000"},{"name":"Iwaki","latitude":"37.05000000","longitude":"140.88333000"},{"name":"Iwaki-shi","latitude":"37.08333000","longitude":"140.83333000"},{"name":"Kitakata","latitude":"37.65000000","longitude":"139.86667000"},{"name":"Kitakata-shi","latitude":"37.68333000","longitude":"139.90000000"},{"name":"Kōriyama","latitude":"37.40000000","longitude":"140.38333000"},{"name":"Kōriyama Shi","latitude":"37.41277000","longitude":"140.29507000"},{"name":"Miharu","latitude":"37.43333000","longitude":"140.48333000"},{"name":"Minami-Sōma","latitude":"37.62908000","longitude":"140.97868000"},{"name":"Minamisōma Shi","latitude":"37.63108000","longitude":"140.92852000"},{"name":"Motomiya","latitude":"37.51391000","longitude":"140.40063000"},{"name":"Motomiya-shi","latitude":"37.51218000","longitude":"140.39841000"},{"name":"Namie","latitude":"37.48333000","longitude":"141.00000000"},{"name":"Nihommatsu","latitude":"37.58333000","longitude":"140.43333000"},{"name":"Nihonmatsu Shi","latitude":"37.58402000","longitude":"140.49543000"},{"name":"Shirakawa Shi","latitude":"37.12225000","longitude":"140.24963000"},{"name":"Sukagawa","latitude":"37.28333000","longitude":"140.38333000"},{"name":"Sukagawa Shi","latitude":"37.29342000","longitude":"140.31691000"},{"name":"Sōma","latitude":"37.79283000","longitude":"140.92941000"},{"name":"Sōma Shi","latitude":"37.78193000","longitude":"140.87321000"},{"name":"Tamura","latitude":"37.43055000","longitude":"140.60335000"},{"name":"Tamura-shi","latitude":"37.43793000","longitude":"140.57384000"},{"name":"Yanagawamachi-saiwaichō","latitude":"37.85000000","longitude":"140.60000000"}]