[{"name":"Achacachi","latitude":"-16.05000000","longitude":"-68.68333000"},{"name":"Amarete","latitude":"-15.23675000","longitude":"-68.98462000"},{"name":"Batallas","latitude":"-16.30000000","longitude":"-68.53333000"},{"name":"Caranavi","latitude":"-15.83652000","longitude":"-67.56901000"},{"name":"Chulumani","latitude":"-16.40855000","longitude":"-67.52940000"},{"name":"Colquiri","latitude":"-17.38918000","longitude":"-67.12671000"},{"name":"Coripata","latitude":"-16.30000000","longitude":"-67.60000000"},{"name":"Coroico","latitude":"-16.19386000","longitude":"-67.72998000"},{"name":"Curahuara de Carangas","latitude":"-17.86667000","longitude":"-68.43333000"},{"name":"Eucaliptus","latitude":"-17.58333000","longitude":"-67.51667000"},{"name":"Guanay","latitude":"-15.49756000","longitude":"-67.88332000"},{"name":"Huarina","latitude":"-16.20000000","longitude":"-68.63333000"},{"name":"Huatajata","latitude":"-16.20000000","longitude":"-68.68333000"},{"name":"José Manuel Pando","latitude":"-16.18970000","longitude":"-67.72664000"},{"name":"La Paz","latitude":"-16.50000000","longitude":"-68.15000000"},{"name":"Lahuachaca","latitude":"-17.37054000","longitude":"-67.67501000"},{"name":"Mapiri","latitude":"-15.25000000","longitude":"-68.16667000"},{"name":"Patacamaya","latitude":"-17.23580000","longitude":"-67.92169000"},{"name":"Provincia Aroma","latitude":"-17.50000000","longitude":"-68.00000000"},{"name":"Provincia Bautista Saavedra","latitude":"-15.00000000","longitude":"-68.91667000"},{"name":"Provincia Camacho","latitude":"-15.50000000","longitude":"-69.00000000"},{"name":"Provincia Franz Tamayo","latitude":"-14.50000000","longitude":"-68.33333000"},{"name":"Provincia Gualberto Villarroel","latitude":"-17.58333000","longitude":"-68.00000000"},{"name":"Provincia Ingavi","latitude":"-16.83333000","longitude":"-68.66667000"},{"name":"Provincia Inquisivi","latitude":"-17.00000000","longitude":"-67.08333000"},{"name":"Provincia Iturralde","latitude":"-13.00000000","longitude":"-68.00000000"},{"name":"Provincia Larecaja","latitude":"-15.50000000","longitude":"-68.33333000"},{"name":"Provincia Loayza","latitude":"-17.00000000","longitude":"-67.66667000"},{"name":"Provincia Los Andes","latitude":"-16.33333000","longitude":"-68.50000000"},{"name":"Provincia Manco Kapac","latitude":"-16.00000000","longitude":"-69.16667000"},{"name":"Provincia Murillo","latitude":"-16.33333000","longitude":"-68.00000000"},{"name":"Provincia Muñecas","latitude":"-15.33333000","longitude":"-68.66667000"},{"name":"Provincia Nor Yungas","latitude":"-16.00000000","longitude":"-67.50000000"},{"name":"Provincia Omasuyos","latitude":"-15.91667000","longitude":"-68.83333000"},{"name":"Provincia Pacajes","latitude":"-17.50000000","longitude":"-69.00000000"},{"name":"Provincia Sud Yungas","latitude":"-16.50000000","longitude":"-67.50000000"},{"name":"Quime","latitude":"-16.98333000","longitude":"-67.21667000"},{"name":"San Pablo","latitude":"-16.21667000","longitude":"-68.83333000"},{"name":"San Pedro","latitude":"-16.23717000","longitude":"-68.85063000"},{"name":"Sorata","latitude":"-15.77305000","longitude":"-68.64973000"},{"name":"Tiahuanaco","latitude":"-16.55228000","longitude":"-68.67953000"},{"name":"Viloco","latitude":"-16.95000000","longitude":"-67.55000000"},{"name":"Yumani","latitude":"-16.03574000","longitude":"-69.14843000"}]