[{"name":"Kigonsera","latitude":"-10.80000000","longitude":"35.05000000"},{"name":"Liuli","latitude":"-11.08333000","longitude":"34.63333000"},{"name":"Mahanje","latitude":"-9.93333000","longitude":"35.33333000"},{"name":"Maposeni","latitude":"-10.58333000","longitude":"35.40000000"},{"name":"Matiri","latitude":"-10.75000000","longitude":"34.90000000"},{"name":"Mbamba Bay","latitude":"-11.28333000","longitude":"34.76667000"},{"name":"Mbinga","latitude":"-10.93333000","longitude":"35.01667000"},{"name":"Songea","latitude":"-10.68333000","longitude":"35.65000000"},{"name":"Tingi","latitude":"-11.30000000","longitude":"35.03333000"}]