[{"name":"Nerašte","latitude":"42.10711000","longitude":"21.10810000"},{"name":"Orashac","latitude":"42.06250000","longitude":"21.79972000"},{"name":"Pršovce","latitude":"42.08336000","longitude":"21.05994000"},{"name":"Slatino","latitude":"42.06784000","longitude":"21.03902000"},{"name":"Tearce","latitude":"42.07666000","longitude":"21.05310000"}]