[{"name":"Bindura","latitude":"-17.30192000","longitude":"31.33056000"},{"name":"Bindura District","latitude":"-17.21230000","longitude":"31.30300000"},{"name":"Centenary","latitude":"-16.72289000","longitude":"31.11462000"},{"name":"Centenary District","latitude":"-16.41667000","longitude":"31.16667000"},{"name":"Concession","latitude":"-17.38333000","longitude":"30.95000000"},{"name":"Glendale","latitude":"-17.35514000","longitude":"31.06718000"},{"name":"Guruve District","latitude":"-16.37206000","longitude":"30.60607000"},{"name":"Mazowe","latitude":"-17.50404000","longitude":"30.97388000"},{"name":"Mazowe District","latitude":"-17.28080000","longitude":"30.93231000"},{"name":"Mount Darwin","latitude":"-16.77251000","longitude":"31.58381000"},{"name":"Mvurwi","latitude":"-17.03333000","longitude":"30.85000000"},{"name":"Rushinga District","latitude":"-16.60792000","longitude":"32.31434000"},{"name":"Shamva","latitude":"-17.31159000","longitude":"31.57561000"},{"name":"Shamva District","latitude":"-17.12366000","longitude":"31.64146000"}]