[{"name":"Arimís","latitude":"14.78333000","longitude":"-86.00000000"},{"name":"Campamento","latitude":"14.55000000","longitude":"-86.65000000"},{"name":"Catacamas","latitude":"14.60384000","longitude":"-85.54261000"},{"name":"Concordia","latitude":"14.61667000","longitude":"-86.65000000"},{"name":"Dulce Nombre de Culmí","latitude":"15.10000000","longitude":"-85.53333000"},{"name":"El Guayabito","latitude":"14.83333000","longitude":"-86.03333000"},{"name":"El Rosario","latitude":"14.88720000","longitude":"-86.68764000"},{"name":"El Rusio","latitude":"14.46667000","longitude":"-86.36667000"},{"name":"Esquipulas del Norte","latitude":"15.27763000","longitude":"-86.55760000"},{"name":"Gualaco","latitude":"15.02521000","longitude":"-86.07076000"},{"name":"Guarizama","latitude":"14.91667000","longitude":"-86.33333000"},{"name":"Guata","latitude":"15.15133000","longitude":"-86.37624000"},{"name":"Guayape","latitude":"14.71667000","longitude":"-86.83333000"},{"name":"Jano","latitude":"15.07902000","longitude":"-86.51521000"},{"name":"Juticalpa","latitude":"14.66667000","longitude":"-86.21944000"},{"name":"Jutiquile","latitude":"14.71667000","longitude":"-86.08333000"},{"name":"La Concepción","latitude":"14.70000000","longitude":"-86.23333000"},{"name":"La Estancia","latitude":"15.05000000","longitude":"-86.35000000"},{"name":"La Guata","latitude":"15.08333000","longitude":"-86.38333000"},{"name":"La Unión","latitude":"15.09759000","longitude":"-86.68910000"},{"name":"Laguna Seca","latitude":"14.70000000","longitude":"-86.10000000"},{"name":"Mangulile","latitude":"15.06667000","longitude":"-86.80000000"},{"name":"Manto","latitude":"14.91667000","longitude":"-86.38333000"},{"name":"Municipio de San Francisco de La Paz","latitude":"14.84183000","longitude":"-86.11819000"},{"name":"Patuca","latitude":"14.36000000","longitude":"-85.97000000"},{"name":"Punuare","latitude":"14.73333000","longitude":"-85.96667000"},{"name":"Salamá","latitude":"14.81052000","longitude":"-86.61996000"},{"name":"San Esteban","latitude":"15.29467000","longitude":"-85.69487000"},{"name":"San Francisco de Becerra","latitude":"14.63333000","longitude":"-86.10000000"},{"name":"San Francisco de la Paz","latitude":"14.90000000","longitude":"-86.20000000"},{"name":"San José de Río Tinto","latitude":"14.93333000","longitude":"-85.70000000"},{"name":"San Nicolás","latitude":"14.55000000","longitude":"-86.25000000"},{"name":"Santa María del Real","latitude":"14.76667000","longitude":"-85.95000000"},{"name":"Silca","latitude":"14.76205000","longitude":"-86.51521000"},{"name":"Yocón","latitude":"14.95000000","longitude":"-86.82000000"},{"name":"Zopilotepe","latitude":"14.60000000","longitude":"-86.26667000"}]