[{"name":"Abaré","latitude":"-8.80961000","longitude":"-39.27062000"},{"name":"Abaíra","latitude":"-13.32129000","longitude":"-41.69759000"},{"name":"Acajutiba","latitude":"-11.60682000","longitude":"-38.03594000"},{"name":"Adustina","latitude":"-10.48227000","longitude":"-37.98446000"},{"name":"Aiquara","latitude":"-14.11135000","longitude":"-39.87641000"},{"name":"Alagoinhas","latitude":"-12.00580000","longitude":"-38.36146000"},{"name":"Alcobaça","latitude":"-17.46365000","longitude":"-39.37401000"},{"name":"Almadina","latitude":"-14.67608000","longitude":"-39.69066000"},{"name":"Amargosa","latitude":"-13.04970000","longitude":"-39.60720000"},{"name":"Amélia Rodrigues","latitude":"-12.38975000","longitude":"-38.75153000"},{"name":"América Dourada","latitude":"-11.46940000","longitude":"-41.47335000"},{"name":"Anagé","latitude":"-14.66168000","longitude":"-41.14703000"},{"name":"Andaraí","latitude":"-12.84167000","longitude":"-41.27679000"},{"name":"Andorinha","latitude":"-10.22216000","longitude":"-39.86387000"},{"name":"Angical","latitude":"-11.96280000","longitude":"-44.74980000"},{"name":"Anguera","latitude":"-12.18221000","longitude":"-39.21384000"},{"name":"Antas","latitude":"-10.42138000","longitude":"-38.30341000"},{"name":"Antônio Cardoso","latitude":"-12.38641000","longitude":"-39.14549000"},{"name":"Antônio Gonçalves","latitude":"-10.62282000","longitude":"-40.40933000"},{"name":"Aporá","latitude":"-11.75439000","longitude":"-38.22784000"},{"name":"Apuarema","latitude":"-13.83005000","longitude":"-39.73444000"},{"name":"Aracatu","latitude":"-14.39011000","longitude":"-41.36331000"},{"name":"Araci","latitude":"-11.13564000","longitude":"-39.07003000"},{"name":"Aramari","latitude":"-12.04618000","longitude":"-38.55762000"},{"name":"Arataca","latitude":"-15.24607000","longitude":"-39.42481000"},{"name":"Aratuípe","latitude":"-13.09363000","longitude":"-39.08259000"},{"name":"Araçás","latitude":"-12.14681000","longitude":"-38.17233000"},{"name":"Aurelino Leal","latitude":"-14.36310000","longitude":"-39.47961000"},{"name":"Baianópolis","latitude":"-12.48331000","longitude":"-44.53105000"},{"name":"Baixa Grande","latitude":"-11.97735000","longitude":"-40.17993000"},{"name":"Banzaê","latitude":"-10.61578000","longitude":"-38.62688000"},{"name":"Barra","latitude":"-11.08944000","longitude":"-43.14167000"},{"name":"Barra da Estiva","latitude":"-13.62611000","longitude":"-41.32694000"},{"name":"Barra do Choça","latitude":"-15.01024000","longitude":"-40.66731000"},{"name":"Barra do Mendes","latitude":"-12.16094000","longitude":"-42.03542000"},{"name":"Barra do Rocha","latitude":"-14.07510000","longitude":"-39.59068000"},{"name":"Barreiras","latitude":"-12.15278000","longitude":"-44.99000000"},{"name":"Barro Alto","latitude":"-11.76083000","longitude":"-41.91167000"},{"name":"Barro Preto","latitude":"-14.75795000","longitude":"-39.40711000"},{"name":"Barrocas","latitude":"-11.60190000","longitude":"-39.12267000"},{"name":"Beira Rio","latitude":"-12.25438000","longitude":"-42.75529000"},{"name":"Belmonte","latitude":"-15.86126000","longitude":"-38.87982000"},{"name":"Belo Campo","latitude":"-14.87419000","longitude":"-41.22671000"},{"name":"Biritinga","latitude":"-11.67075000","longitude":"-38.78931000"},{"name":"Boa Nova","latitude":"-14.36412000","longitude":"-40.22378000"},{"name":"Boa Vista do Tupim","latitude":"-12.87313000","longitude":"-40.62823000"},{"name":"Bom Jesus da Lapa","latitude":"-13.25500000","longitude":"-43.41806000"},{"name":"Bom Jesus da Serra","latitude":"-14.38380000","longitude":"-40.53982000"},{"name":"Boninal","latitude":"-12.80363000","longitude":"-41.68338000"},{"name":"Bonito","latitude":"-12.00488000","longitude":"-41.31779000"},{"name":"Boquira","latitude":"-12.82306000","longitude":"-42.73056000"},{"name":"Botuporã","latitude":"-13.29549000","longitude":"-42.52593000"},{"name":"Brejolândia","latitude":"-12.41237000","longitude":"-43.92822000"},{"name":"Brejões","latitude":"-13.07059000","longitude":"-39.82099000"},{"name":"Brotas de Macaúbas","latitude":"-12.10605000","longitude":"-42.51108000"},{"name":"Brumado","latitude":"-14.20361000","longitude":"-41.66528000"},{"name":"Buerarema","latitude":"-14.95944000","longitude":"-39.29972000"},{"name":"Buritirama","latitude":"-10.57081000","longitude":"-43.68863000"},{"name":"Caatiba","latitude":"-14.97610000","longitude":"-40.39048000"},{"name":"Cabaceiras do Paraguaçu","latitude":"-12.55423000","longitude":"-39.19596000"},{"name":"Cachoeira","latitude":"-12.60139000","longitude":"-38.96576000"},{"name":"Caculé","latitude":"-14.38829000","longitude":"-42.41516000"},{"name":"Caetanos","latitude":"-14.29234000","longitude":"-41.01004000"},{"name":"Caetité","latitude":"-13.97883000","longitude":"-42.49334000"},{"name":"Cafarnaum","latitude":"-11.69361000","longitude":"-41.46833000"},{"name":"Cairu","latitude":"-13.52662000","longitude":"-38.94814000"},{"name":"Caldeirão Grande","latitude":"-11.04347000","longitude":"-40.29515000"},{"name":"Camacan","latitude":"-15.42769000","longitude":"-39.50818000"},{"name":"Camamu","latitude":"-13.94472000","longitude":"-39.10389000"},{"name":"Camaçari","latitude":"-12.69750000","longitude":"-38.32417000"},{"name":"Campo Alegre de Lourdes","latitude":"-9.50097000","longitude":"-42.98275000"},{"name":"Campo Formoso","latitude":"-10.50750000","longitude":"-40.32139000"},{"name":"Canarana","latitude":"-11.68472000","longitude":"-41.76889000"},{"name":"Canavieiras","latitude":"-15.67500000","longitude":"-38.94722000"},{"name":"Candeal","latitude":"-11.89504000","longitude":"-39.20390000"},{"name":"Candeias","latitude":"-12.65569000","longitude":"-38.48700000"},{"name":"Candiba","latitude":"-14.46972000","longitude":"-42.87386000"},{"name":"Cansanção","latitude":"-10.73105000","longitude":"-39.47418000"},{"name":"Canudos","latitude":"-9.87981000","longitude":"-39.14723000"},{"name":"Canápolis","latitude":"-13.12516000","longitude":"-44.25095000"},{"name":"Capela do Alto Alegre","latitude":"-11.61838000","longitude":"-39.83227000"},{"name":"Capim Grosso","latitude":"-11.38111000","longitude":"-40.01278000"},{"name":"Caravelas","latitude":"-17.65842000","longitude":"-39.35989000"},{"name":"Caraíbas","latitude":"-14.60631000","longitude":"-41.25763000"},{"name":"Cardeal da Silva","latitude":"-11.99798000","longitude":"-37.92468000"},{"name":"Carinhanha","latitude":"-14.30472000","longitude":"-43.76500000"},{"name":"Casa Nova","latitude":"-9.10439000","longitude":"-41.15736000"},{"name":"Castro Alves","latitude":"-12.74937000","longitude":"-39.37691000"},{"name":"Catolândia","latitude":"-12.29613000","longitude":"-44.67528000"},{"name":"Catu","latitude":"-12.35306000","longitude":"-38.37889000"},{"name":"Caturama","latitude":"-13.18601000","longitude":"-42.30250000"},{"name":"Caém","latitude":"-11.14182000","longitude":"-40.29142000"},{"name":"Central","latitude":"-11.15424000","longitude":"-42.08146000"},{"name":"Chorrochó","latitude":"-9.30550000","longitude":"-39.15652000"},{"name":"Cipó","latitude":"-11.09972000","longitude":"-38.51361000"},{"name":"Coaraci","latitude":"-14.64083000","longitude":"-39.55111000"},{"name":"Cocos","latitude":"-14.59438000","longitude":"-45.27960000"},{"name":"Conceição da Feira","latitude":"-12.50583000","longitude":"-38.99861000"},{"name":"Conceição do Almeida","latitude":"-12.77944000","longitude":"-39.17000000"},{"name":"Conceição do Coité","latitude":"-11.56389000","longitude":"-39.28278000"},{"name":"Conceição do Jacuípe","latitude":"-12.31667000","longitude":"-38.76667000"},{"name":"Conde","latitude":"-11.81361000","longitude":"-37.61056000"},{"name":"Condeúba","latitude":"-14.93275000","longitude":"-42.00693000"},{"name":"Contendas do Sincorá","latitude":"-13.79599000","longitude":"-41.05002000"},{"name":"Coração de Maria","latitude":"-12.23333000","longitude":"-38.75000000"},{"name":"Cordeiros","latitude":"-14.99846000","longitude":"-41.89749000"},{"name":"Coribe","latitude":"-13.72337000","longitude":"-44.43538000"},{"name":"Coronel João Sá","latitude":"-10.38878000","longitude":"-37.94281000"},{"name":"Correntina","latitude":"-13.34333000","longitude":"-44.63667000"},{"name":"Cotegipe","latitude":"-11.58844000","longitude":"-44.17000000"},{"name":"Cravolândia","latitude":"-13.47018000","longitude":"-39.75493000"},{"name":"Cristópolis","latitude":"-12.21789000","longitude":"-44.24987000"},{"name":"Crisópolis","latitude":"-11.45532000","longitude":"-38.13933000"},{"name":"Cruz das Almas","latitude":"-12.67000000","longitude":"-39.10194000"},{"name":"Curaçá","latitude":"-8.99028000","longitude":"-39.90944000"},{"name":"Cândido Sales","latitude":"-15.46082000","longitude":"-41.16353000"},{"name":"Cícero Dantas","latitude":"-10.60000000","longitude":"-38.38333000"},{"name":"Dias d'Ávila","latitude":"-12.60625000","longitude":"-38.33717000"},{"name":"Dom Basílio","latitude":"-13.79717000","longitude":"-41.70877000"},{"name":"Dom Macedo Costa","latitude":"-12.93379000","longitude":"-39.14621000"},{"name":"Dário Meira","latitude":"-14.42340000","longitude":"-39.95935000"},{"name":"Elísio Medrado","latitude":"-12.95431000","longitude":"-39.50579000"},{"name":"Encruzilhada","latitude":"-15.56839000","longitude":"-40.90789000"},{"name":"Entre Rios","latitude":"-11.94194000","longitude":"-38.08444000"},{"name":"Esplanada","latitude":"-11.79611000","longitude":"-37.94500000"},{"name":"Euclides da Cunha","latitude":"-10.50750000","longitude":"-39.01583000"},{"name":"Eunápolis","latitude":"-16.37750000","longitude":"-39.58028000"},{"name":"Feira da Mata","latitude":"-14.13203000","longitude":"-44.25281000"},{"name":"Feira de Santana","latitude":"-12.26667000","longitude":"-38.96667000"},{"name":"Filadélfia","latitude":"-10.76635000","longitude":"-40.20555000"},{"name":"Firmino Alves","latitude":"-14.91360000","longitude":"-39.91192000"},{"name":"Floresta Azul","latitude":"-14.84450000","longitude":"-39.75503000"},{"name":"Formosa do Rio Preto","latitude":"-11.04833000","longitude":"-45.19306000"},{"name":"Fátima","latitude":"-10.54600000","longitude":"-38.22367000"},{"name":"Gandu","latitude":"-13.74389000","longitude":"-39.48667000"},{"name":"Gavião","latitude":"-11.48891000","longitude":"-39.77412000"},{"name":"Gentio do Ouro","latitude":"-11.36279000","longitude":"-42.54827000"},{"name":"Glória","latitude":"-9.11097000","longitude":"-38.40655000"},{"name":"Gongogi","latitude":"-14.29995000","longitude":"-39.60138000"},{"name":"Governador Mangabeira","latitude":"-12.57719000","longitude":"-39.03115000"},{"name":"Guajeru","latitude":"-14.57881000","longitude":"-42.03986000"},{"name":"Guanambi","latitude":"-14.22333000","longitude":"-42.78139000"},{"name":"Guaratinga","latitude":"-16.58564000","longitude":"-39.78189000"},{"name":"Heliópolis","latitude":"-10.72863000","longitude":"-38.25490000"},{"name":"Iaçu","latitude":"-12.76722000","longitude":"-40.21167000"},{"name":"Ibiassucê","latitude":"-14.20285000","longitude":"-42.30214000"},{"name":"Ibicaraí","latitude":"-14.86500000","longitude":"-39.58750000"},{"name":"Ibicoara","latitude":"-13.37664000","longitude":"-41.34081000"},{"name":"Ibicuí","latitude":"-14.84167000","longitude":"-39.98667000"},{"name":"Ibipeba","latitude":"-11.64083000","longitude":"-42.01111000"},{"name":"Ibipitanga","latitude":"-12.88655000","longitude":"-42.37115000"},{"name":"Ibiquera","latitude":"-12.57265000","longitude":"-40.84158000"},{"name":"Ibirapitanga","latitude":"-14.16417000","longitude":"-39.37361000"},{"name":"Ibirapuã","latitude":"-17.75567000","longitude":"-39.97365000"},{"name":"Ibirataia","latitude":"-14.06694000","longitude":"-39.64056000"},{"name":"Ibitiara","latitude":"-12.56582000","longitude":"-42.38990000"},{"name":"Ibititá","latitude":"-11.69354000","longitude":"-41.84148000"},{"name":"Ibotirama","latitude":"-12.18528000","longitude":"-43.22056000"},{"name":"Ichu","latitude":"-11.70344000","longitude":"-39.18722000"},{"name":"Igaporã","latitude":"-13.89064000","longitude":"-42.76046000"},{"name":"Igrapiúna","latitude":"-13.85607000","longitude":"-39.19363000"},{"name":"Iguaí","latitude":"-14.75639000","longitude":"-40.08917000"},{"name":"Ilhéus","latitude":"-14.79364000","longitude":"-39.03949000"},{"name":"Inhambupe","latitude":"-11.78444000","longitude":"-38.35306000"},{"name":"Ipecaetá","latitude":"-12.33777000","longitude":"-39.32835000"},{"name":"Ipiaú","latitude":"-14.13449000","longitude":"-39.73948000"},{"name":"Ipirá","latitude":"-12.15833000","longitude":"-39.73722000"},{"name":"Ipupiara","latitude":"-11.76946000","longitude":"-42.43301000"},{"name":"Irajuba","latitude":"-13.17999000","longitude":"-39.99530000"},{"name":"Iramaia","latitude":"-13.54627000","longitude":"-40.82834000"},{"name":"Iraquara","latitude":"-12.28624000","longitude":"-41.59153000"},{"name":"Irará","latitude":"-12.05000000","longitude":"-38.76667000"},{"name":"Irecê","latitude":"-11.30417000","longitude":"-41.85583000"},{"name":"Itabela","latitude":"-16.71635000","longitude":"-39.57325000"},{"name":"Itaberaba","latitude":"-12.52750000","longitude":"-40.30694000"},{"name":"Itabuna","latitude":"-14.78556000","longitude":"-39.28028000"},{"name":"Itacaré","latitude":"-14.27890000","longitude":"-38.99584000"},{"name":"Itaeté","latitude":"-13.08598000","longitude":"-41.02566000"},{"name":"Itagi","latitude":"-14.16278000","longitude":"-40.00611000"},{"name":"Itagibá","latitude":"-14.28361000","longitude":"-39.84278000"},{"name":"Itagimirim","latitude":"-16.13473000","longitude":"-39.81646000"},{"name":"Itaguaçu da Bahia","latitude":"-10.64259000","longitude":"-42.21083000"},{"name":"Itaju do Colônia","latitude":"-15.15505000","longitude":"-39.71598000"},{"name":"Itajuípe","latitude":"-14.67806000","longitude":"-39.37500000"},{"name":"Itamaraju","latitude":"-17.03917000","longitude":"-39.53111000"},{"name":"Itamari","latitude":"-13.78590000","longitude":"-39.68416000"},{"name":"Itambé","latitude":"-15.24500000","longitude":"-40.62444000"},{"name":"Itanagra","latitude":"-12.30982000","longitude":"-38.11328000"},{"name":"Itanhém","latitude":"-17.16639000","longitude":"-40.33000000"},{"name":"Itaparica","latitude":"-12.90598000","longitude":"-38.66383000"},{"name":"Itapebi","latitude":"-15.88751000","longitude":"-39.68792000"},{"name":"Itapetinga","latitude":"-15.24889000","longitude":"-40.24778000"},{"name":"Itapicuru","latitude":"-11.31667000","longitude":"-38.23333000"},{"name":"Itapitanga","latitude":"-14.46369000","longitude":"-39.62565000"},{"name":"Itapé","latitude":"-14.91851000","longitude":"-39.48637000"},{"name":"Itaquara","latitude":"-13.44720000","longitude":"-39.91030000"},{"name":"Itarantim","latitude":"-15.65972000","longitude":"-40.06556000"},{"name":"Itatim","latitude":"-12.62835000","longitude":"-39.68234000"},{"name":"Itiruçu","latitude":"-13.53167000","longitude":"-40.15028000"},{"name":"Itiúba","latitude":"-10.79357000","longitude":"-39.80381000"},{"name":"Itororó","latitude":"-15.11694000","longitude":"-40.07028000"},{"name":"Ituaçu","latitude":"-13.81333000","longitude":"-41.29667000"},{"name":"Ituberá","latitude":"-13.73538000","longitude":"-39.14785000"},{"name":"Iuiu","latitude":"-14.65015000","longitude":"-43.64870000"},{"name":"Jaborandi","latitude":"-14.03850000","longitude":"-45.18408000"},{"name":"Jacaraci","latitude":"-14.83523000","longitude":"-42.40112000"},{"name":"Jacobina","latitude":"-11.18143000","longitude":"-40.51372000"},{"name":"Jaguaquara","latitude":"-13.53056000","longitude":"-39.97083000"},{"name":"Jaguarari","latitude":"-10.26389000","longitude":"-40.19583000"},{"name":"Jaguaripe","latitude":"-13.12834000","longitude":"-39.01339000"},{"name":"Jandaíra","latitude":"-11.61099000","longitude":"-37.61845000"},{"name":"Jequié","latitude":"-13.85875000","longitude":"-40.08512000"},{"name":"Jeremoabo","latitude":"-9.92088000","longitude":"-38.72629000"},{"name":"Jiquiriçá","latitude":"-13.31081000","longitude":"-39.58091000"},{"name":"Jitaúna","latitude":"-14.01274000","longitude":"-39.89833000"},{"name":"João Dourado","latitude":"-11.14883000","longitude":"-41.40438000"},{"name":"Juazeiro","latitude":"-9.39679000","longitude":"-40.23381000"},{"name":"Jucuruçu","latitude":"-16.84832000","longitude":"-40.08414000"},{"name":"Jussara","latitude":"-10.96408000","longitude":"-41.85572000"},{"name":"Jussari","latitude":"-15.15451000","longitude":"-39.51559000"},{"name":"Jussiape","latitude":"-13.48810000","longitude":"-41.62335000"},{"name":"Lafaiete Coutinho","latitude":"-13.62029000","longitude":"-40.20444000"},{"name":"Lagoa Real","latitude":"-14.10985000","longitude":"-42.21697000"},{"name":"Laje","latitude":"-10.18708000","longitude":"-40.97076000"},{"name":"Lajedinho","latitude":"-12.42698000","longitude":"-41.15097000"},{"name":"Lajedo do Tabocal","latitude":"-13.37125000","longitude":"-40.23004000"},{"name":"Lajedão","latitude":"-17.57112000","longitude":"-40.31123000"},{"name":"Lamarão","latitude":"-11.77625000","longitude":"-38.90341000"},{"name":"Lapão","latitude":"-11.38333000","longitude":"-41.83194000"},{"name":"Lauro de Freitas","latitude":"-12.89444000","longitude":"-38.32722000"},{"name":"Lençóis","latitude":"-12.47259000","longitude":"-41.30815000"},{"name":"Licínio de Almeida","latitude":"-14.70644000","longitude":"-42.50442000"},{"name":"Livramento de Nossa Senhora","latitude":"-13.80680000","longitude":"-41.99709000"},{"name":"Livramento do Brumado","latitude":"-13.65145000","longitude":"-41.84564000"},{"name":"Luís Eduardo Magalhães","latitude":"-12.23208000","longitude":"-46.11460000"},{"name":"Macajuba","latitude":"-12.14371000","longitude":"-40.30199000"},{"name":"Macarani","latitude":"-15.55700000","longitude":"-40.39049000"},{"name":"Macaúbas","latitude":"-13.01944000","longitude":"-42.69861000"},{"name":"Macururé","latitude":"-9.28091000","longitude":"-38.91463000"},{"name":"Madre de Deus","latitude":"-12.74083000","longitude":"-38.62083000"},{"name":"Maetinga","latitude":"-14.66530000","longitude":"-41.49055000"},{"name":"Maiquinique","latitude":"-15.69897000","longitude":"-40.26411000"},{"name":"Mairi","latitude":"-11.71139000","longitude":"-40.14889000"},{"name":"Malhada","latitude":"-14.19145000","longitude":"-43.63151000"},{"name":"Malhada de Pedras","latitude":"-14.27766000","longitude":"-41.89207000"},{"name":"Manoel Vitorino","latitude":"-14.00487000","longitude":"-40.48008000"},{"name":"Mansidão","latitude":"-11.20780000","longitude":"-44.14109000"},{"name":"Maracás","latitude":"-13.44111000","longitude":"-40.43083000"},{"name":"Maragogipe","latitude":"-12.77778000","longitude":"-38.91944000"},{"name":"Maraú","latitude":"-14.10395000","longitude":"-39.01490000"},{"name":"Marcionílio Souza","latitude":"-13.11581000","longitude":"-40.62915000"},{"name":"Mascote","latitude":"-15.56306000","longitude":"-39.30250000"},{"name":"Mata de São João","latitude":"-12.53028000","longitude":"-38.29917000"},{"name":"Matina","latitude":"-13.89342000","longitude":"-42.98279000"},{"name":"Medeiros Neto","latitude":"-17.37389000","longitude":"-40.22056000"},{"name":"Miguel Calmon","latitude":"-11.42889000","longitude":"-40.59500000"},{"name":"Milagres","latitude":"-12.95591000","longitude":"-39.81783000"},{"name":"Mirangaba","latitude":"-10.80362000","longitude":"-40.67056000"},{"name":"Mirante","latitude":"-14.18613000","longitude":"-40.78310000"},{"name":"Monte Santo","latitude":"-10.43778000","longitude":"-39.33278000"},{"name":"Morpará","latitude":"-11.75265000","longitude":"-43.09133000"},{"name":"Morro do Chapéu","latitude":"-11.54852000","longitude":"-41.15804000"},{"name":"Mortugaba","latitude":"-14.98480000","longitude":"-42.40555000"},{"name":"Mucugê","latitude":"-13.14869000","longitude":"-41.51742000"},{"name":"Mucuri","latitude":"-18.08639000","longitude":"-39.55083000"},{"name":"Mulungu do Morro","latitude":"-12.00797000","longitude":"-41.42582000"},{"name":"Mundo Novo","latitude":"-11.85889000","longitude":"-40.47250000"},{"name":"Muniz Ferreira","latitude":"-13.00146000","longitude":"-39.10601000"},{"name":"Muquém do São Francisco","latitude":"-12.19886000","longitude":"-43.51311000"},{"name":"Muritiba","latitude":"-12.91667000","longitude":"-39.25000000"},{"name":"Mutuípe","latitude":"-13.22861000","longitude":"-39.50472000"},{"name":"Nazaré","latitude":"-12.95002000","longitude":"-38.97869000"},{"name":"Nilo Peçanha","latitude":"-13.64812000","longitude":"-39.23876000"},{"name":"Nordestina","latitude":"-10.89685000","longitude":"-39.45141000"},{"name":"Nova Canaã","latitude":"-14.84621000","longitude":"-40.17826000"},{"name":"Nova Fátima","latitude":"-11.56608000","longitude":"-39.58609000"},{"name":"Nova Ibiá","latitude":"-13.86230000","longitude":"-39.58877000"},{"name":"Nova Itarana","latitude":"-13.04028000","longitude":"-40.00784000"},{"name":"Nova Redenção","latitude":"-12.87403000","longitude":"-41.12335000"},{"name":"Nova Soure","latitude":"-11.23333000","longitude":"-38.48333000"},{"name":"Nova Viçosa","latitude":"-17.89194000","longitude":"-39.37194000"},{"name":"Novo Horizonte","latitude":"-12.87886000","longitude":"-42.13834000"},{"name":"Novo Triunfo","latitude":"-10.34787000","longitude":"-38.40211000"},{"name":"Olindina","latitude":"-11.36667000","longitude":"-38.33333000"},{"name":"Oliveira dos Brejinhos","latitude":"-12.31694000","longitude":"-42.89611000"},{"name":"Ouriçangas","latitude":"-12.00343000","longitude":"-38.65208000"},{"name":"Ourolândia","latitude":"-10.83804000","longitude":"-41.02839000"},{"name":"Palmas de Monte Alto","latitude":"-14.26722000","longitude":"-43.16194000"},{"name":"Palmeiras","latitude":"-12.51485000","longitude":"-41.57707000"},{"name":"Paramirim","latitude":"-13.44250000","longitude":"-42.23889000"},{"name":"Paratinga","latitude":"-12.69056000","longitude":"-43.18417000"},{"name":"Paripiranga","latitude":"-10.68750000","longitude":"-37.86167000"},{"name":"Pau Brasil","latitude":"-15.46417000","longitude":"-39.65111000"},{"name":"Paulo Afonso","latitude":"-9.55234000","longitude":"-38.16905000"},{"name":"Pedro Alexandre","latitude":"-9.97693000","longitude":"-37.91489000"},{"name":"Pedrão","latitude":"-12.13311000","longitude":"-38.60621000"},{"name":"Piatã","latitude":"-13.12099000","longitude":"-41.89093000"},{"name":"Pilão Arcado","latitude":"-10.00201000","longitude":"-43.39371000"},{"name":"Pindaí","latitude":"-14.52319000","longitude":"-42.67822000"},{"name":"Pindobaçu","latitude":"-10.74167000","longitude":"-40.36083000"},{"name":"Pintadas","latitude":"-11.92312000","longitude":"-39.97782000"},{"name":"Piraí do Norte","latitude":"-13.84971000","longitude":"-39.39208000"},{"name":"Piripá","latitude":"-14.92617000","longitude":"-41.75304000"},{"name":"Piritiba","latitude":"-11.73028000","longitude":"-40.55528000"},{"name":"Planaltino","latitude":"-13.27349000","longitude":"-40.22316000"},{"name":"Planalto","latitude":"-14.72862000","longitude":"-40.38025000"},{"name":"Pojuca","latitude":"-12.36588000","longitude":"-38.24332000"},{"name":"Ponto Novo","latitude":"-10.86278000","longitude":"-40.13361000"},{"name":"Porto Seguro","latitude":"-16.44972000","longitude":"-39.06472000"},{"name":"Posto da Mata","latitude":"-17.88828000","longitude":"-39.85593000"},{"name":"Potiraguá","latitude":"-15.70117000","longitude":"-39.76689000"},{"name":"Poções","latitude":"-14.52972000","longitude":"-40.36528000"},{"name":"Prado","latitude":"-17.31655000","longitude":"-39.23355000"},{"name":"Presidente Dutra","latitude":"-11.29503000","longitude":"-41.98563000"},{"name":"Presidente Jânio Quadros","latitude":"-14.82942000","longitude":"-41.78616000"},{"name":"Presidente Tancredo Neves","latitude":"-13.46145000","longitude":"-39.42126000"},{"name":"Pé de Serra","latitude":"-11.88974000","longitude":"-39.61937000"},{"name":"Queimadas","latitude":"-10.97833000","longitude":"-39.62639000"},{"name":"Quijingue","latitude":"-10.75250000","longitude":"-39.20917000"},{"name":"Quixabeira","latitude":"-11.41345000","longitude":"-40.13302000"},{"name":"Rafael Jambeiro","latitude":"-12.50087000","longitude":"-39.50915000"},{"name":"Remanso","latitude":"-9.54115000","longitude":"-42.36956000"},{"name":"Retirolândia","latitude":"-11.47733000","longitude":"-39.40649000"},{"name":"Riacho de Santana","latitude":"-13.60917000","longitude":"-42.93889000"},{"name":"Riachão das Neves","latitude":"-11.74611000","longitude":"-44.91000000"},{"name":"Riachão do Jacuípe","latitude":"-11.80694000","longitude":"-39.38556000"},{"name":"Ribeira do Amparo","latitude":"-11.00558000","longitude":"-38.38732000"},{"name":"Ribeira do Pombal","latitude":"-10.83444000","longitude":"-38.53583000"},{"name":"Ribeirão do Largo","latitude":"-15.38558000","longitude":"-40.65886000"},{"name":"Rio Real","latitude":"-11.48472000","longitude":"-37.93278000"},{"name":"Rio de Contas","latitude":"-13.62169000","longitude":"-41.68702000"},{"name":"Rio do Antônio","latitude":"-14.22674000","longitude":"-42.16613000"},{"name":"Rio do Pires","latitude":"-13.11134000","longitude":"-42.17747000"},{"name":"Rodelas","latitude":"-9.21767000","longitude":"-38.64607000"},{"name":"Ruy Barbosa","latitude":"-12.28389000","longitude":"-40.49389000"},{"name":"Salinas da Margarida","latitude":"-12.90667000","longitude":"-38.78043000"},{"name":"Salvador","latitude":"-12.97111000","longitude":"-38.51083000"},{"name":"Santa Brígida","latitude":"-9.67904000","longitude":"-38.11371000"},{"name":"Santa Bárbara","latitude":"-11.91770000","longitude":"-38.99206000"},{"name":"Santa Cruz Cabrália","latitude":"-16.27806000","longitude":"-39.02472000"},{"name":"Santa Cruz da Vitória","latitude":"-14.90311000","longitude":"-39.79148000"},{"name":"Santa Inês","latitude":"-13.29222000","longitude":"-39.81889000"},{"name":"Santa Luzia","latitude":"-15.46388000","longitude":"-39.27671000"},{"name":"Santa Maria da Vitória","latitude":"-13.38814000","longitude":"-44.19868000"},{"name":"Santa Rita de Cássia","latitude":"-11.02715000","longitude":"-44.59582000"},{"name":"Santa Terezinha","latitude":"-12.67120000","longitude":"-39.55082000"},{"name":"Santaluz","latitude":"-11.25583000","longitude":"-39.37472000"},{"name":"Santana","latitude":"-14.46667000","longitude":"-41.80000000"},{"name":"Santanópolis","latitude":"-12.02416000","longitude":"-38.88007000"},{"name":"Santo Amaro","latitude":"-12.54667000","longitude":"-38.71194000"},{"name":"Santo Antônio de Jesus","latitude":"-12.96889000","longitude":"-39.26139000"},{"name":"Santo Estêvão","latitude":"-12.43028000","longitude":"-39.25139000"},{"name":"Sapeaçu","latitude":"-12.77200000","longitude":"-39.23848000"},{"name":"Saubara","latitude":"-12.73750000","longitude":"-38.76861000"},{"name":"Saúde","latitude":"-10.84463000","longitude":"-40.37510000"},{"name":"Seabra","latitude":"-12.41713000","longitude":"-41.77049000"},{"name":"Sebastião Laranjeiras","latitude":"-14.56848000","longitude":"-43.13729000"},{"name":"Senhor do Bonfim","latitude":"-10.46139000","longitude":"-40.18944000"},{"name":"Sento Sé","latitude":"-10.21251000","longitude":"-41.57947000"},{"name":"Serra Dourada","latitude":"-12.91499000","longitude":"-43.79600000"},{"name":"Serra Preta","latitude":"-12.06913000","longitude":"-39.30050000"},{"name":"Serra do Ramalho","latitude":"-13.41101000","longitude":"-43.77849000"},{"name":"Serrinha","latitude":"-11.66417000","longitude":"-39.00750000"},{"name":"Serrolândia","latitude":"-11.54018000","longitude":"-40.24783000"},{"name":"Simões Filho","latitude":"-12.78444000","longitude":"-38.40389000"},{"name":"Sobradinho","latitude":"-12.83333000","longitude":"-39.10000000"},{"name":"Souto Soares","latitude":"-11.94603000","longitude":"-41.94815000"},{"name":"Sátiro Dias","latitude":"-11.63166000","longitude":"-38.48886000"},{"name":"São Desidério","latitude":"-12.36333000","longitude":"-44.97333000"},{"name":"São Domingos","latitude":"-11.48464000","longitude":"-39.59916000"},{"name":"São Felipe","latitude":"-14.83860000","longitude":"-41.39174000"},{"name":"São Francisco do Conde","latitude":"-12.64556000","longitude":"-38.63335000"},{"name":"São Félix","latitude":"-12.67807000","longitude":"-38.99979000"},{"name":"São Félix do Coribe","latitude":"-13.41471000","longitude":"-43.98138000"},{"name":"São Gabriel","latitude":"-10.95576000","longitude":"-41.55411000"},{"name":"São Gonçalo dos Campos","latitude":"-12.43333000","longitude":"-38.96667000"},{"name":"São José da Vitória","latitude":"-15.07185000","longitude":"-39.35016000"},{"name":"São José do Jacuípe","latitude":"-11.46833000","longitude":"-39.90377000"},{"name":"São Miguel das Matas","latitude":"-13.04308000","longitude":"-39.43403000"},{"name":"São Sebastião do Passé","latitude":"-12.51250000","longitude":"-38.49528000"},{"name":"Sítio do Mato","latitude":"-13.00385000","longitude":"-43.54537000"},{"name":"Sítio do Quinto","latitude":"-10.34321000","longitude":"-38.07346000"},{"name":"Tabocas do Brejo Velho","latitude":"-12.36943000","longitude":"-44.08362000"},{"name":"Tanhaçu","latitude":"-14.07010000","longitude":"-41.13506000"},{"name":"Tanque Novo","latitude":"-13.58365000","longitude":"-42.54311000"},{"name":"Tanquinho","latitude":"-11.95674000","longitude":"-39.09608000"},{"name":"Taperoá","latitude":"-13.56959000","longitude":"-39.22020000"},{"name":"Tapiramutá","latitude":"-11.84722000","longitude":"-40.79139000"},{"name":"Teixeira de Freitas","latitude":"-17.42402000","longitude":"-39.78697000"},{"name":"Teodoro Sampaio","latitude":"-12.26547000","longitude":"-38.61211000"},{"name":"Teofilândia","latitude":"-11.53412000","longitude":"-38.94519000"},{"name":"Teolândia","latitude":"-13.57031000","longitude":"-39.46492000"},{"name":"Terra Nova","latitude":"-12.38537000","longitude":"-38.61874000"},{"name":"Tremedal","latitude":"-14.90080000","longitude":"-41.32339000"},{"name":"Tucano","latitude":"-10.99427000","longitude":"-38.86249000"},{"name":"Uauá","latitude":"-9.84143000","longitude":"-39.23025000"},{"name":"Ubaitaba","latitude":"-14.31250000","longitude":"-39.32333000"},{"name":"Ubatã","latitude":"-14.05629000","longitude":"-39.52278000"},{"name":"Ubaíra","latitude":"-13.28700000","longitude":"-39.69347000"},{"name":"Uibaí","latitude":"-11.39060000","longitude":"-42.15615000"},{"name":"Umburanas","latitude":"-10.50860000","longitude":"-41.17419000"},{"name":"Una","latitude":"-15.16451000","longitude":"-39.20568000"},{"name":"Urandi","latitude":"-14.73400000","longitude":"-42.66544000"},{"name":"Uruçuca","latitude":"-14.59306000","longitude":"-39.28444000"},{"name":"Utinga","latitude":"-12.04274000","longitude":"-41.19475000"},{"name":"Valente","latitude":"-11.43393000","longitude":"-39.48472000"},{"name":"Valença","latitude":"-13.37213000","longitude":"-39.24002000"},{"name":"Varzedo","latitude":"-12.99662000","longitude":"-39.37091000"},{"name":"Vera Cruz","latitude":"-13.02550000","longitude":"-38.70906000"},{"name":"Vereda","latitude":"-17.14998000","longitude":"-40.04873000"},{"name":"Vitória da Conquista","latitude":"-15.27953000","longitude":"-40.96575000"},{"name":"Várzea Nova","latitude":"-11.05523000","longitude":"-41.23230000"},{"name":"Várzea da Roça","latitude":"-11.53905000","longitude":"-40.07647000"},{"name":"Várzea do Poço","latitude":"-11.53021000","longitude":"-40.30918000"},{"name":"Wagner","latitude":"-12.25930000","longitude":"-41.22095000"},{"name":"Wanderley","latitude":"-11.76500000","longitude":"-43.99378000"},{"name":"Wenceslau Guimarães","latitude":"-13.61819000","longitude":"-39.58092000"},{"name":"Xique Xique","latitude":"-10.82294000","longitude":"-42.72815000"},{"name":"Xique-Xique","latitude":"-10.83393000","longitude":"-42.56320000"},{"name":"Água Fria","latitude":"-11.74762000","longitude":"-38.73497000"},{"name":"Érico Cardoso","latitude":"-13.43695000","longitude":"-42.10325000"}]