[{"name":"Abelardo L. Rodríguez","latitude":"18.73750000","longitude":"-98.98528000"},{"name":"Acamilpa","latitude":"18.71695000","longitude":"-99.15724000"},{"name":"Achichipico","latitude":"18.94861000","longitude":"-98.82611000"},{"name":"Adolfo López Mateos","latitude":"19.80083000","longitude":"-100.00055000"},{"name":"Ahuehuetzingo","latitude":"18.68024000","longitude":"-99.30834000"},{"name":"Alfredo V. Bonfil (Chacampalco)","latitude":"18.65528000","longitude":"-99.15417000"},{"name":"Alpuyeca","latitude":"18.74006000","longitude":"-99.25937000"},{"name":"Amacuitlapilco","latitude":"18.69611000","longitude":"-98.81167000"},{"name":"Amacuzac","latitude":"18.60056000","longitude":"-99.37252000"},{"name":"Amatlán de Quetzalcoatl","latitude":"18.97537000","longitude":"-99.03742000"},{"name":"Amayuca","latitude":"18.72408000","longitude":"-98.79812000"},{"name":"Amilcingo","latitude":"18.74274000","longitude":"-98.77089000"},{"name":"Anenecuilco","latitude":"18.77738000","longitude":"-98.98907000"},{"name":"Arroyo Vista Hermosa","latitude":"19.33082000","longitude":"-99.53694000"},{"name":"Atlacahualoya","latitude":"18.54057000","longitude":"-98.72982000"},{"name":"Atlacholoaya","latitude":"18.74238000","longitude":"-99.22656000"},{"name":"Atlatlahucan","latitude":"18.93554000","longitude":"-98.89496000"},{"name":"Atotonilco","latitude":"18.64947000","longitude":"-98.83117000"},{"name":"Axochiapan","latitude":"18.50246000","longitude":"-98.75358000"},{"name":"Ayala","latitude":"18.72604000","longitude":"-98.95106000"},{"name":"Bonifacio García","latitude":"18.71786000","longitude":"-99.12011000"},{"name":"Buenavista","latitude":"19.80082000","longitude":"-100.04385000"},{"name":"Calera Chica","latitude":"18.85833000","longitude":"-99.18194000"},{"name":"Calle Real","latitude":"19.48858000","longitude":"-99.61332000"},{"name":"Casahuatlán","latitude":"18.57271000","longitude":"-99.39051000"},{"name":"Cerritos de Cárdenas","latitude":"19.96942000","longitude":"-100.02254000"},{"name":"Chalcatzingo","latitude":"18.68951000","longitude":"-98.77434000"},{"name":"Chavarría","latitude":"18.72575000","longitude":"-99.46826000"},{"name":"Chiconcuac","latitude":"18.78278000","longitude":"-99.20722000"},{"name":"Chinameca","latitude":"18.62220000","longitude":"-98.99766000"},{"name":"Ciudad Ayala","latitude":"18.76694000","longitude":"-98.98222000"},{"name":"Cliserio Alanís (San Gaspar)","latitude":"18.86111000","longitude":"-99.16000000"},{"name":"Coahuixtla","latitude":"18.57417000","longitude":"-99.37000000"},{"name":"Coatetelco","latitude":"18.72963000","longitude":"-99.32605000"},{"name":"Coatlán del Río","latitude":"18.74423000","longitude":"-99.43324000"},{"name":"Cocoyoc","latitude":"18.88417000","longitude":"-98.98194000"},{"name":"Cocoyotla","latitude":"18.75445000","longitude":"-99.45075000"},{"name":"Colonia Obrera","latitude":"18.93167000","longitude":"-99.03889000"},{"name":"Colonia Palo Prieto (Chipitongo)","latitude":"18.70417000","longitude":"-99.11278000"},{"name":"Colonia San Francisco","latitude":"18.89611000","longitude":"-98.90361000"},{"name":"Colonia el Florido","latitude":"18.73833000","longitude":"-99.36722000"},{"name":"Colonia las Arboledas","latitude":"18.78528000","longitude":"-98.93972000"},{"name":"Colonia los Cerritos","latitude":"18.95389000","longitude":"-99.19250000"},{"name":"Colonia Ángel Bocanegra (Adolfo López Mateos)","latitude":"18.92639000","longitude":"-99.02972000"},{"name":"Constancio Farfán (La Pascuala)","latitude":"18.74194000","longitude":"-98.95389000"},{"name":"Cuauchichinola","latitude":"18.66389000","longitude":"-99.37583000"},{"name":"Cuauhtempan (San Andrés Cuauhtempan)","latitude":"18.97472000","longitude":"-98.94639000"},{"name":"Cuautla","latitude":"18.81060000","longitude":"-98.93525000"},{"name":"Cuentepec","latitude":"18.86159000","longitude":"-99.32611000"},{"name":"Cuernavaca","latitude":"18.95532000","longitude":"-99.24002000"},{"name":"Dos Ríos","latitude":"19.37467000","longitude":"-99.34359000"},{"name":"El Carmen","latitude":"19.88796000","longitude":"-98.95732000"},{"name":"El Estudiante","latitude":"18.57760000","longitude":"-99.29712000"},{"name":"El Mirador","latitude":"18.77139000","longitude":"-99.34139000"},{"name":"El Rodeo","latitude":"18.77864000","longitude":"-99.32269000"},{"name":"El Salitre","latitude":"18.67583000","longitude":"-98.95806000"},{"name":"Emiliano Zapata","latitude":"18.84065000","longitude":"-99.18463000"},{"name":"Emiliano Zapata (Casahuates)","latitude":"18.93056000","longitude":"-98.95889000"},{"name":"Enthavi","latitude":"19.49842000","longitude":"-99.57502000"},{"name":"Ex-Hacienda el Hospital","latitude":"18.83111000","longitude":"-98.99667000"},{"name":"Felipe Neri (Cuatepec)","latitude":"19.03944000","longitude":"-98.94361000"},{"name":"Fraccionamiento Lomas de Ahuatlán","latitude":"18.95444000","longitude":"-99.25722000"},{"name":"Fraccionamiento Universo","latitude":"18.96167000","longitude":"-99.18639000"},{"name":"Galeana","latitude":"18.63810000","longitude":"-99.21240000"},{"name":"Higuerón","latitude":"18.57750000","longitude":"-99.18056000"},{"name":"Huajintlán","latitude":"18.60923000","longitude":"-99.42432000"},{"name":"Huatecalco","latitude":"18.67676000","longitude":"-99.14354000"},{"name":"Huazulco","latitude":"18.75299000","longitude":"-98.77535000"},{"name":"Huecahuasco","latitude":"18.93694000","longitude":"-98.78250000"},{"name":"Huepalcalco (San Miguel)","latitude":"18.90889000","longitude":"-98.75000000"},{"name":"Hueyapan","latitude":"18.88970000","longitude":"-98.68200000"},{"name":"Huitchila","latitude":"18.63880000","longitude":"-98.92529000"},{"name":"Huitzilac","latitude":"19.02983000","longitude":"-99.26788000"},{"name":"Huitzililla","latitude":"18.69425000","longitude":"-98.89687000"},{"name":"Ignacio Bastida (Santa Catarina Tlayca)","latitude":"18.94028000","longitude":"-99.01444000"},{"name":"Independencia","latitude":"18.87716000","longitude":"-99.12237000"},{"name":"Itzamatitlán","latitude":"18.90942000","longitude":"-99.02236000"},{"name":"Ixtlilco el Chico","latitude":"18.55833000","longitude":"-98.84694000"},{"name":"Jaltepec","latitude":"19.72960000","longitude":"-98.63456000"},{"name":"Jantetelco","latitude":"18.71828000","longitude":"-98.77760000"},{"name":"Jicarero","latitude":"18.61488000","longitude":"-99.22344000"},{"name":"Jiutepec","latitude":"18.88139000","longitude":"-99.17778000"},{"name":"Jojutla","latitude":"18.61472000","longitude":"-99.18028000"},{"name":"Jonacatepec","latitude":"18.68081000","longitude":"-98.80336000"},{"name":"Juan Morales","latitude":"18.81139000","longitude":"-98.92194000"},{"name":"Jumiltepec","latitude":"18.91359000","longitude":"-98.77666000"},{"name":"La Huanica","latitude":"19.45956000","longitude":"-99.50079000"},{"name":"La Joya","latitude":"18.66667000","longitude":"-99.46667000"},{"name":"La Unidad Huitzizilapan","latitude":"19.42223000","longitude":"-99.39771000"},{"name":"Loma Bonita","latitude":"18.93144000","longitude":"-99.17564000"},{"name":"Lomas de Ahuatepec","latitude":"18.97139000","longitude":"-99.18972000"},{"name":"Los Arcos","latitude":"18.88722000","longitude":"-99.02417000"},{"name":"Lázaro Cárdenas (El Empalme)","latitude":"18.93222000","longitude":"-99.02528000"},{"name":"Marcelino Rodríguez (San Ignacio)","latitude":"18.57889000","longitude":"-98.74361000"},{"name":"Mazatepec","latitude":"18.72795000","longitude":"-99.36339000"},{"name":"Metepec","latitude":"18.87889000","longitude":"-98.74667000"},{"name":"Miacatlán","latitude":"18.76203000","longitude":"-99.35944000"},{"name":"Michapa","latitude":"18.70241000","longitude":"-99.47907000"},{"name":"Miguel Bocanegra","latitude":"19.84574000","longitude":"-99.11193000"},{"name":"Mixtlalcingo","latitude":"18.80333000","longitude":"-98.90028000"},{"name":"Moyotepec","latitude":"18.72084000","longitude":"-98.99471000"},{"name":"Narciso Mendoza","latitude":"18.87417000","longitude":"-98.96972000"},{"name":"Nepopualco","latitude":"18.99926000","longitude":"-98.94270000"},{"name":"Ninguno [Centro de Readaptación Social de Atlacholoaya]","latitude":"18.75778000","longitude":"-99.22944000"},{"name":"Oacalco","latitude":"18.92342000","longitude":"-99.02935000"},{"name":"Oaxtepec","latitude":"18.91825000","longitude":"-98.95644000"},{"name":"Ocoxaltepec","latitude":"18.93500000","longitude":"-98.75250000"},{"name":"Ocuituco","latitude":"18.87731000","longitude":"-98.77323000"},{"name":"Olintepec","latitude":"18.74056000","longitude":"-98.98722000"},{"name":"Pedro Amaro","latitude":"18.59639000","longitude":"-99.17306000"},{"name":"Peña Flores (Palo Verde)","latitude":"18.86722000","longitude":"-98.96833000"},{"name":"Progreso","latitude":"18.88008000","longitude":"-99.15260000"},{"name":"Pueblo Nuevo","latitude":"18.70068000","longitude":"-99.15277000"},{"name":"Pueblo Nuevo de Morelos","latitude":"19.76245000","longitude":"-99.05385000"},{"name":"Puente de Ixtla","latitude":"18.61472000","longitude":"-99.31806000"},{"name":"Puxtla","latitude":"18.81000000","longitude":"-98.98250000"},{"name":"Pérez de Galeana","latitude":"19.97933000","longitude":"-99.14164000"},{"name":"Quebrantadero","latitude":"18.52429000","longitude":"-98.79023000"},{"name":"Reyes Acozac","latitude":"19.77550000","longitude":"-98.98079000"},{"name":"Salazar","latitude":"19.30767000","longitude":"-99.38863000"},{"name":"San Andrés Cuexcontitlán","latitude":"19.35892000","longitude":"-99.62151000"},{"name":"San Andrés Ocotlán","latitude":"19.19297000","longitude":"-99.58612000"},{"name":"San Andrés de la Cal","latitude":"18.95694000","longitude":"-99.11444000"},{"name":"San Antonio Chiverías","latitude":"18.65222000","longitude":"-99.22139000"},{"name":"San Antonio del Puente","latitude":"19.41832000","longitude":"-99.61734000"},{"name":"San Bartolomé Tlaltelulco","latitude":"19.22738000","longitude":"-99.62964000"},{"name":"San Diego","latitude":"19.00833000","longitude":"-99.65434000"},{"name":"San Diego Alcalá","latitude":"19.45121000","longitude":"-99.62115000"},{"name":"San Diego Linares","latitude":"19.38628000","longitude":"-99.63748000"},{"name":"San Felipe Teotitlán","latitude":"19.80431000","longitude":"-98.70106000"},{"name":"San Francisco Chimalpa","latitude":"19.44279000","longitude":"-99.34398000"},{"name":"San Francisco Tetetla","latitude":"19.11669000","longitude":"-99.60141000"},{"name":"San Francisco Zacacalco","latitude":"19.92875000","longitude":"-98.98279000"},{"name":"San Gabriel las Palmas","latitude":"18.61417000","longitude":"-99.34694000"},{"name":"San Gaspar Tlahuelilpan","latitude":"19.24290000","longitude":"-99.54568000"},{"name":"San Jerónimo Acazulco","latitude":"19.26563000","longitude":"-99.41629000"},{"name":"San Jerónimo Chicahualco","latitude":"19.28279000","longitude":"-99.59290000"},{"name":"San Jose Solís","latitude":"19.99877000","longitude":"-100.04922000"},{"name":"San José","latitude":"19.00777000","longitude":"-99.66345000"},{"name":"San José Buenavista el Grande","latitude":"19.40833000","longitude":"-99.58141000"},{"name":"San José Comalco","latitude":"19.47097000","longitude":"-99.62627000"},{"name":"San José Vista Hermosa","latitude":"18.65443000","longitude":"-99.26622000"},{"name":"San José el Llanito","latitude":"19.30337000","longitude":"-99.47950000"},{"name":"San Juan Ahuehueyo","latitude":"18.71500000","longitude":"-98.93278000"},{"name":"San Juan Pueblo Nuevo","latitude":"19.77583000","longitude":"-99.01976000"},{"name":"San Juan Texcalpan","latitude":"18.93583000","longitude":"-98.92889000"},{"name":"San Juan Tilapa","latitude":"19.22021000","longitude":"-99.66012000"},{"name":"San Juan Xochiaca","latitude":"19.01349000","longitude":"-99.53938000"},{"name":"San Juan Yautepec","latitude":"19.34887000","longitude":"-99.34045000"},{"name":"San Juan Zitlaltepec","latitude":"19.81207000","longitude":"-99.14526000"},{"name":"San Juan la Isla","latitude":"19.13027000","longitude":"-99.57076000"},{"name":"San Lorenzo Cuauhtenco","latitude":"19.19573000","longitude":"-99.63156000"},{"name":"San Lorenzo Nenamicoyan","latitude":"20.13699000","longitude":"-99.63877000"},{"name":"San Lorenzo Oyamel","latitude":"19.43355000","longitude":"-99.57761000"},{"name":"San Luis Ayucán","latitude":"19.49597000","longitude":"-99.36312000"},{"name":"San Marcos de la Cruz","latitude":"19.18682000","longitude":"-99.65430000"},{"name":"San Mateo Atarasquíllo","latitude":"19.32304000","longitude":"-99.46156000"},{"name":"San Mateo Otzacatipan","latitude":"19.33273000","longitude":"-99.60345000"},{"name":"San Miguel","latitude":"19.86852000","longitude":"-99.13448000"},{"name":"San Miguel Almaya","latitude":"19.21047000","longitude":"-99.44195000"},{"name":"San Miguel Ameyalco","latitude":"19.30681000","longitude":"-99.45880000"},{"name":"San Miguel Atepoxco","latitude":"19.74498000","longitude":"-98.74038000"},{"name":"San Miguel Balderas","latitude":"19.10943000","longitude":"-99.65165000"},{"name":"San Miguel Totoltepec","latitude":"19.32402000","longitude":"-99.57779000"},{"name":"San Miguel de La Victoria","latitude":"20.05611000","longitude":"-99.59109000"},{"name":"San Nicolás Coatepec","latitude":"19.13735000","longitude":"-99.42948000"},{"name":"San Nicolás Peralta","latitude":"19.35954000","longitude":"-99.48555000"},{"name":"San Nicolás Solís","latitude":"19.99107000","longitude":"-100.02610000"},{"name":"San Nicolás Tlazala","latitude":"19.22623000","longitude":"-99.46372000"},{"name":"San Pablo Autopan","latitude":"19.35638000","longitude":"-99.65724000"},{"name":"San Pedro Apatlaco","latitude":"18.79306000","longitude":"-98.95972000"},{"name":"San Pedro Atlapulco","latitude":"19.24402000","longitude":"-99.39505000"},{"name":"San Pedro Chochula","latitude":"19.26359000","longitude":"-99.48590000"},{"name":"San Pedro Huaquilpan","latitude":"19.98840000","longitude":"-98.86777000"},{"name":"San Pedro Techuchulco","latitude":"19.11359000","longitude":"-99.52425000"},{"name":"San Pedro Tlaltizapan","latitude":"19.19973000","longitude":"-99.49956000"},{"name":"San Pedro Totoltepec","latitude":"19.31108000","longitude":"-99.57197000"},{"name":"San Pedro Tultepec","latitude":"19.26514000","longitude":"-99.50934000"},{"name":"San Pedro Xalpa","latitude":"19.82666000","longitude":"-99.18466000"},{"name":"San Pedro Zictepec","latitude":"19.03659000","longitude":"-99.57771000"},{"name":"San Rafael Zaragoza","latitude":"18.64166000","longitude":"-99.00399000"},{"name":"San Sebastián","latitude":"19.78431000","longitude":"-99.05560000"},{"name":"San Vicente de Juárez","latitude":"18.68343000","longitude":"-98.98517000"},{"name":"Santa Ana Jilotzingo","latitude":"19.45617000","longitude":"-99.48836000"},{"name":"Santa Catarina","latitude":"18.96972000","longitude":"-99.14028000"},{"name":"Santa Cruz Ayotuxco","latitude":"19.38273000","longitude":"-99.37192000"},{"name":"Santa Cruz Pueblo Nuevo","latitude":"19.09864000","longitude":"-99.65531000"},{"name":"Santa Martha","latitude":"19.05977000","longitude":"-99.38132000"},{"name":"Santa María Ajoloapan","latitude":"19.76360000","longitude":"-98.95908000"},{"name":"Santa María Atarasquillo","latitude":"19.32831000","longitude":"-99.46899000"},{"name":"Santa María Magdalena Ocotitlán","latitude":"19.23713000","longitude":"-99.62418000"},{"name":"Santa Rosa Treinta","latitude":"18.70025000","longitude":"-99.18357000"},{"name":"Santiago Analco","latitude":"19.33116000","longitude":"-99.45208000"},{"name":"Santiago Oxthoc","latitude":"20.11599000","longitude":"-99.54422000"},{"name":"Santiago Tepatlaxco","latitude":"19.47485000","longitude":"-99.34410000"},{"name":"Santiago Tílapa","latitude":"19.18953000","longitude":"-99.42089000"},{"name":"Santo Domingo Aztacameca","latitude":"19.78223000","longitude":"-98.76811000"},{"name":"Santo Domingo Ocotitlán","latitude":"19.01445000","longitude":"-99.06101000"},{"name":"Tecajec","latitude":"18.79806000","longitude":"-98.81500000"},{"name":"Tehuixtla","latitude":"18.55944000","longitude":"-99.27119000"},{"name":"Telixtac","latitude":"18.56031000","longitude":"-98.77625000"},{"name":"Temimilcingo","latitude":"18.72954000","longitude":"-99.16071000"},{"name":"Temixco","latitude":"18.85254000","longitude":"-99.22537000"},{"name":"Temoac","latitude":"18.77222000","longitude":"-98.77750000"},{"name":"Tenango","latitude":"18.62253000","longitude":"-98.75175000"},{"name":"Tenextepango","latitude":"18.72889000","longitude":"-98.95778000"},{"name":"Tepalcingo","latitude":"18.60151000","longitude":"-98.86942000"},{"name":"Tepetzingo","latitude":"18.78537000","longitude":"-99.17758000"},{"name":"Tepoztlán","latitude":"18.98622000","longitude":"-99.10051000"},{"name":"Tequesquitengo","latitude":"18.61096000","longitude":"-99.26025000"},{"name":"Tetecala","latitude":"18.73009000","longitude":"-99.40021000"},{"name":"Tetecalita","latitude":"18.76823000","longitude":"-99.17749000"},{"name":"Tetecolala","latitude":"18.92250000","longitude":"-99.16278000"},{"name":"Tetela del Volcán","latitude":"18.89306000","longitude":"-98.72972000"},{"name":"Tetelilla","latitude":"18.61349000","longitude":"-98.77356000"},{"name":"Texcala","latitude":"18.93444000","longitude":"-98.79472000"},{"name":"Tezoyuca","latitude":"18.80498000","longitude":"-99.20212000"},{"name":"Tianguistongo","latitude":"20.00612000","longitude":"-99.03845000"},{"name":"Ticumán","latitude":"18.75671000","longitude":"-99.11991000"},{"name":"Tierra Larga (Campo Nuevo)","latitude":"18.86444000","longitude":"-98.94806000"},{"name":"Tilzapotla","latitude":"18.48916000","longitude":"-99.27442000"},{"name":"Tlachaloya","latitude":"19.44846000","longitude":"-99.66225000"},{"name":"Tlacotepec","latitude":"18.81444000","longitude":"-98.74514000"},{"name":"Tlacuitlapa","latitude":"19.12209000","longitude":"-99.41534000"},{"name":"Tlalnepantla","latitude":"19.00885000","longitude":"-98.99613000"},{"name":"Tlaltenanguito","latitude":"19.49822000","longitude":"-99.58309000"},{"name":"Tlaltetelco (San Miguel Tlaltetelco)","latitude":"18.95222000","longitude":"-98.88806000"},{"name":"Tlaltizapán","latitude":"18.68630000","longitude":"-99.11868000"},{"name":"Tlapanaloya","latitude":"19.93619000","longitude":"-99.09664000"},{"name":"Tlaquiltenango","latitude":"18.63429000","longitude":"-99.16320000"},{"name":"Tlatenchi","latitude":"18.59639000","longitude":"-99.18639000"},{"name":"Tlayacapan","latitude":"18.95556000","longitude":"-98.98111000"},{"name":"Totolapan","latitude":"18.98487000","longitude":"-98.92073000"},{"name":"Tres Marías","latitude":"19.05490000","longitude":"-99.24301000"},{"name":"Tres de Mayo","latitude":"18.86861000","longitude":"-99.20833000"},{"name":"Unidad Habitacional 10 de Abril","latitude":"18.75444000","longitude":"-98.91611000"},{"name":"Unidad Habitacional José María Morelos y Pavón","latitude":"18.82028000","longitude":"-99.26222000"},{"name":"Unidad Habitacional Mariano Matamoros","latitude":"18.74750000","longitude":"-98.85222000"},{"name":"Unidad Habitacional Rinconada Acolapa","latitude":"18.89722000","longitude":"-99.13139000"},{"name":"Valle de Vázquez","latitude":"18.52858000","longitude":"-99.06943000"},{"name":"Villa Santiago","latitude":"18.97972000","longitude":"-99.18528000"},{"name":"Xalostoc","latitude":"18.72251000","longitude":"-98.89877000"},{"name":"Xochicalco (Cirenio Longares)","latitude":"18.78722000","longitude":"-99.29944000"},{"name":"Xochitepec","latitude":"18.78080000","longitude":"-99.23049000"},{"name":"Xochitlán","latitude":"18.88865000","longitude":"-98.81209000"},{"name":"Xoxocotla","latitude":"18.68415000","longitude":"-99.24577000"},{"name":"Yautepec","latitude":"18.88188000","longitude":"-99.06715000"},{"name":"Yecapixteca","latitude":"18.88230000","longitude":"-98.90272000"},{"name":"Yecapixtla","latitude":"18.88333000","longitude":"-98.86500000"},{"name":"Zacapalco","latitude":"18.63917000","longitude":"-98.95944000"},{"name":"Zacatepec","latitude":"18.65409000","longitude":"-99.18981000"},{"name":"Zacualpan de Amilpas","latitude":"18.78389000","longitude":"-98.76583000"},{"name":"Zaragoza de Guadalupe","latitude":"19.14830000","longitude":"-99.64405000"}]