[{"name":"Asen","latitude":"42.65000000","longitude":"25.20000000"},{"name":"Chirpan","latitude":"42.20000000","longitude":"25.33333000"},{"name":"Gurkovo","latitude":"42.66667000","longitude":"25.80000000"},{"name":"Gŭlŭbovo","latitude":"42.13333000","longitude":"25.85000000"},{"name":"Kazanlak","latitude":"42.61667000","longitude":"25.40000000"},{"name":"Maglizh","latitude":"42.60000000","longitude":"25.55000000"},{"name":"Nikolaevo","latitude":"42.63333000","longitude":"25.80000000"},{"name":"Obshtina Bratya Daskalovi","latitude":"42.30000000","longitude":"25.21667000"},{"name":"Obshtina Chirpan","latitude":"42.23333000","longitude":"25.38333000"},{"name":"Obshtina Galabovo","latitude":"42.15000000","longitude":"25.96667000"},{"name":"Obshtina Gurkovo","latitude":"42.71667000","longitude":"25.80000000"},{"name":"Obshtina Kazanlŭk","latitude":"42.61943000","longitude":"25.39885000"},{"name":"Obshtina Maglizh","latitude":"42.63333000","longitude":"25.61667000"},{"name":"Obshtina Nikolaevo","latitude":"42.60000000","longitude":"25.78333000"},{"name":"Obshtina Opan","latitude":"42.21667000","longitude":"25.70000000"},{"name":"Obshtina Pavel Banya","latitude":"42.63333000","longitude":"25.13333000"},{"name":"Obshtina Radnevo","latitude":"42.30000000","longitude":"25.93333000"},{"name":"Obshtina Stara Zagora","latitude":"42.41667000","longitude":"25.63333000"},{"name":"Pavel Banya","latitude":"42.60000000","longitude":"25.20000000"},{"name":"Radnevo","latitude":"42.30000000","longitude":"25.93333000"},{"name":"Shipka","latitude":"42.71667000","longitude":"25.33333000"},{"name":"Stara Zagora","latitude":"42.43278000","longitude":"25.64194000"}]