[{"name":"Diawara","latitude":"15.02196000","longitude":"-12.54374000"},{"name":"Kanel","latitude":"15.49160000","longitude":"-13.17627000"},{"name":"Matam","latitude":"15.65587000","longitude":"-13.25544000"},{"name":"Matam Department","latitude":"15.73191000","longitude":"-13.63393000"},{"name":"Ouro Sogui","latitude":"15.60588000","longitude":"-13.32230000"},{"name":"Ranérou","latitude":"15.30000000","longitude":"-13.96667000"},{"name":"Sémé","latitude":"15.19422000","longitude":"-12.94482000"},{"name":"Waoundé","latitude":"15.26367000","longitude":"-12.86821000"}]