[{"name":"Agarak","latitude":"41.01072000","longitude":"44.46845000"},{"name":"Akht’ala","latitude":"41.16838000","longitude":"44.75811000"},{"name":"Alaverdi","latitude":"41.09766000","longitude":"44.67316000"},{"name":"Arevashogh","latitude":"40.86039000","longitude":"44.27438000"},{"name":"Bazum","latitude":"40.86763000","longitude":"44.43978000"},{"name":"Chochkan","latitude":"41.18118000","longitude":"44.83217000"},{"name":"Darpas","latitude":"40.83674000","longitude":"44.42494000"},{"name":"Dsegh","latitude":"40.96170000","longitude":"44.65003000"},{"name":"Fioletovo","latitude":"40.72241000","longitude":"44.71769000"},{"name":"Gogaran","latitude":"40.89255000","longitude":"44.19915000"},{"name":"Gugark’","latitude":"40.80460000","longitude":"44.54025000"},{"name":"Gyulagarak","latitude":"40.96715000","longitude":"44.47144000"},{"name":"Jrashen","latitude":"40.79028000","longitude":"44.18664000"},{"name":"Lerrnants’k’","latitude":"40.79532000","longitude":"44.27435000"},{"name":"Lerrnapat","latitude":"40.81538000","longitude":"44.39344000"},{"name":"Lerrnavan","latitude":"40.78820000","longitude":"44.16024000"},{"name":"Lorut","latitude":"40.93717000","longitude":"44.77142000"},{"name":"Margahovit","latitude":"40.73381000","longitude":"44.68474000"},{"name":"Mets Parni","latitude":"40.83472000","longitude":"44.11108000"},{"name":"Metsavan","latitude":"41.20156000","longitude":"44.22877000"},{"name":"Norashen","latitude":"41.18886000","longitude":"44.33336000"},{"name":"Odzun","latitude":"41.05321000","longitude":"44.61341000"},{"name":"Sarahart’","latitude":"40.87043000","longitude":"44.21407000"},{"name":"Saramej","latitude":"40.77487000","longitude":"44.22220000"},{"name":"Shahumyan","latitude":"40.77482000","longitude":"44.54596000"},{"name":"Shirakamut","latitude":"40.86056000","longitude":"44.15278000"},{"name":"Shnogh","latitude":"41.14693000","longitude":"44.84043000"},{"name":"Spitak","latitude":"40.83221000","longitude":"44.26731000"},{"name":"Step’anavan","latitude":"41.00995000","longitude":"44.38531000"},{"name":"Tashir","latitude":"41.12072000","longitude":"44.28462000"},{"name":"Tsaghkaber","latitude":"40.79849000","longitude":"44.10144000"},{"name":"Urrut","latitude":"41.06778000","longitude":"44.39628000"},{"name":"Vahagni","latitude":"40.90698000","longitude":"44.60873000"},{"name":"Vanadzor","latitude":"40.80456000","longitude":"44.49390000"},{"name":"Vardablur","latitude":"40.97083000","longitude":"44.50889000"},{"name":"Yeghegnut","latitude":"40.90302000","longitude":"44.63155000"}]