[{"name":"Bhojpur","latitude":"27.93565000","longitude":"81.77555000"},{"name":"Birendranagar","latitude":"28.60194000","longitude":"81.63389000"},{"name":"Dailekh","latitude":"28.84434000","longitude":"81.71011000"},{"name":"Gulariyā","latitude":"28.20580000","longitude":"81.34532000"},{"name":"Jumla","latitude":"29.27472000","longitude":"82.18383000"},{"name":"Nepalgunj","latitude":"28.05000000","longitude":"81.61667000"},{"name":"Tulsīpur","latitude":"28.13099000","longitude":"82.29726000"}]