[{"name":"25 de Agosto","latitude":"-34.41167000","longitude":"-56.40222000"},{"name":"25 de Mayo","latitude":"-34.18917000","longitude":"-56.33944000"},{"name":"Alejandro Gallinal","latitude":"-33.86252000","longitude":"-55.54264000"},{"name":"Cardal","latitude":"-34.29056000","longitude":"-56.38889000"},{"name":"Casupá","latitude":"-34.09994000","longitude":"-55.64811000"},{"name":"Florida","latitude":"-34.09556000","longitude":"-56.21417000"},{"name":"Sarandí Grande","latitude":"-33.73333000","longitude":"-56.33333000"}]