[{"name":"Chimbarongo","latitude":"-34.71247000","longitude":"-71.04340000"},{"name":"Graneros","latitude":"-34.06863000","longitude":"-70.72747000"},{"name":"Machalí","latitude":"-34.18082000","longitude":"-70.64933000"},{"name":"Rancagua","latitude":"-34.17083000","longitude":"-70.74444000"},{"name":"Rengo","latitude":"-34.40639000","longitude":"-70.85834000"},{"name":"San Vicente","latitude":"-34.43859000","longitude":"-71.07751000"},{"name":"Santa Cruz","latitude":"-34.63881000","longitude":"-71.36576000"},{"name":"Chépica","latitude":"-34.73333333","longitude":"-71.28333333"},{"name":"Codegua","latitude":"-34.03333333","longitude":"-70.66666667"},{"name":"Coltauco","latitude":"-34.30000000","longitude":"-71.10000000"},{"name":"Coínco","latitude":"-34.26666667","longitude":"-70.96666667"},{"name":"Doñihue","latitude":"-34.23333333","longitude":"-70.96666667"},{"name":"La Estrella","latitude":"-34.20000000","longitude":"-71.66666667"},{"name":"Las Cabras","latitude":"-34.30000000","longitude":"-71.31666667"},{"name":"Litueche","latitude":"-34.11666667","longitude":"-71.73333333"},{"name":"Lolol","latitude":"-34.72861111","longitude":"-71.64472222"},{"name":"Malloa","latitude":"-34.45000000","longitude":"-70.95000000"},{"name":"Marchigüe","latitude":"-34.40000000","longitude":"-71.63333333"},{"name":"Mostazal","latitude":"-33.98333333","longitude":"-70.70000000"},{"name":"Nancagua","latitude":"-34.66666667","longitude":"-71.21666667"},{"name":"Navidad","latitude":"-33.93333333","longitude":"-71.83333333"},{"name":"Olivar","latitude":"-34.21164000","longitude":"-70.82012000"},{"name":"Palmilla","latitude":"-34.60000000","longitude":"-71.36666667"},{"name":"Paredones","latitude":"-34.78333333","longitude":"-71.16666667"},{"name":"Peralillo","latitude":"-34.48333333","longitude":"-71.48333333"},{"name":"Peumo","latitude":"-34.40000000","longitude":"-71.16666667"},{"name":"Pichidegua","latitude":"-34.35000000","longitude":"-71.30000000"},{"name":"Pichilemu","latitude":"-34.38333000","longitude":"-72.00000000"},{"name":"Placilla","latitude":"-34.63333333","longitude":"-71.11666667"},{"name":"Pumanque","latitude":"-34.60000000","longitude":"-71.66666667"},{"name":"Quinta de Tilcoco","latitude":"-34.35550000","longitude":"-70.96527000"},{"name":"Requínoa","latitude":"-34.28333333","longitude":"-70.83333333"},{"name":"San Fernando","latitude":"-34.74330000","longitude":"-70.60328000"}]