[{"name":"Cagua","latitude":"10.18634000","longitude":"-67.45935000"},{"name":"El Limón","latitude":"10.30589000","longitude":"-67.63212000"},{"name":"La Victoria","latitude":"10.22677000","longitude":"-67.33122000"},{"name":"Las Tejerías","latitude":"10.25416000","longitude":"-67.17333000"},{"name":"Maracay","latitude":"10.23535000","longitude":"-67.59113000"},{"name":"Palo Negro","latitude":"10.17389000","longitude":"-67.54194000"},{"name":"San Mateo","latitude":"10.21302000","longitude":"-67.42365000"},{"name":"Santa Rita","latitude":"10.20540000","longitude":"-67.55948000"},{"name":"Turmero","latitude":"10.22856000","longitude":"-67.47421000"},{"name":"Villa de Cura","latitude":"10.03863000","longitude":"-67.48938000"}]