[{"name":"Abtenau","latitude":"47.56373000","longitude":"13.34599000"},{"name":"Adnet","latitude":"47.69746000","longitude":"13.13115000"},{"name":"Altenmarkt im Pongau","latitude":"47.38333000","longitude":"13.41667000"},{"name":"Anger","latitude":"47.15593000","longitude":"13.10592000"},{"name":"Anif","latitude":"47.75000000","longitude":"13.06667000"},{"name":"Anthering","latitude":"47.88333000","longitude":"13.01667000"},{"name":"Au","latitude":"47.70000000","longitude":"13.06667000"},{"name":"Bad Gastein","latitude":"47.11547000","longitude":"13.13467000"},{"name":"Bad Hofgastein","latitude":"47.17274000","longitude":"13.09871000"},{"name":"Bergheim","latitude":"47.83333000","longitude":"13.03333000"},{"name":"Berndorf bei Salzburg","latitude":"47.99532000","longitude":"13.06146000"},{"name":"Bischofshofen","latitude":"47.41667000","longitude":"13.21667000"},{"name":"Bramberg am Wildkogel","latitude":"47.26979000","longitude":"12.33850000"},{"name":"Bruck an der Großglocknerstraße","latitude":"47.28494000","longitude":"12.82310000"},{"name":"Burgfried","latitude":"47.68004000","longitude":"13.11175000"},{"name":"Bürmoos","latitude":"47.98343000","longitude":"12.91786000"},{"name":"Dienten am Hochkönig","latitude":"47.38324000","longitude":"13.00369000"},{"name":"Dorfbeuern","latitude":"48.01667000","longitude":"13.01667000"},{"name":"Dorfgastein","latitude":"47.24172000","longitude":"13.10223000"},{"name":"Eben im Pongau","latitude":"47.40000000","longitude":"13.40000000"},{"name":"Ebenau","latitude":"47.79073000","longitude":"13.17527000"},{"name":"Eching","latitude":"47.97263000","longitude":"12.88786000"},{"name":"Elixhausen","latitude":"47.86667000","longitude":"13.06667000"},{"name":"Elsbethen","latitude":"47.76464000","longitude":"13.08104000"},{"name":"Esch","latitude":"47.84030000","longitude":"13.09223000"},{"name":"Eugendorf","latitude":"47.86765000","longitude":"13.12609000"},{"name":"Faistenau","latitude":"47.77767000","longitude":"13.23393000"},{"name":"Filzmoos","latitude":"47.43333000","longitude":"13.51667000"},{"name":"Flachau","latitude":"47.34406000","longitude":"13.39148000"},{"name":"Forstau","latitude":"47.37842000","longitude":"13.55558000"},{"name":"Fuschl am See","latitude":"47.80000000","longitude":"13.30000000"},{"name":"Georgenberg","latitude":"47.63333000","longitude":"13.15000000"},{"name":"Glanegg","latitude":"47.75000000","longitude":"13.00000000"},{"name":"Glasenbach","latitude":"47.76667000","longitude":"13.08333000"},{"name":"Golling an der Salzach","latitude":"47.60000000","longitude":"13.16667000"},{"name":"Grossarl","latitude":"47.23333000","longitude":"13.20000000"},{"name":"Grossgmain","latitude":"47.72416000","longitude":"12.90851000"},{"name":"Grödig","latitude":"47.73833000","longitude":"13.03730000"},{"name":"Habach","latitude":"47.81753000","longitude":"13.16252000"},{"name":"Hallein","latitude":"47.68333000","longitude":"13.10000000"},{"name":"Hallwang","latitude":"47.85000000","longitude":"13.08333000"},{"name":"Henndorf am Wallersee","latitude":"47.90000000","longitude":"13.18333000"},{"name":"Himmelreich","latitude":"47.80000000","longitude":"12.98333000"},{"name":"Hinterglemm","latitude":"47.37685000","longitude":"12.59583000"},{"name":"Hintersee","latitude":"47.70000000","longitude":"13.28333000"},{"name":"Hof","latitude":"47.35000000","longitude":"13.31667000"},{"name":"Hof bei Salzburg","latitude":"47.81929000","longitude":"13.21488000"},{"name":"Hollersbach im Pinzgau","latitude":"47.27658000","longitude":"12.42326000"},{"name":"Hüttau","latitude":"47.41610000","longitude":"13.30775000"},{"name":"Hüttschlag","latitude":"47.17635000","longitude":"13.23239000"},{"name":"Irrsdorf","latitude":"47.96667000","longitude":"13.28333000"},{"name":"Kaprun","latitude":"47.27239000","longitude":"12.75985000"},{"name":"Kleinarl","latitude":"47.27725000","longitude":"13.31955000"},{"name":"Koppl","latitude":"47.80808000","longitude":"13.15561000"},{"name":"Krimml","latitude":"47.21799000","longitude":"12.17487000"},{"name":"Krispl","latitude":"47.71667000","longitude":"13.18333000"},{"name":"Kuchl","latitude":"47.62647000","longitude":"13.14480000"},{"name":"Köstendorf","latitude":"47.95000000","longitude":"13.20000000"},{"name":"Lamprechtshausen","latitude":"47.99098000","longitude":"12.95481000"},{"name":"Lehen","latitude":"47.87083000","longitude":"13.01722000"},{"name":"Lend","latitude":"47.29856000","longitude":"13.05176000"},{"name":"Lengfelden","latitude":"47.85000000","longitude":"13.05000000"},{"name":"Leogang","latitude":"47.43906000","longitude":"12.76109000"},{"name":"Lofer","latitude":"47.58475000","longitude":"12.69333000"},{"name":"Maishofen","latitude":"47.36667000","longitude":"12.80000000"},{"name":"Maria Alm am Steinernen Meer","latitude":"47.40579000","longitude":"12.90121000"},{"name":"Mariapfarr","latitude":"47.15000000","longitude":"13.75000000"},{"name":"Mattsee","latitude":"47.96667000","longitude":"13.10000000"},{"name":"Mauterndorf","latitude":"47.13451000","longitude":"13.67884000"},{"name":"Mitterberghütten","latitude":"47.40000000","longitude":"13.21667000"},{"name":"Mitterhofen","latitude":"47.38333000","longitude":"12.80000000"},{"name":"Mittersill","latitude":"47.28333000","longitude":"12.48333000"},{"name":"Mühlbach am Hochkönig","latitude":"47.37746000","longitude":"13.12926000"},{"name":"Neualm","latitude":"47.69336000","longitude":"13.08758000"},{"name":"Neukirchen am Großvenediger","latitude":"47.25046000","longitude":"12.27585000"},{"name":"Neumarkt am Wallersee","latitude":"47.95000000","longitude":"13.23333000"},{"name":"Niederalm","latitude":"47.72872000","longitude":"13.06223000"},{"name":"Niedernsill","latitude":"47.28333000","longitude":"12.65000000"},{"name":"Nußdorf am Haunsberg","latitude":"47.95944000","longitude":"13.00917000"},{"name":"Oberalm","latitude":"47.70000000","longitude":"13.10000000"},{"name":"Obergäu","latitude":"47.58955000","longitude":"13.17621000"},{"name":"Oberndorf bei Salzburg","latitude":"47.95000000","longitude":"12.93333000"},{"name":"Obertrum am See","latitude":"47.93722000","longitude":"13.07722000"},{"name":"Pfarrwerfen","latitude":"47.45729000","longitude":"13.20531000"},{"name":"Pichl","latitude":"47.28333000","longitude":"12.85000000"},{"name":"Piesendorf","latitude":"47.29077000","longitude":"12.71839000"},{"name":"Plainfeld","latitude":"47.83333000","longitude":"13.18333000"},{"name":"Plankenau","latitude":"47.32673000","longitude":"13.19282000"},{"name":"Politischer Bezirk Hallein","latitude":"47.60000000","longitude":"13.30000000"},{"name":"Politischer Bezirk Salzburg-Umgebung","latitude":"47.84019000","longitude":"13.18799000"},{"name":"Politischer Bezirk Sankt Johann im Pongau","latitude":"47.30000000","longitude":"13.30000000"},{"name":"Politischer Bezirk Tamsweg","latitude":"47.15000000","longitude":"13.70000000"},{"name":"Puch bei Hallein","latitude":"47.71536000","longitude":"13.09296000"},{"name":"Radstadt","latitude":"47.38333000","longitude":"13.45000000"},{"name":"Ramingstein","latitude":"47.07462000","longitude":"13.83642000"},{"name":"Rauris","latitude":"47.22656000","longitude":"12.99459000"},{"name":"Reinbach","latitude":"47.34673000","longitude":"13.19072000"},{"name":"Reitberg","latitude":"47.85269000","longitude":"13.15730000"},{"name":"Saalbach","latitude":"47.39138000","longitude":"12.63642000"},{"name":"Saalfelden am Steinernen Meer","latitude":"47.42681000","longitude":"12.84800000"},{"name":"Salzburg","latitude":"47.79941000","longitude":"13.04399000"},{"name":"Salzburg Stadt","latitude":"47.80067000","longitude":"13.04532000"},{"name":"Sankt Andrä im Lungau","latitude":"47.15000000","longitude":"13.78333000"},{"name":"Sankt Gilgen","latitude":"47.76667000","longitude":"13.36667000"},{"name":"Sankt Johann im Pongau","latitude":"47.35000000","longitude":"13.20000000"},{"name":"Sankt Leonhard","latitude":"47.72587000","longitude":"13.04577000"},{"name":"Sankt Margarethen im Lungau","latitude":"47.07927000","longitude":"13.69613000"},{"name":"Sankt Martin bei Lofer","latitude":"47.56667000","longitude":"12.70000000"},{"name":"Sankt Michael im Lungau","latitude":"47.10000000","longitude":"13.63333000"},{"name":"Sankt Veit im Pongau","latitude":"47.33333000","longitude":"13.15000000"},{"name":"Scheffau am Tennengebirge","latitude":"47.58831000","longitude":"13.22020000"},{"name":"Schleedorf","latitude":"47.95000000","longitude":"13.15000000"},{"name":"Schwarzach im Pongau","latitude":"47.32048000","longitude":"13.15171000"},{"name":"Seeham","latitude":"47.96746000","longitude":"13.07699000"},{"name":"Seekirchen am Wallersee","latitude":"47.90000000","longitude":"13.13333000"},{"name":"Seewalchen","latitude":"47.90000000","longitude":"13.13333000"},{"name":"Siezenheim","latitude":"47.81529000","longitude":"12.99039000"},{"name":"St. Martin of Tennengebirge","latitude":"47.46500000","longitude":"13.37761000"},{"name":"Strasswalchen","latitude":"47.97947000","longitude":"13.25535000"},{"name":"Strobl","latitude":"47.71667000","longitude":"13.48333000"},{"name":"Stuhlfelden","latitude":"47.28761000","longitude":"12.52755000"},{"name":"Tamsweg","latitude":"47.12808000","longitude":"13.81102000"},{"name":"Taugl","latitude":"47.64747000","longitude":"13.20282000"},{"name":"Taxach","latitude":"47.72610000","longitude":"13.07184000"},{"name":"Taxenbach","latitude":"47.29116000","longitude":"12.96215000"},{"name":"Thalgau","latitude":"47.84142000","longitude":"13.25325000"},{"name":"Thomatal","latitude":"47.06667000","longitude":"13.75000000"},{"name":"Thumersbach","latitude":"47.32952000","longitude":"12.81675000"},{"name":"Tweng","latitude":"47.18333000","longitude":"13.60000000"},{"name":"Unken","latitude":"47.64966000","longitude":"12.72946000"},{"name":"Unternberg","latitude":"47.11269000","longitude":"13.74261000"},{"name":"Untertauern","latitude":"47.30000000","longitude":"13.50000000"},{"name":"Uttendorf","latitude":"47.28333000","longitude":"12.56667000"},{"name":"Viehhausen","latitude":"47.78333000","longitude":"12.98333000"},{"name":"Viehhofen","latitude":"47.36667000","longitude":"12.73333000"},{"name":"Vigaun","latitude":"47.66667000","longitude":"13.13333000"},{"name":"Wagnergraben","latitude":"48.02036000","longitude":"13.02395000"},{"name":"Wagrain","latitude":"47.33528000","longitude":"13.29889000"},{"name":"Walchen","latitude":"47.28822000","longitude":"12.68739000"},{"name":"Wald im Pinzgau","latitude":"47.25000000","longitude":"12.23333000"},{"name":"Waldprechting","latitude":"47.90000000","longitude":"13.11667000"},{"name":"Wals","latitude":"47.78333000","longitude":"12.96667000"},{"name":"Walserfeld","latitude":"47.79222000","longitude":"12.98000000"},{"name":"Werfen","latitude":"47.47585000","longitude":"13.19020000"},{"name":"Werfenweng","latitude":"47.46204000","longitude":"13.25582000"},{"name":"Zederhaus","latitude":"47.15570000","longitude":"13.50576000"},{"name":"Zell am See","latitude":"47.32556000","longitude":"12.79444000"}]