[{"name":"Anjiang","latitude":"27.31944000","longitude":"110.10306000"},{"name":"Anping","latitude":"27.86639000","longitude":"110.11611000"},{"name":"Anxiang","latitude":"29.40000000","longitude":"112.15000000"},{"name":"Baisha","latitude":"26.52222000","longitude":"110.93111000"},{"name":"Biyong","latitude":"27.18722000","longitude":"109.51000000"},{"name":"Bojia","latitude":"26.46722000","longitude":"111.96806000"},{"name":"Boyang","latitude":"26.21167000","longitude":"109.52056000"},{"name":"Bozhou","latitude":"27.37889000","longitude":"109.27778000"},{"name":"Changde","latitude":"29.04638000","longitude":"111.67830000"},{"name":"Changsha","latitude":"28.19874000","longitude":"112.97087000"},{"name":"Changsha Shi","latitude":"28.14582000","longitude":"113.22967000"},{"name":"Chatian","latitude":"27.80222000","longitude":"109.37361000"},{"name":"Chenzhou","latitude":"25.80000000","longitude":"113.03333000"},{"name":"Dabaozi","latitude":"26.69556000","longitude":"109.44778000"},{"name":"Dehang","latitude":"28.30710000","longitude":"109.79668000"},{"name":"Dengjiapu","latitude":"26.90444000","longitude":"110.92000000"},{"name":"Dengyuantai","latitude":"26.68806000","longitude":"110.54222000"},{"name":"Dongshan Dongzuxiang","latitude":"26.59500000","longitude":"109.89667000"},{"name":"Fenghuang","latitude":"27.93557000","longitude":"109.59961000"},{"name":"Gangdong","latitude":"27.91694000","longitude":"110.83417000"},{"name":"Gaoqiao","latitude":"26.63361000","longitude":"110.90000000"},{"name":"Gaoyi","latitude":"26.95944000","longitude":"110.01556000"},{"name":"Guankou","latitude":"28.15861000","longitude":"113.62709000"},{"name":"Hengbanqiao","latitude":"27.17167000","longitude":"110.86528000"},{"name":"Hengyang","latitude":"26.88946000","longitude":"112.61888000"},{"name":"Hexiangqiao","latitude":"27.22028000","longitude":"110.96333000"},{"name":"Hongjiang","latitude":"27.11000000","longitude":"109.99556000"},{"name":"Hongqiao","latitude":"26.76837000","longitude":"112.10814000"},{"name":"Huaihua","latitude":"27.56337000","longitude":"110.00404000"},{"name":"Huangjinjing","latitude":"27.58563000","longitude":"110.89133000"},{"name":"Huanglong","latitude":"26.54139000","longitude":"110.93444000"},{"name":"Huangmaoyuan","latitude":"27.40417000","longitude":"110.47472000"},{"name":"Huangqiao","latitude":"27.02194000","longitude":"110.84056000"},{"name":"Huangtukuang","latitude":"26.91528000","longitude":"110.40778000"},{"name":"Huangxikou","latitude":"27.71889000","longitude":"110.38500000"},{"name":"Huaqiao","latitude":"27.70806000","longitude":"110.14194000"},{"name":"Huayuan","latitude":"26.91361000","longitude":"110.53583000"},{"name":"Huomachong","latitude":"27.88333000","longitude":"110.23000000"},{"name":"Jiangfang","latitude":"26.50158000","longitude":"110.34640000"},{"name":"Jiangkouxu","latitude":"27.69417000","longitude":"109.73583000"},{"name":"Jiangshi","latitude":"27.12333000","longitude":"109.73778000"},{"name":"Jinhe","latitude":"27.71694000","longitude":"109.60472000"},{"name":"Jinshi","latitude":"29.60487000","longitude":"111.87012000"},{"name":"Jinshiqiao","latitude":"27.58425000","longitude":"110.93634000"},{"name":"Lanli","latitude":"27.88694000","longitude":"109.91861000"},{"name":"Leiyang","latitude":"26.40238000","longitude":"112.85908000"},{"name":"Lengshuijiang","latitude":"27.68806000","longitude":"111.42944000"},{"name":"Lengshuitan","latitude":"26.41110000","longitude":"111.59559000"},{"name":"Liangyaping","latitude":"27.71833000","longitude":"110.67083000"},{"name":"Lianyuan","latitude":"27.68833000","longitude":"111.66417000"},{"name":"Linkou","latitude":"26.24806000","longitude":"109.86361000"},{"name":"Liuduzhai","latitude":"27.36611000","longitude":"110.93500000"},{"name":"Lixiqiao","latitude":"26.79472000","longitude":"110.41806000"},{"name":"Longtan","latitude":"27.41139000","longitude":"110.53639000"},{"name":"Longtou’an","latitude":"27.67028000","longitude":"110.33611000"},{"name":"Loudi","latitude":"27.73444000","longitude":"111.99444000"},{"name":"Luojiu","latitude":"27.51583000","longitude":"109.80889000"},{"name":"Luyang","latitude":"27.62389000","longitude":"110.09889000"},{"name":"Malin","latitude":"26.45500000","longitude":"110.64167000"},{"name":"Maoping","latitude":"26.51972000","longitude":"110.41194000"},{"name":"Ma’an","latitude":"26.97750000","longitude":"110.72111000"},{"name":"Nanmuping","latitude":"27.31111000","longitude":"109.67861000"},{"name":"Nanzhou","latitude":"29.35955000","longitude":"112.40243000"},{"name":"Prefecture of Chenzhou","latitude":"25.84347000","longitude":"113.05378000"},{"name":"Pukou","latitude":"26.52222000","longitude":"109.55583000"},{"name":"Puzi","latitude":"26.98639000","longitude":"109.77639000"},{"name":"Qiancheng","latitude":"27.18501000","longitude":"109.76543000"},{"name":"Qianzhou","latitude":"28.31925000","longitude":"109.73346000"},{"name":"Qiaojiang","latitude":"27.93722000","longitude":"110.67639000"},{"name":"Qingjiangqiao","latitude":"26.60444000","longitude":"110.98528000"},{"name":"Qingxi","latitude":"26.43114000","longitude":"110.35489000"},{"name":"Qionghu","latitude":"28.84061000","longitude":"112.37399000"},{"name":"Ruoshui","latitude":"27.00194000","longitude":"109.96667000"},{"name":"Shangmei","latitude":"27.74278000","longitude":"111.29556000"},{"name":"Shanmen","latitude":"27.22500000","longitude":"110.69278000"},{"name":"Shijiang","latitude":"27.08194000","longitude":"110.79333000"},{"name":"Shuangjiang","latitude":"26.15467000","longitude":"109.71380000"},{"name":"Shuangxi","latitude":"27.22833000","longitude":"109.85583000"},{"name":"Shuiche","latitude":"27.68694000","longitude":"110.99972000"},{"name":"Shuidatian","latitude":"27.85222000","longitude":"109.60472000"},{"name":"Simenqian","latitude":"27.48722000","longitude":"110.88611000"},{"name":"Tangjiafang","latitude":"26.84000000","longitude":"110.36472000"},{"name":"Tanwan","latitude":"27.96639000","longitude":"110.15028000"},{"name":"Tongwan","latitude":"27.58111000","longitude":"110.27722000"},{"name":"Tuokou","latitude":"27.12472000","longitude":"109.62472000"},{"name":"Wantouqiao","latitude":"26.84111000","longitude":"110.61944000"},{"name":"Wenxing","latitude":"28.68208000","longitude":"112.87864000"},{"name":"Wulingyuan","latitude":"29.34936000","longitude":"110.54407000"},{"name":"Wuxi","latitude":"26.58440000","longitude":"111.85900000"},{"name":"Wuyang","latitude":"26.74278000","longitude":"110.32833000"},{"name":"Xiangtan","latitude":"27.85000000","longitude":"112.90000000"},{"name":"Xiangxi Tujiazu Miaozu Zizhizhou","latitude":"28.70573000","longitude":"109.73329000"},{"name":"Xiangxiang","latitude":"27.73333000","longitude":"112.53333000"},{"name":"Xianrenwan","latitude":"27.75444000","longitude":"110.32972000"},{"name":"Xianxi","latitude":"26.33472000","longitude":"109.64306000"},{"name":"Xiaohenglong","latitude":"27.60500000","longitude":"110.51694000"},{"name":"Xiaolongmen","latitude":"27.80194000","longitude":"110.16056000"},{"name":"Xiaoshajiang","latitude":"27.52139000","longitude":"110.74806000"},{"name":"Xishan","latitude":"27.66667000","longitude":"113.50000000"},{"name":"Xixi","latitude":"27.69375000","longitude":"110.95333000"},{"name":"Xiyan","latitude":"26.61639000","longitude":"110.47361000"},{"name":"Yanmen","latitude":"27.85500000","longitude":"109.74028000"},{"name":"Yaoshi","latitude":"26.29306000","longitude":"110.78917000"},{"name":"Yatunpu","latitude":"26.15500000","longitude":"109.62667000"},{"name":"Yiyang","latitude":"28.58917000","longitude":"112.32833000"},{"name":"Yongfeng","latitude":"27.42829000","longitude":"112.18338000"},{"name":"Yongzhou","latitude":"26.44014000","longitude":"111.60290000"},{"name":"Yueyang","latitude":"29.37455000","longitude":"113.09481000"},{"name":"Yueyang Shi","latitude":"29.32472000","longitude":"113.30200000"},{"name":"Yutan","latitude":"28.25831000","longitude":"112.56048000"},{"name":"Zhaishi Miaozu Dongzuxiang","latitude":"26.50083000","longitude":"110.04444000"},{"name":"Zhangjiajie","latitude":"29.12944000","longitude":"110.47833000"},{"name":"Zhongfang","latitude":"27.41139000","longitude":"109.93194000"},{"name":"Zhongzhai","latitude":"27.19528000","longitude":"109.26861000"},{"name":"Zhushi","latitude":"27.08778000","longitude":"110.67694000"},{"name":"Zhuzhou","latitude":"27.83333000","longitude":"113.15000000"},{"name":"Zhuzhou Shi","latitude":"27.82450000","longitude":"113.08228000"},{"name":"Zhuzhoujiang Miaozuxiang","latitude":"26.67528000","longitude":"110.07194000"}]