[{"name":"Bashkia Bulqizë","latitude":"41.47152000","longitude":"20.33192000"},{"name":"Bashkia Klos","latitude":"41.50826000","longitude":"20.07107000"},{"name":"Bashkia Mat","latitude":"41.63317000","longitude":"20.01228000"},{"name":"Bulqizë","latitude":"41.49167000","longitude":"20.22194000"},{"name":"Burrel","latitude":"41.61028000","longitude":"20.00889000"},{"name":"Klos","latitude":"41.50694000","longitude":"20.08667000"},{"name":"Peshkopi","latitude":"41.68500000","longitude":"20.42889000"},{"name":"Rrethi i Bulqizës","latitude":"41.50000000","longitude":"20.33333000"},{"name":"Rrethi i Dibrës","latitude":"41.75000000","longitude":"20.33333000"},{"name":"Rrethi i Matit","latitude":"41.58333000","longitude":"20.08333000"},{"name":"Ulëz","latitude":"41.68278000","longitude":"19.89333000"}]