[{"name":"Pagliara","latitude":"37.98546000","longitude":"15.35969000"},{"name":"Palagonia","latitude":"37.32955000","longitude":"14.74474000"},{"name":"Palazzo Adriano","latitude":"37.68066000","longitude":"13.37941000"},{"name":"Palazzolo","latitude":"37.56224000","longitude":"14.92987000"},{"name":"Palazzolo Acreide","latitude":"37.06261000","longitude":"14.90593000"},{"name":"Palermo","latitude":"37.81667000","longitude":"13.58333000"},{"name":"Palma di Montechiaro","latitude":"37.19066000","longitude":"13.76603000"},{"name":"Pantelleria","latitude":"36.82836000","longitude":"11.94611000"},{"name":"Partanna","latitude":"37.72680000","longitude":"12.88917000"},{"name":"Partinico","latitude":"38.04657000","longitude":"13.11785000"},{"name":"Pasteria-Lapide","latitude":"37.81012000","longitude":"15.22818000"},{"name":"Paternò","latitude":"37.56675000","longitude":"14.90254000"},{"name":"Patti","latitude":"38.14736000","longitude":"14.96409000"},{"name":"Pedagaggi","latitude":"37.19182000","longitude":"14.93654000"},{"name":"Pedalino","latitude":"37.02320000","longitude":"14.58116000"},{"name":"Pedara","latitude":"37.62386000","longitude":"15.05672000"},{"name":"Pennisi","latitude":"37.64945000","longitude":"15.12385000"},{"name":"Petralia Soprana","latitude":"37.80064000","longitude":"14.10813000"},{"name":"Petralia Sottana","latitude":"37.80919000","longitude":"14.09293000"},{"name":"Petrosino","latitude":"37.71271000","longitude":"12.49964000"},{"name":"Pettineo","latitude":"37.96793000","longitude":"14.29118000"},{"name":"Piana degli Albanesi","latitude":"37.99372000","longitude":"13.28464000"},{"name":"Piano Maglio-Blandino","latitude":"38.05793000","longitude":"13.30909000"},{"name":"Piano dei Geli","latitude":"38.09919000","longitude":"13.27478000"},{"name":"Pianoconte","latitude":"38.47432000","longitude":"14.92857000"},{"name":"Piazza Armerina","latitude":"37.38417000","longitude":"14.36921000"},{"name":"Piedimonte Etneo","latitude":"37.80677000","longitude":"15.17516000"},{"name":"Pietraperzia","latitude":"37.41852000","longitude":"14.13739000"},{"name":"Pioppo","latitude":"38.05000000","longitude":"13.23333000"},{"name":"Piraino","latitude":"38.16127000","longitude":"14.86100000"},{"name":"Polizzi Generosa","latitude":"37.81159000","longitude":"14.00268000"},{"name":"Pollina","latitude":"37.99309000","longitude":"14.14586000"},{"name":"Portella di Mare","latitude":"38.07304000","longitude":"13.46199000"},{"name":"Porto Empedocle","latitude":"37.28942000","longitude":"13.52494000"},{"name":"Portopalo di Capo Passero","latitude":"36.68219000","longitude":"15.13378000"},{"name":"Pozzallo","latitude":"36.73028000","longitude":"14.84672000"},{"name":"Priolo Gargallo","latitude":"37.15512000","longitude":"15.18248000"},{"name":"Prizzi","latitude":"37.72088000","longitude":"13.43435000"},{"name":"Provincia di Caltanissetta","latitude":"37.37448000","longitude":"14.06421000"},{"name":"Provincia di Siracusa","latitude":"37.08805000","longitude":"15.27924000"},{"name":"Racalmuto","latitude":"37.40498000","longitude":"13.72995000"},{"name":"Raccuja","latitude":"38.05583000","longitude":"14.91044000"},{"name":"Raddusa","latitude":"37.47529000","longitude":"14.53521000"},{"name":"Raffadali","latitude":"37.40214000","longitude":"13.53175000"},{"name":"Ragalna","latitude":"37.63455000","longitude":"14.94698000"},{"name":"Ragusa","latitude":"36.91667000","longitude":"14.60000000"},{"name":"Ramacca","latitude":"37.38616000","longitude":"14.69241000"},{"name":"Randazzo","latitude":"37.87736000","longitude":"14.95012000"},{"name":"Ravanusa","latitude":"37.26659000","longitude":"13.96834000"},{"name":"Realmonte","latitude":"37.30847000","longitude":"13.46429000"},{"name":"Regalbuto","latitude":"37.65195000","longitude":"14.63915000"},{"name":"Reitano","latitude":"37.97198000","longitude":"14.34418000"},{"name":"Resuttano","latitude":"37.67865000","longitude":"14.02946000"},{"name":"Ribera","latitude":"37.49773000","longitude":"13.26676000"},{"name":"Riesi","latitude":"37.28079000","longitude":"14.08317000"},{"name":"Rilievo","latitude":"37.91638000","longitude":"12.54058000"},{"name":"Riposto","latitude":"37.73183000","longitude":"15.20576000"},{"name":"Rocca di Capri Leone","latitude":"38.10677000","longitude":"14.71032000"},{"name":"Roccafiorita","latitude":"37.93086000","longitude":"15.26739000"},{"name":"Roccalumera","latitude":"37.97554000","longitude":"15.39439000"},{"name":"Roccamena","latitude":"37.83824000","longitude":"13.15513000"},{"name":"Roccapalumba","latitude":"37.80825000","longitude":"13.63671000"},{"name":"Roccavaldina","latitude":"38.18296000","longitude":"15.37402000"},{"name":"Roccella Valdemone","latitude":"37.93289000","longitude":"15.00997000"},{"name":"Rodì","latitude":"38.10823000","longitude":"15.16933000"},{"name":"Rometta","latitude":"38.17007000","longitude":"15.41429000"},{"name":"Rometta Marea","latitude":"38.23264000","longitude":"15.40955000"},{"name":"Rosolini","latitude":"36.82145000","longitude":"14.95132000"},{"name":"Salaparuta","latitude":"37.75694000","longitude":"13.00981000"},{"name":"Salemi","latitude":"37.82199000","longitude":"12.80506000"},{"name":"Sambuca di Sicilia","latitude":"37.65294000","longitude":"13.11462000"},{"name":"San Biagio Platani","latitude":"37.50927000","longitude":"13.52844000"},{"name":"San Cataldo","latitude":"37.48412000","longitude":"13.98542000"},{"name":"San Cipirello","latitude":"37.96067000","longitude":"13.17732000"},{"name":"San Ciro-Ulmi-Filci","latitude":"37.83328000","longitude":"12.78229000"},{"name":"San Cono","latitude":"37.28992000","longitude":"14.36709000"},{"name":"San Filippo del Mela","latitude":"38.17007000","longitude":"15.27338000"},{"name":"San Fratello","latitude":"38.01556000","longitude":"14.59818000"},{"name":"San Giorgio","latitude":"38.16834000","longitude":"14.94825000"},{"name":"San Giovanni","latitude":"37.73538000","longitude":"15.15887000"},{"name":"San Giovanni Gemini","latitude":"37.62785000","longitude":"13.64357000"},{"name":"San Giovanni la Punta","latitude":"37.57690000","longitude":"15.09371000"},{"name":"San Giuseppe Jato","latitude":"37.97331000","longitude":"13.18889000"},{"name":"San Gregorio di Catania","latitude":"37.56764000","longitude":"15.11120000"},{"name":"San Leone Mosè","latitude":"37.26497000","longitude":"13.58434000"},{"name":"San Marco d'Alunzio","latitude":"38.07261000","longitude":"14.70093000"},{"name":"San Mauro Castelverde","latitude":"37.91478000","longitude":"14.18961000"},{"name":"San Michele di Ganzaria","latitude":"37.28042000","longitude":"14.42633000"},{"name":"San Pier Niceto","latitude":"38.16050000","longitude":"15.34982000"},{"name":"San Piero Patti","latitude":"38.05214000","longitude":"14.96816000"},{"name":"San Pietro Clarenza","latitude":"37.56885000","longitude":"15.02289000"},{"name":"San Salvatore di Fitalia","latitude":"38.06841000","longitude":"14.77799000"},{"name":"San Teodoro","latitude":"37.84797000","longitude":"14.69878000"},{"name":"San Vito Lo Capo","latitude":"38.17395000","longitude":"12.73599000"},{"name":"Sant'Agata Li Battiati","latitude":"37.55745000","longitude":"15.07999000"},{"name":"Sant'Agata di Militello","latitude":"38.06838000","longitude":"14.63600000"},{"name":"Sant'Alessio Siculo","latitude":"37.92516000","longitude":"15.34968000"},{"name":"Sant'Alfio","latitude":"37.74393000","longitude":"15.13952000"},{"name":"Sant'Angelo Muxaro","latitude":"37.48014000","longitude":"13.54554000"},{"name":"Sant'Angelo di Brolo","latitude":"38.11518000","longitude":"14.88403000"},{"name":"Santa Caterina Villarmosa","latitude":"37.59034000","longitude":"14.03554000"},{"name":"Santa Cristina Gela","latitude":"37.98514000","longitude":"13.32747000"},{"name":"Santa Croce Camerina","latitude":"36.82842000","longitude":"14.52538000"},{"name":"Santa Domenica Vittoria","latitude":"37.91624000","longitude":"14.96288000"},{"name":"Santa Elisabetta","latitude":"37.43171000","longitude":"13.55386000"},{"name":"Santa Flavia","latitude":"38.10448000","longitude":"13.53340000"},{"name":"Santa Lucia del Mela","latitude":"38.14408000","longitude":"15.28055000"},{"name":"Santa Margherita di Belice","latitude":"37.69281000","longitude":"13.01584000"},{"name":"Santa Maria di Licodia","latitude":"37.61684000","longitude":"14.89337000"},{"name":"Santa Maria la Stella","latitude":"37.62349000","longitude":"15.12071000"},{"name":"Santa Marina Salina","latitude":"38.56117000","longitude":"14.87077000"},{"name":"Santa Ninfa","latitude":"37.77042000","longitude":"12.87744000"},{"name":"Santa Teresa di Riva","latitude":"37.94635000","longitude":"15.36671000"},{"name":"Santa Venerina","latitude":"37.69103000","longitude":"15.13880000"},{"name":"Santo Stefano Quisquina","latitude":"37.62606000","longitude":"13.48976000"},{"name":"Santo Stefano di Camastra","latitude":"38.01295000","longitude":"14.35142000"},{"name":"Saponara","latitude":"38.19241000","longitude":"15.43442000"},{"name":"Saponara Marittima","latitude":"38.23121000","longitude":"15.42621000"},{"name":"Sasi","latitude":"37.90217000","longitude":"12.88788000"},{"name":"Savoca","latitude":"37.95326000","longitude":"15.34009000"},{"name":"Scaletta Zanclea","latitude":"38.04796000","longitude":"15.46769000"},{"name":"Sciacca","latitude":"37.50693000","longitude":"13.08399000"},{"name":"Sciara","latitude":"37.91511000","longitude":"13.76177000"},{"name":"Scicli","latitude":"36.79014000","longitude":"14.70280000"},{"name":"Scillato","latitude":"37.85778000","longitude":"13.90632000"},{"name":"Sclafani Bagni","latitude":"37.82175000","longitude":"13.85476000"},{"name":"Scoglitti","latitude":"36.89424000","longitude":"14.43355000"},{"name":"Scordia","latitude":"37.29548000","longitude":"14.84058000"},{"name":"Serradifalco","latitude":"37.45384000","longitude":"13.88046000"},{"name":"Sfaranda","latitude":"38.05815000","longitude":"14.83147000"},{"name":"Sferracavallo","latitude":"38.20000000","longitude":"13.28333000"},{"name":"Siculiana","latitude":"37.33515000","longitude":"13.42432000"},{"name":"Sinagra","latitude":"38.08191000","longitude":"14.85009000"},{"name":"Siracusa","latitude":"37.07542000","longitude":"15.28664000"},{"name":"Solarino","latitude":"37.10136000","longitude":"15.11988000"},{"name":"Sommatino","latitude":"37.33471000","longitude":"13.99739000"},{"name":"Sortino","latitude":"37.15881000","longitude":"15.02998000"},{"name":"Spadafora","latitude":"38.22349000","longitude":"15.38178000"},{"name":"Sparta'","latitude":"38.29371000","longitude":"15.53503000"},{"name":"Sperlinga","latitude":"37.76653000","longitude":"14.35075000"},{"name":"Sutera","latitude":"37.52493000","longitude":"13.73274000"},{"name":"Taormina","latitude":"37.85358000","longitude":"15.28851000"},{"name":"Terme","latitude":"38.13586000","longitude":"15.15658000"},{"name":"Termini Imerese","latitude":"37.98225000","longitude":"13.69729000"},{"name":"Terrasini","latitude":"38.14621000","longitude":"13.08319000"},{"name":"Tonnara di Bonagia","latitude":"38.06309000","longitude":"12.59434000"},{"name":"Tonnarella","latitude":"38.12539000","longitude":"15.11348000"},{"name":"Torre Colonna-Sperone","latitude":"38.02986000","longitude":"13.57377000"},{"name":"Torregrotta","latitude":"38.20262000","longitude":"15.35010000"},{"name":"Torrenova","latitude":"38.09246000","longitude":"14.67917000"},{"name":"Torretta","latitude":"38.13036000","longitude":"13.23549000"},{"name":"Tortorici","latitude":"38.02973000","longitude":"14.82212000"},{"name":"Trabia","latitude":"38.00420000","longitude":"13.63393000"},{"name":"Trapani","latitude":"37.83333000","longitude":"12.66667000"},{"name":"Trappeto","latitude":"38.06875000","longitude":"13.03794000"},{"name":"Tre Fontane","latitude":"37.56989000","longitude":"12.72423000"},{"name":"Trecastagni","latitude":"37.61543000","longitude":"15.07796000"},{"name":"Tremestieri Etneo","latitude":"37.56494000","longitude":"15.07863000"},{"name":"Tripi","latitude":"38.04673000","longitude":"15.09670000"},{"name":"Triscina","latitude":"37.58717000","longitude":"12.78912000"},{"name":"Troina","latitude":"37.78437000","longitude":"14.59605000"},{"name":"Tusa","latitude":"37.98385000","longitude":"14.23606000"},{"name":"Ucria","latitude":"38.04624000","longitude":"14.88087000"},{"name":"Ustica","latitude":"38.70985000","longitude":"13.19293000"},{"name":"Valderice","latitude":"38.04005000","longitude":"12.61505000"},{"name":"Valdina","latitude":"38.19351000","longitude":"15.36980000"},{"name":"Valguarnera Caropepe","latitude":"37.49527000","longitude":"14.39025000"},{"name":"Valledolmo","latitude":"37.74703000","longitude":"13.82811000"},{"name":"Vallelunga Pratameno","latitude":"37.68205000","longitude":"13.83156000"},{"name":"Valverde","latitude":"37.57695000","longitude":"15.12419000"},{"name":"Vambolieri","latitude":"37.57417000","longitude":"15.16019000"},{"name":"Venetico Marina","latitude":"38.21928000","longitude":"15.36648000"},{"name":"Venetico Superiore","latitude":"38.19307000","longitude":"15.38119000"},{"name":"Ventimiglia di Sicilia","latitude":"37.92361000","longitude":"13.56768000"},{"name":"Viagrande","latitude":"37.61032000","longitude":"15.09794000"},{"name":"Vicari","latitude":"37.82371000","longitude":"13.56889000"},{"name":"Vigliatore 2","latitude":"38.12221000","longitude":"15.13066000"},{"name":"Villa Ciambra","latitude":"38.06129000","longitude":"13.32000000"},{"name":"Villabate","latitude":"38.07789000","longitude":"13.44275000"},{"name":"Villafranca Sicula","latitude":"37.58761000","longitude":"13.29048000"},{"name":"Villafranca Tirrena","latitude":"38.23952000","longitude":"15.43885000"},{"name":"Villafrati","latitude":"37.90646000","longitude":"13.48486000"},{"name":"Villaggio del Pino-Le Ginestre","latitude":"37.58292000","longitude":"15.00377000"},{"name":"Villalba","latitude":"37.65457000","longitude":"13.84452000"},{"name":"Villarosa","latitude":"37.58753000","longitude":"14.17089000"},{"name":"Villaseta","latitude":"37.29877000","longitude":"13.55919000"},{"name":"Villasmundo","latitude":"37.25132000","longitude":"15.09087000"},{"name":"Vita","latitude":"37.86886000","longitude":"12.82755000"},{"name":"Vittoria","latitude":"36.95151000","longitude":"14.52788000"},{"name":"Vizzini","latitude":"37.16188000","longitude":"14.75712000"},{"name":"Zafferana Etnea","latitude":"37.67895000","longitude":"15.10432000"},{"name":"Acate","latitude":"37.02318000","longitude":"14.49302000"},{"name":"Aci Bonaccorsi","latitude":"37.59640000","longitude":"15.10724000"},{"name":"Aci Castello","latitude":"37.55564000","longitude":"15.14535000"},{"name":"Aci Catena","latitude":"37.60614000","longitude":"15.14165000"},{"name":"Aci Sant'Antonio","latitude":"37.60499000","longitude":"15.12294000"},{"name":"Aci Trezza","latitude":"37.56385000","longitude":"15.16136000"},{"name":"Acireale","latitude":"37.60886000","longitude":"15.16577000"},{"name":"Acitrezza","latitude":"37.55960000","longitude":"15.15990000"},{"name":"Acquaviva Platani","latitude":"37.57174000","longitude":"13.70156000"},{"name":"Acquedolci","latitude":"38.05708000","longitude":"14.58550000"},{"name":"Adrano","latitude":"37.66358000","longitude":"14.83283000"},{"name":"Agira","latitude":"37.65580000","longitude":"14.51972000"},{"name":"Agliandroni-Paternella","latitude":"38.13280000","longitude":"13.06884000"},{"name":"Agrigento","latitude":"37.45000000","longitude":"13.50000000"},{"name":"Aidone","latitude":"37.41468000","longitude":"14.44542000"},{"name":"Alcamo","latitude":"37.97790000","longitude":"12.96473000"},{"name":"Alcara Li Fusi","latitude":"38.02143000","longitude":"14.70142000"},{"name":"Alessandria della Rocca","latitude":"37.56767000","longitude":"13.45343000"},{"name":"Alia","latitude":"37.77867000","longitude":"13.71391000"},{"name":"Alimena","latitude":"37.69310000","longitude":"14.11369000"},{"name":"Aliminusa","latitude":"37.86395000","longitude":"13.78126000"},{"name":"Altavilla Milicia","latitude":"38.03800000","longitude":"13.54947000"},{"name":"Altofonte","latitude":"38.04298000","longitude":"13.29434000"},{"name":"Alì","latitude":"38.02678000","longitude":"15.41910000"},{"name":"Alì Terme","latitude":"38.00506000","longitude":"15.42269000"},{"name":"Antillo","latitude":"37.97937000","longitude":"15.24029000"},{"name":"Aragona","latitude":"37.39904000","longitude":"13.61974000"},{"name":"Assoro","latitude":"37.62210000","longitude":"14.41810000"},{"name":"Augusta","latitude":"37.24065000","longitude":"15.22121000"},{"name":"Avola","latitude":"36.90840000","longitude":"15.13937000"},{"name":"Bagheria","latitude":"38.07892000","longitude":"13.51237000"},{"name":"Balestrate","latitude":"38.05125000","longitude":"13.00724000"},{"name":"Barcellona Pozzo di Gotto","latitude":"38.14772000","longitude":"15.21469000"},{"name":"Barrafranca","latitude":"37.37850000","longitude":"14.20270000"},{"name":"Basicò","latitude":"38.06077000","longitude":"15.06263000"},{"name":"Baucina","latitude":"37.92521000","longitude":"13.53636000"},{"name":"Belmonte Mezzagno","latitude":"38.04653000","longitude":"13.39207000"},{"name":"Belpasso","latitude":"37.59192000","longitude":"14.97985000"},{"name":"Belvedere","latitude":"37.08839000","longitude":"15.21314000"},{"name":"Belvedere-Piano Tavola","latitude":"37.52955000","longitude":"14.98786000"},{"name":"Biancavilla","latitude":"37.64442000","longitude":"14.86685000"},{"name":"Bisacquino","latitude":"37.70352000","longitude":"13.26051000"},{"name":"Bivona","latitude":"37.61797000","longitude":"13.43895000"},{"name":"Blufi","latitude":"37.75205000","longitude":"14.07296000"},{"name":"Bolognetta","latitude":"37.97120000","longitude":"13.45627000"},{"name":"Bompensiere","latitude":"37.47240000","longitude":"13.78140000"},{"name":"Bompietro","latitude":"37.74394000","longitude":"14.09470000"},{"name":"Borgetto","latitude":"38.04664000","longitude":"13.14071000"},{"name":"Brolo","latitude":"38.15623000","longitude":"14.82799000"},{"name":"Bronte","latitude":"37.78863000","longitude":"14.83377000"},{"name":"Brucoli","latitude":"37.28191000","longitude":"15.18836000"},{"name":"Buccheri","latitude":"37.12494000","longitude":"14.85222000"},{"name":"Burgio","latitude":"37.60094000","longitude":"13.28826000"},{"name":"Buscemi","latitude":"37.08604000","longitude":"14.88499000"},{"name":"Buseto Palizzolo","latitude":"38.00339000","longitude":"12.70911000"},{"name":"Butera","latitude":"37.19100000","longitude":"14.18232000"},{"name":"Caccamo","latitude":"37.93357000","longitude":"13.66808000"},{"name":"Calamonaci","latitude":"37.52566000","longitude":"13.29053000"},{"name":"Calascibetta","latitude":"37.59024000","longitude":"14.27180000"},{"name":"Calatabiano","latitude":"37.82049000","longitude":"15.23069000"},{"name":"Calatafimi","latitude":"37.91440000","longitude":"12.86364000"},{"name":"Caltabellotta","latitude":"37.57543000","longitude":"13.21632000"},{"name":"Caltagirone","latitude":"37.23785000","longitude":"14.51551000"},{"name":"Caltanissetta","latitude":"37.49025000","longitude":"14.06216000"},{"name":"Caltavuturo","latitude":"37.82040000","longitude":"13.89158000"},{"name":"Camastra","latitude":"37.25380000","longitude":"13.79211000"},{"name":"Cammarata","latitude":"37.63361000","longitude":"13.62722000"},{"name":"Campanella-Gianforma","latitude":"36.92630000","longitude":"14.83360000"},{"name":"Campobello di Licata","latitude":"37.25759000","longitude":"13.91811000"},{"name":"Campobello di Mazara","latitude":"37.63464000","longitude":"12.74946000"},{"name":"Campofelice di Fitalia","latitude":"37.82686000","longitude":"13.48572000"},{"name":"Campofelice di Roccella","latitude":"37.99270000","longitude":"13.87648000"},{"name":"Campofiorito","latitude":"37.75374000","longitude":"13.26875000"},{"name":"Campofranco","latitude":"37.51208000","longitude":"13.71213000"},{"name":"Camporeale","latitude":"37.88612000","longitude":"13.10107000"},{"name":"Camporotondo Etneo","latitude":"37.56565000","longitude":"15.00319000"},{"name":"Canalicchio","latitude":"37.54097000","longitude":"15.09645000"},{"name":"Canicattini Bagni","latitude":"37.03171000","longitude":"15.06388000"},{"name":"Canicattì","latitude":"37.35842000","longitude":"13.84786000"},{"name":"Canneto","latitude":"38.49505000","longitude":"14.96037000"},{"name":"Cannizzaro-Favara","latitude":"38.06163000","longitude":"13.27167000"},{"name":"Capaci","latitude":"38.17107000","longitude":"13.23930000"},{"name":"Capizzi","latitude":"37.84788000","longitude":"14.47976000"},{"name":"Capo d'Orlando","latitude":"38.14262000","longitude":"14.73292000"},{"name":"Capri Leone","latitude":"38.08682000","longitude":"14.72959000"},{"name":"Carini","latitude":"38.13240000","longitude":"13.18274000"},{"name":"Carlentini","latitude":"37.28071000","longitude":"15.01020000"},{"name":"Caronia","latitude":"38.02381000","longitude":"14.44142000"},{"name":"Carrozziere","latitude":"37.03760000","longitude":"15.27195000"},{"name":"Carruba","latitude":"37.69062000","longitude":"15.18815000"},{"name":"Carrubazza-Motta","latitude":"37.55323000","longitude":"15.10819000"},{"name":"Casa Santa","latitude":"38.02514000","longitude":"12.54840000"},{"name":"Casalvecchio Siculo","latitude":"37.95850000","longitude":"15.32371000"},{"name":"Cassaro","latitude":"37.10571000","longitude":"14.94697000"},{"name":"Cassibile","latitude":"36.97862000","longitude":"15.20061000"},{"name":"Castanea delle Furie","latitude":"38.26165000","longitude":"15.52178000"},{"name":"Castel di Judica","latitude":"37.49475000","longitude":"14.64744000"},{"name":"Castel di Lucio","latitude":"37.88698000","longitude":"14.31116000"},{"name":"Castelbuono","latitude":"37.92530000","longitude":"14.08665000"},{"name":"Casteldaccia","latitude":"38.05121000","longitude":"13.53041000"},{"name":"Castell'Umberto","latitude":"38.08626000","longitude":"14.80686000"},{"name":"Castellammare del Golfo","latitude":"38.02653000","longitude":"12.88183000"},{"name":"Castellana Sicula","latitude":"37.78686000","longitude":"14.03906000"},{"name":"Castelluzzo","latitude":"38.10096000","longitude":"12.73599000"},{"name":"Castelmola","latitude":"37.85829000","longitude":"15.27713000"},{"name":"Casteltermini","latitude":"37.53874000","longitude":"13.64601000"},{"name":"Castelvetrano","latitude":"37.68081000","longitude":"12.79194000"},{"name":"Castiglione di Sicilia","latitude":"37.88150000","longitude":"15.12156000"},{"name":"Castrofilippo","latitude":"37.35046000","longitude":"13.75001000"},{"name":"Castronuovo di Sicilia","latitude":"37.67894000","longitude":"13.60346000"},{"name":"Castroreale","latitude":"38.09857000","longitude":"15.21012000"},{"name":"Catania","latitude":"37.47169000","longitude":"14.84731000"},{"name":"Catenanuova","latitude":"37.56876000","longitude":"14.69076000"},{"name":"Cattolica Eraclea","latitude":"37.44069000","longitude":"13.39265000"},{"name":"Cava d'Aliga","latitude":"36.72964000","longitude":"14.69031000"},{"name":"Cefalà Diana","latitude":"37.91565000","longitude":"13.46325000"},{"name":"Cefalù","latitude":"38.03856000","longitude":"14.02285000"},{"name":"Centuripe","latitude":"37.62336000","longitude":"14.74049000"},{"name":"Cerami","latitude":"37.80953000","longitude":"14.50660000"},{"name":"Cerda","latitude":"37.90578000","longitude":"13.81496000"},{"name":"Cerza","latitude":"37.54297000","longitude":"15.10510000"},{"name":"Cesarò","latitude":"37.84476000","longitude":"14.71308000"},{"name":"Chianchitta-Pallio","latitude":"37.82108000","longitude":"15.25317000"},{"name":"Chianchitta-Trappitello","latitude":"37.82984000","longitude":"15.25077000"},{"name":"Chiaramonte Gulfi","latitude":"37.03050000","longitude":"14.70302000"},{"name":"Chiusa Sclafani","latitude":"37.67692000","longitude":"13.27074000"},{"name":"Ciaculli","latitude":"38.07530000","longitude":"13.40719000"},{"name":"Cianciana","latitude":"37.51896000","longitude":"13.43349000"},{"name":"Ciavolo","latitude":"37.77943000","longitude":"12.53774000"},{"name":"Ciminna","latitude":"37.89765000","longitude":"13.55966000"},{"name":"Cinisi","latitude":"38.16082000","longitude":"13.10099000"},{"name":"Città Giardino","latitude":"37.10444000","longitude":"15.21172000"},{"name":"Collesano","latitude":"37.91809000","longitude":"13.93702000"},{"name":"Comiso","latitude":"36.94893000","longitude":"14.60731000"},{"name":"Comitini","latitude":"37.40735000","longitude":"13.64530000"},{"name":"Condrò","latitude":"38.17375000","longitude":"15.32660000"},{"name":"Contessa Entellina","latitude":"37.73005000","longitude":"13.18425000"},{"name":"Corleone","latitude":"37.81338000","longitude":"13.30170000"},{"name":"Custonaci","latitude":"38.07931000","longitude":"12.68571000"},{"name":"Delia","latitude":"37.35796000","longitude":"13.92867000"},{"name":"Donnalucata","latitude":"36.76117000","longitude":"14.64022000"},{"name":"Enna","latitude":"37.58333000","longitude":"14.43333000"},{"name":"Erice","latitude":"38.03785000","longitude":"12.58778000"},{"name":"Evangelisti-Rubino","latitude":"37.98412000","longitude":"15.17324000"},{"name":"Falcone","latitude":"38.11698000","longitude":"15.07965000"},{"name":"Faro Superiore","latitude":"38.26794000","longitude":"15.58268000"},{"name":"Favara","latitude":"37.31754000","longitude":"13.66226000"},{"name":"Favignana","latitude":"37.92951000","longitude":"12.32958000"},{"name":"Ferla","latitude":"37.11978000","longitude":"14.93881000"},{"name":"Ficarazzi","latitude":"38.09229000","longitude":"13.46390000"},{"name":"Ficarra","latitude":"38.10849000","longitude":"14.82990000"},{"name":"Finale","latitude":"38.01891000","longitude":"14.16151000"},{"name":"Fiumedinisi","latitude":"38.02596000","longitude":"15.38099000"},{"name":"Fiumefreddo Sicilia","latitude":"37.79146000","longitude":"15.20919000"},{"name":"Floresta","latitude":"37.98779000","longitude":"14.91096000"},{"name":"Floridia","latitude":"37.08343000","longitude":"15.15332000"},{"name":"Fondachelli-Fantina","latitude":"37.98476000","longitude":"15.17519000"},{"name":"Forza d'Agrò","latitude":"37.91539000","longitude":"15.33409000"},{"name":"Francavilla di Sicilia","latitude":"37.90197000","longitude":"15.13821000"},{"name":"Francofonte","latitude":"37.22477000","longitude":"14.87488000"},{"name":"Frazzanò","latitude":"38.07202000","longitude":"14.74407000"},{"name":"Fulgatore-Torretta","latitude":"37.94977000","longitude":"12.69303000"},{"name":"Furci Siculo","latitude":"37.96159000","longitude":"15.37763000"},{"name":"Furnari","latitude":"38.10436000","longitude":"15.12358000"},{"name":"Gaggi","latitude":"37.85995000","longitude":"15.22126000"},{"name":"Gagliano Castelferrato","latitude":"37.70967000","longitude":"14.53524000"},{"name":"Galati Mamertino","latitude":"38.03176000","longitude":"14.77145000"},{"name":"Gallodoro","latitude":"37.90206000","longitude":"15.29359000"},{"name":"Gangi","latitude":"37.79565000","longitude":"14.20437000"},{"name":"Gela","latitude":"37.07381000","longitude":"14.24038000"},{"name":"Geraci Siculo","latitude":"37.85901000","longitude":"14.15333000"},{"name":"Giacalone","latitude":"38.03276000","longitude":"13.23695000"},{"name":"Giammoro","latitude":"38.20372000","longitude":"15.30666000"},{"name":"Giardina Gallotti","latitude":"37.35073000","longitude":"13.52272000"},{"name":"Giardinello","latitude":"38.08706000","longitude":"13.15648000"},{"name":"Giardini-Naxos","latitude":"37.82755000","longitude":"15.26713000"},{"name":"Giarratana","latitude":"37.04741000","longitude":"14.79454000"},{"name":"Giarre","latitude":"37.72440000","longitude":"15.18165000"},{"name":"Gioiosa Marea","latitude":"38.17373000","longitude":"14.89932000"},{"name":"Giuliana","latitude":"37.67280000","longitude":"13.23737000"},{"name":"Gliaca","latitude":"38.16317000","longitude":"14.84768000"},{"name":"Godrano","latitude":"37.90310000","longitude":"13.42823000"},{"name":"Grammichele","latitude":"37.21326000","longitude":"14.63311000"},{"name":"Graniti","latitude":"37.88986000","longitude":"15.22459000"},{"name":"Gratteri","latitude":"37.96607000","longitude":"13.97314000"},{"name":"Gravina di Catania","latitude":"37.56085000","longitude":"15.06292000"},{"name":"Grotte","latitude":"37.40346000","longitude":"13.69889000"},{"name":"Gualtieri Sicaminò","latitude":"38.16267000","longitude":"15.31699000"},{"name":"Guidomandri Marina","latitude":"38.04528000","longitude":"15.46303000"},{"name":"Isnello","latitude":"37.94324000","longitude":"14.00724000"},{"name":"Isola delle Femmine","latitude":"38.19123000","longitude":"13.24691000"},{"name":"Ispica","latitude":"36.78622000","longitude":"14.90530000"},{"name":"Itala","latitude":"38.05144000","longitude":"15.43706000"},{"name":"Joppolo Giancaxio","latitude":"37.38681000","longitude":"13.55586000"},{"name":"Kamma","latitude":"36.79701000","longitude":"12.03617000"},{"name":"Lampedusa","latitude":"35.50142000","longitude":"12.60964000"},{"name":"Larderia","latitude":"38.14101000","longitude":"15.50287000"},{"name":"Lascari","latitude":"38.00067000","longitude":"13.94053000"},{"name":"Lavinaio-Monterosso","latitude":"37.64097000","longitude":"15.10462000"},{"name":"Leni","latitude":"38.55534000","longitude":"14.82497000"},{"name":"Lentini","latitude":"37.28556000","longitude":"14.99737000"},{"name":"Leonforte","latitude":"37.64197000","longitude":"14.39766000"},{"name":"Lercara Friddi","latitude":"37.74657000","longitude":"13.60391000"},{"name":"Letojanni","latitude":"37.88050000","longitude":"15.30735000"},{"name":"Librizzi","latitude":"38.09719000","longitude":"14.95909000"},{"name":"Licata","latitude":"37.10267000","longitude":"13.93972000"},{"name":"Licodia Eubea","latitude":"37.15674000","longitude":"14.70555000"},{"name":"Limina","latitude":"37.94076000","longitude":"15.27119000"},{"name":"Linera","latitude":"37.66380000","longitude":"15.13653000"},{"name":"Linguaglossa","latitude":"37.84243000","longitude":"15.13774000"},{"name":"Lipari","latitude":"38.46743000","longitude":"14.95398000"},{"name":"Longi","latitude":"38.02617000","longitude":"14.75306000"},{"name":"Lucca Sicula","latitude":"37.57783000","longitude":"13.30579000"},{"name":"Maletto","latitude":"37.82914000","longitude":"14.86403000"},{"name":"Malfa","latitude":"38.57730000","longitude":"14.83598000"},{"name":"Malvagna","latitude":"37.91752000","longitude":"15.05548000"},{"name":"Mandanici","latitude":"38.00356000","longitude":"15.31669000"},{"name":"Maniace","latitude":"37.88306000","longitude":"14.79808000"},{"name":"Marausa","latitude":"37.94166000","longitude":"12.50948000"},{"name":"Marianopoli","latitude":"37.59840000","longitude":"13.91520000"},{"name":"Marina di Caronia","latitude":"38.03545000","longitude":"14.44182000"},{"name":"Marina di Ragusa","latitude":"36.78575000","longitude":"14.55474000"},{"name":"Marinella","latitude":"37.59475000","longitude":"12.84434000"},{"name":"Marineo","latitude":"37.95185000","longitude":"13.41781000"},{"name":"Marsala","latitude":"37.79920000","longitude":"12.43670000"},{"name":"Mascali","latitude":"37.75794000","longitude":"15.19662000"},{"name":"Mascalucia","latitude":"37.57465000","longitude":"15.04964000"},{"name":"Maugeri","latitude":"37.58608000","longitude":"15.11785000"},{"name":"Mazara II","latitude":"37.68146000","longitude":"12.60074000"},{"name":"Mazara del Vallo","latitude":"37.65535000","longitude":"12.58986000"},{"name":"Mazzarino","latitude":"37.30188000","longitude":"14.20959000"},{"name":"Mazzarrone","latitude":"37.08834000","longitude":"14.56128000"},{"name":"Mazzarrà Sant'Andrea","latitude":"38.08969000","longitude":"15.13535000"},{"name":"Melia","latitude":"37.90384000","longitude":"15.27499000"},{"name":"Melilli","latitude":"37.17821000","longitude":"15.13020000"},{"name":"Menfi","latitude":"37.60409000","longitude":"12.96889000"},{"name":"Merì","latitude":"38.16630000","longitude":"15.24970000"},{"name":"Messina","latitude":"38.05000000","longitude":"14.86667000"},{"name":"Mezzojuso","latitude":"37.86509000","longitude":"13.46509000"},{"name":"Milazzo","latitude":"38.22008000","longitude":"15.24023000"},{"name":"Milena","latitude":"37.47133000","longitude":"13.73613000"},{"name":"Militello Rosmarino","latitude":"38.04575000","longitude":"14.67584000"},{"name":"Militello in Val di Catania","latitude":"37.27594000","longitude":"14.79342000"},{"name":"Milo","latitude":"37.72450000","longitude":"15.11554000"},{"name":"Mineo","latitude":"37.26494000","longitude":"14.69381000"},{"name":"Mirabella Imbaccari","latitude":"37.32702000","longitude":"14.44605000"},{"name":"Mirto","latitude":"38.08439000","longitude":"14.74609000"},{"name":"Misilmeri","latitude":"38.03183000","longitude":"13.44795000"},{"name":"Misterbianco","latitude":"37.51803000","longitude":"15.00913000"},{"name":"Mistretta","latitude":"37.92823000","longitude":"14.35780000"},{"name":"Modica","latitude":"36.85868000","longitude":"14.75966000"},{"name":"Moio Alcantara","latitude":"37.90056000","longitude":"15.05072000"},{"name":"Monforte San Giorgio","latitude":"38.15733000","longitude":"15.38132000"},{"name":"Mongiuffi Melia","latitude":"37.90336000","longitude":"15.27539000"},{"name":"Monreale","latitude":"38.08125000","longitude":"13.28947000"},{"name":"Montagnareale","latitude":"38.13216000","longitude":"14.94658000"},{"name":"Montalbano Elicona","latitude":"38.02360000","longitude":"15.01393000"},{"name":"Montallegro","latitude":"37.39121000","longitude":"13.35179000"},{"name":"Montedoro","latitude":"37.45431000","longitude":"13.81684000"},{"name":"Montelepre","latitude":"38.09026000","longitude":"13.17518000"},{"name":"Montemaggiore Belsito","latitude":"37.84818000","longitude":"13.76206000"},{"name":"Monterosso Almo","latitude":"37.08884000","longitude":"14.76498000"},{"name":"Montevago","latitude":"37.70224000","longitude":"12.98584000"},{"name":"Motta Camastra","latitude":"37.89431000","longitude":"15.17008000"},{"name":"Motta Sant'Anastasia","latitude":"37.51205000","longitude":"14.96628000"},{"name":"Motta d'Affermo","latitude":"37.98096000","longitude":"14.30337000"},{"name":"Mussomeli","latitude":"37.58067000","longitude":"13.75214000"},{"name":"Naro","latitude":"37.29248000","longitude":"13.79337000"},{"name":"Naso","latitude":"38.12215000","longitude":"14.78702000"},{"name":"Nicolosi","latitude":"37.62148000","longitude":"15.02785000"},{"name":"Nicosia","latitude":"37.74747000","longitude":"14.39218000"},{"name":"Niscemi","latitude":"37.14649000","longitude":"14.39381000"},{"name":"Nissoria","latitude":"37.65410000","longitude":"14.44810000"},{"name":"Nizza di Sicilia","latitude":"37.99081000","longitude":"15.40956000"},{"name":"Noto","latitude":"36.89244000","longitude":"15.06977000"},{"name":"Novara di Sicilia","latitude":"38.01538000","longitude":"15.13134000"},{"name":"Nunziata","latitude":"37.75858000","longitude":"15.17058000"},{"name":"Nuova Gibellina","latitude":"37.80704000","longitude":"12.86954000"},{"name":"Nuovo Centro Urbano Poggioreale","latitude":"37.76404000","longitude":"13.03594000"},{"name":"Oliveri","latitude":"38.12515000","longitude":"15.06068000"},{"name":"Pace del Mela","latitude":"38.17997000","longitude":"15.30629000"},{"name":"Paceco","latitude":"37.98026000","longitude":"12.55766000"},{"name":"Pachino","latitude":"36.71522000","longitude":"15.09019000"}]