[{"name":"Arris","latitude":"35.25881000","longitude":"6.34706000"},{"name":"Aïn Touta","latitude":"35.37675000","longitude":"5.90001000"},{"name":"Barika","latitude":"35.38901000","longitude":"5.36584000"},{"name":"Batna","latitude":"35.55597000","longitude":"6.17414000"},{"name":"Boumagueur","latitude":"35.50520000","longitude":"5.55250000"},{"name":"Merouana","latitude":"35.63106000","longitude":"5.91186000"},{"name":"Râs el Aïoun","latitude":"35.67384000","longitude":"5.64530000"},{"name":"Tazoult-Lambese","latitude":"35.48171000","longitude":"6.26074000"}]