[{"name":"Ilemela District","latitude":"-2.44783000","longitude":"33.03177000"},{"name":"Kihangara","latitude":"-2.58333000","longitude":"33.35000000"},{"name":"Malya","latitude":"-2.98333000","longitude":"33.51667000"},{"name":"Misasi","latitude":"-3.00000000","longitude":"33.08333000"},{"name":"Misungwi","latitude":"-2.85000000","longitude":"33.08333000"},{"name":"Mwanza","latitude":"-2.51667000","longitude":"32.90000000"},{"name":"Ngudu","latitude":"-2.96667000","longitude":"33.33333000"},{"name":"Nyanguge","latitude":"-2.55000000","longitude":"33.20000000"},{"name":"Usagara","latitude":"-2.68333000","longitude":"33.00000000"}]