[{"name":"Buan-gun","latitude":"35.70000000","longitude":"126.66667000"},{"name":"Changsu","latitude":"35.64842000","longitude":"127.51523000"},{"name":"Gimje-si","latitude":"35.80701000","longitude":"126.90755000"},{"name":"Gochang-gun","latitude":"35.43483000","longitude":"126.70047000"},{"name":"Gunsan","latitude":"35.97861000","longitude":"126.71139000"},{"name":"Gunsan-si","latitude":"35.93583000","longitude":"126.68338000"},{"name":"Iksan","latitude":"35.94389000","longitude":"126.95444000"},{"name":"Iksan-si","latitude":"36.03718000","longitude":"126.98897000"},{"name":"Imsil","latitude":"35.61306000","longitude":"127.27944000"},{"name":"Imsil-gun","latitude":"35.62160000","longitude":"127.23187000"},{"name":"Jangsu-gun","latitude":"35.62504000","longitude":"127.56358000"},{"name":"Jeongeup","latitude":"35.60004000","longitude":"126.91699000"},{"name":"Jeongeup-si","latitude":"35.60000000","longitude":"126.91667000"},{"name":"Jeonju","latitude":"35.82194000","longitude":"127.14889000"},{"name":"Jeonju-si","latitude":"35.83333000","longitude":"127.15000000"},{"name":"Jinan-gun","latitude":"35.80472000","longitude":"127.47579000"},{"name":"Kimje","latitude":"35.80167000","longitude":"126.88889000"},{"name":"Koch'ang","latitude":"35.43333000","longitude":"126.70000000"},{"name":"Muju-gun","latitude":"35.93172000","longitude":"127.71118000"},{"name":"Namwon","latitude":"35.44821000","longitude":"127.38007000"},{"name":"Nangen","latitude":"35.41000000","longitude":"127.38583000"},{"name":"Puan","latitude":"35.72806000","longitude":"126.73194000"},{"name":"Sunchang-gun","latitude":"35.37651000","longitude":"127.14967000"},{"name":"Wanju","latitude":"35.84509000","longitude":"127.14752000"}]