[{"name":"Huyện Duy Xuyên","latitude":"15.78970000","longitude":"108.20247000"},{"name":"Huyện Hiệp Đức","latitude":"15.53857000","longitude":"108.09539000"},{"name":"Huyện Nam Giang","latitude":"15.63201000","longitude":"107.60267000"},{"name":"Huyện Núi Thành","latitude":"15.43345000","longitude":"108.57438000"},{"name":"Huyện Phước Sơn","latitude":"15.38806000","longitude":"107.85766000"},{"name":"Huyện Tiên Phước","latitude":"15.47090000","longitude":"108.28257000"},{"name":"Huyện Trà My","latitude":"15.25000000","longitude":"108.08333000"},{"name":"Huyện Điện Bàn","latitude":"15.89917000","longitude":"108.22470000"},{"name":"Huyện Đại Lộc","latitude":"15.83721000","longitude":"107.97894000"},{"name":"Hội An","latitude":"15.87944000","longitude":"108.33500000"},{"name":"Tam Kỳ","latitude":"15.57364000","longitude":"108.47403000"}]