[{"name":"Bahçecik","latitude":"40.66810000","longitude":"29.91478000"},{"name":"Balçık","latitude":"40.87250000","longitude":"29.42833000"},{"name":"Başiskele","latitude":"40.64574000","longitude":"29.90015000"},{"name":"Darıca","latitude":"40.76780000","longitude":"29.37126000"},{"name":"Derince","latitude":"40.75694000","longitude":"29.81472000"},{"name":"Dilovası","latitude":"40.77972000","longitude":"29.53500000"},{"name":"Gebze","latitude":"40.80276000","longitude":"29.43068000"},{"name":"Gölcük","latitude":"40.70323000","longitude":"29.87216000"},{"name":"Halıdere","latitude":"40.71604000","longitude":"29.75223000"},{"name":"Kandıra","latitude":"41.07000000","longitude":"30.15262000"},{"name":"Karamürsel","latitude":"40.69129000","longitude":"29.61649000"},{"name":"Kartepe","latitude":"40.75246000","longitude":"30.02787000"},{"name":"Karşıyaka","latitude":"40.69360000","longitude":"29.94154000"},{"name":"Kefken","latitude":"41.16833000","longitude":"30.22972000"},{"name":"Kullar","latitude":"40.72419000","longitude":"29.98943000"},{"name":"Körfez","latitude":"40.76704000","longitude":"29.78275000"},{"name":"Köseköy","latitude":"40.74012000","longitude":"30.00556000"},{"name":"Tavşancıl","latitude":"40.77083000","longitude":"29.57194000"},{"name":"Tavşanlı","latitude":"40.81876000","longitude":"29.51136000"},{"name":"Ulaşlı","latitude":"40.70583000","longitude":"29.69608000"},{"name":"Yalakdere","latitude":"40.60636000","longitude":"29.56225000"},{"name":"Yuvacık","latitude":"40.68815000","longitude":"29.96738000"},{"name":"Çayırova","latitude":"40.82784000","longitude":"29.39014000"},{"name":"İhsaniye","latitude":"40.69087000","longitude":"29.83472000"},{"name":"İzmit","latitude":"40.77521000","longitude":"29.94624000"}]