[{"name":"Anenii Noi District","countryCode":"MD","fipsCode":"59","iso":"AN","latitude":"46.87956630","longitude":"29.23121750"},{"name":"Basarabeasca District","countryCode":"MD","fipsCode":"61","iso":"BS","latitude":"46.42370600","longitude":"28.89354920"},{"name":"Bender Municipality","countryCode":"MD","fipsCode":"62","iso":"BD","latitude":"46.82275510","longitude":"29.46201010"},{"name":"Briceni District","countryCode":"MD","fipsCode":"63","iso":"BR","latitude":"48.36320220","longitude":"27.07503980"},{"name":"Bălți Municipality","countryCode":"MD","fipsCode":"60","iso":"BA","latitude":"47.75399470","longitude":"27.91841480"},{"name":"Cahul District","countryCode":"MD","fipsCode":"64","iso":"CA","latitude":"45.89394040","longitude":"28.18902750"},{"name":"Cantemir District","countryCode":"MD","fipsCode":"65","iso":"CT","latitude":"46.27717420","longitude":"28.20096530"},{"name":"Chișinău Municipality","countryCode":"MD","fipsCode":"57","iso":"CU","latitude":"47.01045290","longitude":"28.86381020"},{"name":"Cimișlia District","countryCode":"MD","fipsCode":"68","iso":"CM","latitude":"46.52508510","longitude":"28.77218350"},{"name":"Criuleni District","countryCode":"MD","fipsCode":"69","iso":"CR","latitude":"47.21361140","longitude":"29.15575190"},{"name":"Călărași District","countryCode":"MD","fipsCode":"66","iso":"CL","latitude":"47.28694600","longitude":"28.27453100"},{"name":"Căușeni District","countryCode":"MD","fipsCode":"67","iso":"CS","latitude":"46.65547150","longitude":"29.40912220"},{"name":"Dondușeni District","countryCode":"MD","fipsCode":"70","iso":"DO","latitude":"48.23383050","longitude":"27.59980870"},{"name":"Drochia District","countryCode":"MD","fipsCode":"71","iso":"DR","latitude":"48.07977880","longitude":"27.86041140"},{"name":"Dubăsari District","countryCode":"MD","fipsCode":"72","iso":"DU","latitude":"47.26439420","longitude":"29.15503480"},{"name":"Edineț District","countryCode":"MD","fipsCode":"73","iso":"ED","latitude":"48.16789910","longitude":"27.29361430"},{"name":"Florești District","countryCode":"MD","fipsCode":"75","iso":"FL","latitude":"47.86678490","longitude":"28.33918640"},{"name":"Fălești District","countryCode":"MD","fipsCode":"74","iso":"FA","latitude":"47.56477250","longitude":"27.72655930"},{"name":"Gagauzia","countryCode":"MD","fipsCode":"51","iso":"GA","latitude":"46.09794350","longitude":"28.63846450"},{"name":"Glodeni District","countryCode":"MD","fipsCode":"76","iso":"GL","latitude":"47.77901560","longitude":"27.51680100"},{"name":"Hîncești District","countryCode":"MD","fipsCode":"77","iso":"HI","latitude":"46.82811470","longitude":"28.58508890"},{"name":"Ialoveni District","countryCode":"MD","fipsCode":"78","iso":"IA","latitude":"46.86308600","longitude":"28.82342180"},{"name":"Nisporeni District","countryCode":"MD","fipsCode":"80","iso":"NI","latitude":"47.07513490","longitude":"28.17681550"},{"name":"Ocnița District","countryCode":"MD","fipsCode":"81","iso":"OC","latitude":"48.41104350","longitude":"27.47680920"},{"name":"Orhei District","countryCode":"MD","fipsCode":"82","iso":"OR","latitude":"47.38604000","longitude":"28.83030820"},{"name":"Rezina District","countryCode":"MD","fipsCode":"83","iso":"RE","latitude":"47.71804470","longitude":"28.88710240"},{"name":"Rîșcani District","countryCode":"MD","fipsCode":"84","iso":"RI","latitude":"47.90701530","longitude":"27.53749960"},{"name":"Soroca District","countryCode":"MD","fipsCode":"87","iso":"SO","latitude":"48.15497430","longitude":"28.28707830"},{"name":"Strășeni District","countryCode":"MD","fipsCode":"89","iso":"ST","latitude":"47.14502670","longitude":"28.61367360"},{"name":"Sîngerei District","countryCode":"MD","fipsCode":"85","iso":"SI","latitude":"47.63891340","longitude":"28.13718160"},{"name":"Taraclia District","countryCode":"MD","fipsCode":"90","iso":"TA","latitude":"45.89865100","longitude":"28.66716440"},{"name":"Telenești District","countryCode":"MD","fipsCode":"91","iso":"TE","latitude":"47.49839620","longitude":"28.36760190"},{"name":"Transnistria autonomous territorial unit","countryCode":"MD","fipsCode":"58","iso":"SN","latitude":"47.21529720","longitude":"29.46380540"},{"name":"Ungheni District","countryCode":"MD","fipsCode":"92","iso":"UN","latitude":"47.23057670","longitude":"27.78926610"},{"name":"Șoldănești District","countryCode":"MD","fipsCode":"86","iso":"SD","latitude":"47.81473890","longitude":"28.78895860"},{"name":"Ștefan Vodă District","countryCode":"MD","fipsCode":"88","iso":"SV","latitude":"46.55404880","longitude":"29.70224200"}]