[{"name":"Banská Bystrica","latitude":"48.73946000","longitude":"19.15349000"},{"name":"Banská Štiavnica","latitude":"48.44858000","longitude":"18.91003000"},{"name":"Brezno","latitude":"48.80431000","longitude":"19.63631000"},{"name":"Detva","latitude":"48.56082000","longitude":"19.41954000"},{"name":"Dudince","latitude":"48.17135000","longitude":"18.88782000"},{"name":"Fiľakovo","latitude":"48.26757000","longitude":"19.82473000"},{"name":"Hriňová","latitude":"48.57787000","longitude":"19.52574000"},{"name":"Hrochoť,Slovakia","latitude":"48.65567000","longitude":"19.31284000"},{"name":"Kováčová","latitude":"48.60148000","longitude":"19.10252000"},{"name":"Kremnica","latitude":"48.70519000","longitude":"18.91834000"},{"name":"Krupina","latitude":"48.35540000","longitude":"19.06474000"},{"name":"Lučenec","latitude":"48.33249000","longitude":"19.66708000"},{"name":"Nová Baňa","latitude":"48.42305000","longitude":"18.64037000"},{"name":"Okres Banská Bystrica","latitude":"48.73333000","longitude":"19.15000000"},{"name":"Okres Banská Štiavnica","latitude":"48.44961000","longitude":"18.90820000"},{"name":"Okres Brezno","latitude":"48.80000000","longitude":"19.75000000"},{"name":"Okres Detva","latitude":"48.55985000","longitude":"19.42044000"},{"name":"Okres Krupina","latitude":"48.35736000","longitude":"19.06334000"},{"name":"Okres Lučenec","latitude":"48.33333000","longitude":"19.66667000"},{"name":"Okres Poltár","latitude":"48.42895000","longitude":"19.79488000"},{"name":"Okres Revúca","latitude":"48.68300000","longitude":"20.11568000"},{"name":"Okres Veľký Krtíš","latitude":"48.20000000","longitude":"19.35000000"},{"name":"Okres Zvolen","latitude":"48.58333000","longitude":"19.13333000"},{"name":"Okres Žarnovica","latitude":"48.48438000","longitude":"18.72076000"},{"name":"Okres Žiar nad Hronom","latitude":"48.58333000","longitude":"18.86667000"},{"name":"Poltár","latitude":"48.43094000","longitude":"19.79408000"},{"name":"Revúca","latitude":"48.68346000","longitude":"20.11734000"},{"name":"Rimavská Sobota","latitude":"48.38284000","longitude":"20.02239000"},{"name":"Svätý Anton","latitude":"48.41923000","longitude":"18.94010000"},{"name":"Tisovec","latitude":"48.67738000","longitude":"19.94364000"},{"name":"Veľký Krtíš","latitude":"48.21059000","longitude":"19.35043000"},{"name":"Zvolen","latitude":"48.57442000","longitude":"19.15324000"},{"name":"Čierny Balog","latitude":"48.74722000","longitude":"19.65125000"},{"name":"Žarnovica","latitude":"48.48123000","longitude":"18.71565000"},{"name":"Žiar nad Hronom","latitude":"48.59184000","longitude":"18.84958000"}]